{"id": "49-5", "latMin": 49, "lonMin": 5, "latMax": 50, "lonMax": 6, "generated": "2026-04-16T18:39:08.272Z", "count": 219, "pois": [{"type": "node", "id": 4569994725, "lat": 49.524965, "lon": 5.893187, "tags": {"amenity": "charging_station", "operator": "Enovos", "name": "Administration Communale de la Ville de Differdange 002", "addr:country": "DE", "capacity": "2", "_source": "worldwide"}}, {"type": "node", "id": 5412417922, "lat": 49.523549, "lon": 5.890633, "tags": {"amenity": "charging_station", "brand": "Chargy", "opening_hours": "24/7", "operator": "Chargy", "name": "Differdange - Parking Gerlache", "addr:country": "DE", "socket:type2": "2", "socket:type2:output": "22.0 kW", "charging_station:output": "22.0 kW", "capacity": "2", "_source": "worldwide"}}, {"type": "node", "id": 6047149208, "lat": 49.5218, "lon": 5.8924, "tags": {"amenity": "charging_station", "brand": "Chargy", "opening_hours": "24/7", "operator": "Chargy", "name": "Chargy Ok - Opkorn", "addr:country": "DE", "socket:type2": "16", "socket:type2:output": "22.0 kW", "charging_station:output": "22.0 kW", "capacity": "16", "_source": "worldwide"}}, {"type": "node", "id": 4714073059, "lat": 49.887316, "lon": 5.814634, "tags": {"amenity": "charging_station", "brand": "Chargy", "opening_hours": "24/7", "operator": "Electris;Commune de Boulaide", "name": "Chargy Ok - Commune de Boulaide - Parking Cimetière", "addr:country": "DE", "socket:type2": "2", "socket:type2:output": "22.0 kW", "socket:schuko": "2", "socket:schuko:output": "2.3 kW", "charging_station:output": "22.0 kW", "capacity": "2", "_source": "worldwide"}}, {"type": "node", "id": 4928748422, "lat": 49.587112, "lon": 5.804865, "tags": {"amenity": "charging_station", "operator": "Messancy (rue de la hart)", "name": "Ladestation Messancy (rue de la hart)", "addr:country": "DE", "_source": "worldwide"}}, {"type": "node", "id": 4946012901, "lat": 49.519842, "lon": 5.908084, "tags": {"amenity": "charging_station", "addr:country": "DE", "_source": "worldwide"}}, {"type": "node", "id": 5236542306, "lat": 49.533371, "lon": 5.887988, "tags": {"amenity": "charging_station", "brand": "Chargy", "opening_hours": "24/7", "operator": "Chargy", "name": "Niederkorn - Parking CHEM", "addr:country": "DE", "socket:type2": "2", "socket:type2:output": "22.0 kW", "charging_station:output": "22.0 kW", "capacity": "2", "_source": "worldwide"}}, {"type": "node", "id": 5412417923, "lat": 49.52103, "lon": 5.881976, "tags": {"amenity": "charging_station", "brand": "Chargy", "opening_hours": "24/7", "operator": "Chargy", "name": "Differdange - Parking Place de la Résistance", "addr:country": "DE", "socket:type2": "2", "socket:type2:output": "22.0 kW", "charging_station:output": "22.0 kW", "capacity": "2", "_source": "worldwide"}}, {"type": "node", "id": 5481379238, "lat": 49.523335, "lon": 5.887092, "tags": {"amenity": "charging_station", "brand": "Chargy", "opening_hours": "24/7", "operator": "Chargy", "name": "Differdange - Parking rue Henri Dunant", "addr:country": "DE", "socket:type2": "2", "socket:type2:output": "22.0 kW", "charging_station:output": "22.0 kW", "capacity": "2", "_source": "worldwide"}}, {"type": "node", "id": 5465199097, "lat": 49.763305, "lon": 5.852608, "tags": {"amenity": "charging_station", "brand": "Chargy", "opening_hours": "24/7", "operator": "Chargy", "name": "Ell - Parking Centre Culturel", "addr:country": "DE", "socket:type2": "2", "socket:type2:output": "22.0 kW", "charging_station:output": "22.0 kW", "capacity": "2", "_source": "worldwide"}}, {"type": "node", "id": 5481378194, "lat": 49.69973, "lon": 5.963929, "tags": {"amenity": "charging_station", "brand": "Chargy", "opening_hours": "24/7", "operator": "Chargy", "name": "Septfontaines - Parking Mairie", "addr:country": "DE", "socket:type2": "2", "socket:type2:output": "22.0 kW", "charging_station:output": "22.0 kW", "capacity": "2", "_source": "worldwide"}}, {"type": "node", "id": 5481378198, "lat": 49.531939, "lon": 5.986205, "tags": {"amenity": "charging_station", "brand": "Chargy", "opening_hours": "24/7", "operator": "Chargy", "name": "Mondercange - Parking Place Bleser", "addr:country": "DE", "socket:type2": "2", "socket:type2:output": "22.0 kW", "charging_station:output": "22.0 kW", "capacity": "2", "_source": "worldwide"}}, {"type": "node", "id": 5481378200, "lat": 49.8282, "lon": 5.96503, "tags": {"amenity": "charging_station", "brand": "Chargy", "opening_hours": "24/7", "operator": "Chargy", "name": "Grosbous - Parking Prommenhaff", "addr:country": "DE", "socket:type2": "2", "socket:type2:output": "22.0 kW", "charging_station:output": "22.0 kW", "capacity": "2", "_source": "worldwide"}}, {"type": "node", "id": 5481378209, "lat": 49.654863, "lon": 5.998029, "tags": {"amenity": "charging_station", "brand": "Chargy", "opening_hours": "24/7", "operator": "Chargy", "name": "Olm - Parking rue de Capellen", "addr:country": "DE", "socket:type2": "2", "socket:type2:output": "22.0 kW", "charging_station:output": "22.0 kW", "capacity": "2", "_source": "worldwide"}}, {"type": "node", "id": 5481378216, "lat": 49.683752, "lon": 5.877754, "tags": {"amenity": "charging_station", "brand": "Chargy", "opening_hours": "24/7", "operator": "Chargy", "name": "Eischen - Parking Mairie \"Um Denn\"", "addr:country": "DE", "socket:type2": "2", "socket:type2:output": "22.0 kW", "charging_station:output": "22.0 kW", "capacity": "2", "_source": "worldwide"}}, {"type": "node", "id": 5481378218, "lat": 49.598364, "lon": 5.871492, "tags": {"amenity": "charging_station", "brand": "Chargy", "opening_hours": "24/7", "operator": "Chargy", "name": "Clemency - Parking Préscolaire", "addr:country": "DE", "socket:type2": "2", "socket:type2:output": "22.0 kW", "charging_station:output": "22.0 kW", "capacity": "2", "_source": "worldwide"}}, {"type": "node", "id": 5481379222, "lat": 49.523593, "lon": 5.834948, "tags": {"amenity": "charging_station", "brand": "Chargy", "opening_hours": "24/7", "operator": "Chargy", "name": "Lasauvage - Parking École", "addr:country": "DE", "socket:type2": "2", "socket:type2:output": "22.0 kW", "charging_station:output": "22.0 kW", "capacity": "2", "_source": "worldwide"}}, {"type": "node", "id": 5481379226, "lat": 49.990002, "lon": 5.856253, "tags": {"amenity": "charging_station", "brand": "Chargy", "opening_hours": "24/7", "operator": "Chargy", "name": "Schleif - Parking public", "addr:country": "DE", "socket:type2": "2", "socket:type2:output": "22.0 kW", "charging_station:output": "22.0 kW", "capacity": "2", "_source": "worldwide"}}, {"type": "node", "id": 5481379231, "lat": 49.54386, "lon": 5.889574, "tags": {"amenity": "charging_station", "brand": "Chargy", "opening_hours": "24/7", "operator": "Chargy", "name": "Niederkorn - Parking route de Pétange", "addr:country": "DE", "socket:type2": "2", "socket:type2:output": "22.0 kW", "charging_station:output": "22.0 kW", "capacity": "2", "_source": "worldwide"}}, {"type": "node", "id": 5481379255, "lat": 49.966878, "lon": 5.930302, "tags": {"amenity": "charging_station", "brand": "Chargy", "opening_hours": "24/7", "operator": "Chargy", "name": "Wiltz - Parking av. de la Gare", "addr:country": "DE", "socket:type2": "2", "socket:type2:output": "22.0 kW", "charging_station:output": "22.0 kW", "capacity": "2", "_source": "worldwide"}}, {"type": "node", "id": 7320197157, "lat": 49.96615, "lon": 5.92669, "tags": {"amenity": "charging_station", "brand": "Chargy", "opening_hours": "24/7", "operator": "Chargy", "name": "Wiltz - P+R Gare", "addr:country": "DE", "socket:type2": "6", "socket:type2:output": "22.0 kW", "charging_station:output": "22.0 kW", "capacity": "6", "_source": "worldwide"}}, {"type": "node", "id": 5481379260, "lat": 49.477328, "lon": 5.979782, "tags": {"amenity": "charging_station", "brand": "Chargy", "opening_hours": "24/7", "operator": "Chargy", "name": "Esch-sur-Alzette - Parking Ellergronn", "addr:country": "DE", "socket:type2": "2", "socket:type2:output": "22.0 kW", "charging_station:output": "22.0 kW", "capacity": "2", "_source": "worldwide"}}, {"type": "node", "id": 5481379261, "lat": 49.615219, "lon": 5.991134, "tags": {"amenity": "charging_station", "brand": "Chargy", "opening_hours": "24/7", "operator": "Chargy", "name": "Holzem - Parking Place de la Résistance", "addr:country": "DE", "socket:type2": "2", "socket:type2:output": "22.0 kW", "charging_station:output": "22.0 kW", "capacity": "2", "_source": "worldwide"}}, {"type": "node", "id": 5481379268, "lat": 49.967131, "lon": 5.93663, "tags": {"amenity": "charging_station", "brand": "Chargy", "opening_hours": "24/7", "operator": "Chargy", "name": "Wiltz - Parking du Château", "addr:country": "DE", "socket:type2": "2", "socket:type2:output": "22.0 kW", "charging_station:output": "22.0 kW", "capacity": "2", "_source": "worldwide"}}, {"type": "node", "id": 5481379274, "lat": 49.489155, "lon": 5.978325, "tags": {"amenity": "charging_station", "brand": "Chargy", "opening_hours": "24/7", "operator": "Chargy", "name": "Esch-sur-Alzette - Parking Place de la Frontière", "addr:country": "DE", "socket:type2": "2", "socket:type2:output": "22.0 kW", "charging_station:output": "22.0 kW", "capacity": "2", "_source": "worldwide"}}, {"type": "node", "id": 5481379281, "lat": 49.830505, "lon": 5.849464, "tags": {"amenity": "charging_station", "brand": "Chargy", "opening_hours": "24/7", "operator": "Chargy", "name": "Rambrouch - Parking Centre Culturel", "addr:country": "DE", "socket:type2": "2", "socket:type2:output": "22.0 kW", "charging_station:output": "22.0 kW", "capacity": "2", "_source": "worldwide"}}, {"type": "node", "id": 5481379284, "lat": 49.962698, "lon": 5.934922, "tags": {"amenity": "charging_station", "brand": "Chargy", "opening_hours": "24/7", "operator": "Chargy", "name": "Wiltz - Parking Place des Martyrs", "addr:country": "DE", "socket:type2": "2", "socket:type2:output": "22.0 kW", "charging_station:output": "22.0 kW", "capacity": "2", "_source": "worldwide"}}, {"type": "node", "id": 5481379289, "lat": 49.545905, "lon": 5.9004, "tags": {"amenity": "charging_station", "brand": "Chargy", "opening_hours": "24/7", "operator": "Chargy", "name": "Niederkorn - Parking Haneboesch", "addr:country": "DE", "socket:type2": "2", "socket:type2:output": "22.0 kW", "charging_station:output": "22.0 kW", "capacity": "2", "_source": "worldwide"}}, {"type": "node", "id": 5481379290, "lat": 49.669472, "lon": 5.965675, "tags": {"amenity": "charging_station", "brand": "Chargy", "opening_hours": "24/7", "operator": "Chargy", "name": "Goeblange - Parking rue Principale", "addr:country": "DE", "socket:type2": "2", "socket:type2:output": "22.0 kW", "charging_station:output": "22.0 kW", "capacity": "2", "_source": "worldwide"}}, {"type": "node", "id": 5481379291, "lat": 49.504721, "lon": 5.98404, "tags": {"amenity": "charging_station", "fee": "yes", "brand": "Chargy", "opening_hours": "24/7", "operator": "Chargy", "name": "Esch-sur-Alzette - Parking Place de la Paix", "addr:country": "DE", "socket:type2": "2", "socket:type2:output": "22.0 kW", "charging_station:output": "22.0 kW", "capacity": "2", "_source": "worldwide"}}, {"type": "node", "id": 5482459577, "lat": 49.514739, "lon": 5.902978, "tags": {"amenity": "charging_station", "brand": "Chargy", "opening_hours": "24/7", "operator": "Chargy", "name": "Oberkorn - Parking rue Duchscher", "addr:country": "DE", "socket:type2": "2", "socket:type2:output": "22.0 kW", "charging_station:output": "22.0 kW", "capacity": "2", "_source": "worldwide"}}, {"type": "node", "id": 5493315878, "lat": 49.648091, "lon": 5.818954, "tags": {"amenity": "charging_station", "access": "yes", "fee": "yes", "brand": "Tesla Supercharger", "opening_hours": "24/7", "operator": "Tesla", "name": "Arlon Supercharger", "addr:street": "Parc d'activitee Economique Weyler II", "addr:postcode": "6706", "addr:city": "Arlon", "addr:country": "BE", "socket:type2_combo": "32", "socket:type2_combo:output": "250.0 kW", "charging_station:output": "250.0 kW", "capacity": "30", "_source": "worldwide"}}, {"type": "node", "id": 5506566886, "lat": 49.898445, "lon": 5.818226, "tags": {"amenity": "charging_station", "brand": "Chargy", "opening_hours": "24/7", "operator": "Chargy", "name": "Baschleiden - Parking Abri-Bus", "addr:country": "DE", "socket:type2": "2", "socket:type2:output": "22.0 kW", "charging_station:output": "22.0 kW", "capacity": "2", "_source": "worldwide"}}, {"type": "node", "id": 5566758683, "lat": 49.514148, "lon": 5.94027, "tags": {"amenity": "charging_station", "brand": "Chargy", "opening_hours": "24/7", "operator": "Chargy", "name": "Belvaux - Parking Centre Culturel Metzerlach", "addr:country": "DE", "socket:type2": "2", "socket:type2:output": "22.0 kW", "charging_station:output": "22.0 kW", "capacity": "2", "_source": "worldwide"}}, {"type": "node", "id": 5566758686, "lat": 49.522452, "lon": 5.936772, "tags": {"amenity": "charging_station", "brand": "Chargy", "opening_hours": "24/7", "operator": "Chargy", "name": "Soleuvre - Parking Place de l'Indépendance", "addr:country": "DE", "socket:type2": "2", "socket:type2:output": "22.0 kW", "charging_station:output": "22.0 kW", "capacity": "2", "_source": "worldwide"}}, {"type": "node", "id": 5566758687, "lat": 49.669717, "lon": 5.949051, "tags": {"amenity": "charging_station", "brand": "Chargy", "opening_hours": "24/7", "operator": "Chargy", "name": "Koerich - Parking Mairie", "addr:country": "DE", "socket:type2": "2", "socket:type2:output": "22.0 kW", "charging_station:output": "22.0 kW", "capacity": "2", "_source": "worldwide"}}, {"type": "node", "id": 5653350701, "lat": 49.51446, "lon": 5.950584, "tags": {"amenity": "charging_station", "brand": "Chargy", "opening_hours": "24/7", "operator": "Chargy", "name": "Belvaux - Parking Boulodrome National", "addr:country": "DE", "socket:type2": "2", "socket:type2:output": "22.0 kW", "charging_station:output": "22.0 kW", "capacity": "2", "_source": "worldwide"}}, {"type": "node", "id": 5819987402, "lat": 49.096593, "lon": 5.627354, "tags": {"amenity": "charging_station", "access": "yes", "network": "MODULO", "opening_hours": "24/7", "operator": "Virta", "name": "borne de recharge semi accélérée", "addr:country": "DE", "socket:type2": "2", "socket:type2:output": "22 kW", "charging_station:output": "22 kW", "capacity": "2", "wheelchair": "yes", "_source": "worldwide"}}, {"type": "node", "id": 5952552453, "lat": 49.572453, "lon": 5.931118, "tags": {"amenity": "charging_station", "access": "private", "addr:country": "DE", "_source": "worldwide"}}, {"type": "node", "id": 5952552472, "lat": 49.57367, "lon": 5.931721, "tags": {"amenity": "charging_station", "access": "private", "addr:country": "DE", "_source": "worldwide"}}, {"type": "node", "id": 6047149188, "lat": 49.500077, "lon": 5.97774, "tags": {"amenity": "charging_station", "brand": "Chargy", "opening_hours": "24/7", "operator": "Chargy", "name": "Esch-sur-Alzette - Parking Place des Sacrifiés", "addr:country": "DE", "socket:type2": "2", "socket:type2:output": "22.0 kW", "charging_station:output": "22.0 kW", "capacity": "2", "_source": "worldwide"}}, {"type": "node", "id": 6047149189, "lat": 49.688649, "lon": 5.913547, "tags": {"amenity": "charging_station", "brand": "Chargy", "opening_hours": "24/7", "operator": "Chargy", "name": "Hobscheid - Parking Grand-Rue", "addr:country": "DE", "socket:type2": "2", "socket:type2:output": "22.0 kW", "charging_station:output": "22.0 kW", "capacity": "2", "_source": "worldwide"}}, {"type": "node", "id": 6047149190, "lat": 49.848299, "lon": 5.908148, "tags": {"amenity": "charging_station", "brand": "Chargy", "opening_hours": "24/7", "operator": "Chargy", "name": "Grevels - Parking Centre Nei Brasilien", "addr:country": "DE", "socket:type2": "2", "socket:type2:output": "22.0 kW", "charging_station:output": "22.0 kW", "capacity": "2", "_source": "worldwide"}}, {"type": "node", "id": 6047149192, "lat": 49.727166, "lon": 5.895525, "tags": {"amenity": "charging_station", "brand": "Chargy", "opening_hours": "24/7", "operator": "Chargy", "name": "Beckerich - Parking An der Millen", "addr:country": "DE", "socket:type2": "2", "socket:type2:output": "22.0 kW", "charging_station:output": "22.0 kW", "capacity": "2", "_source": "worldwide"}}, {"type": "node", "id": 6047149210, "lat": 49.724328, "lon": 5.89907, "tags": {"amenity": "charging_station", "brand": "Chargy", "opening_hours": "24/7", "operator": "Chargy", "name": "Beckerich - Parking Hall Sportif", "addr:country": "DE", "socket:type2": "2", "socket:type2:output": "22.0 kW", "charging_station:output": "22.0 kW", "capacity": "2", "_source": "worldwide"}}, {"type": "node", "id": 6047149194, "lat": 49.521965, "lon": 5.963364, "tags": {"amenity": "charging_station", "brand": "Chargy", "opening_hours": "24/7", "operator": "Chargy", "name": "Ehlerange - Parking Kulturschapp", "addr:country": "DE", "socket:type2": "2", "socket:type2:output": "22.0 kW", "charging_station:output": "22.0 kW", "capacity": "2", "_source": "worldwide"}}, {"type": "node", "id": 6047149200, "lat": 49.810066, "lon": 5.764088, "tags": {"amenity": "charging_station", "brand": "Chargy", "opening_hours": "24/7", "operator": "Chargy", "name": "Perlé - Ancienne école", "addr:country": "DE", "socket:type2": "2", "socket:type2:output": "22.0 kW", "charging_station:output": "22.0 kW", "capacity": "2", "_source": "worldwide"}}, {"type": "node", "id": 6047149205, "lat": 49.832468, "lon": 5.743013, "tags": {"amenity": "charging_station", "brand": "Chargy", "opening_hours": "24/7", "operator": "Chargy", "name": "Rombach - Parking rue des Tilleuls", "addr:country": "DE", "socket:type2": "2", "socket:type2:output": "22.0 kW", "charging_station:output": "22.0 kW", "capacity": "2", "_source": "worldwide"}}, {"type": "node", "id": 12549502067, "lat": 49.830916, "lon": 5.735318, "tags": {"amenity": "charging_station", "operator": "Equans", "name": "Ladestation Equans", "addr:country": "DE", "capacity": "1", "_source": "worldwide"}}, {"type": "node", "id": 6047149211, "lat": 49.565103, "lon": 5.886193, "tags": {"amenity": "charging_station", "brand": "Chargy", "opening_hours": "24/7", "operator": "Chargy", "name": "Linger - Parking rue de la Libération", "addr:country": "DE", "socket:type2": "2", "socket:type2:output": "22.0 kW", "charging_station:output": "22.0 kW", "capacity": "2", "_source": "worldwide"}}, {"type": "node", "id": 6047149212, "lat": 49.508757, "lon": 5.925049, "tags": {"amenity": "charging_station", "brand": "Chargy", "opening_hours": "24/7", "operator": "Chargy", "name": "Belvaux - Parking École", "addr:country": "DE", "socket:type2": "2", "socket:type2:output": "22.0 kW", "charging_station:output": "22.0 kW", "capacity": "2", "_source": "worldwide"}}, {"type": "node", "id": 6047149221, "lat": 49.520426, "lon": 5.915971, "tags": {"amenity": "charging_station", "brand": "Chargy", "opening_hours": "24/7", "operator": "Chargy", "name": "Soleuvre - Parking Place Edmond Zinnen", "addr:country": "DE", "socket:type2": "2", "socket:type2:output": "22.0 kW", "charging_station:output": "22.0 kW", "capacity": "2", "_source": "worldwide"}}, {"type": "node", "id": 6047149222, "lat": 49.575494, "lon": 5.909398, "tags": {"amenity": "charging_station", "brand": "Chargy", "opening_hours": "24/7", "operator": "Chargy", "name": "Hautcharage - Parking rue de la Libération", "addr:country": "DE", "socket:type2": "2", "socket:type2:output": "22.0 kW", "charging_station:output": "22.0 kW", "capacity": "2", "_source": "worldwide"}}, {"type": "node", "id": 6047149226, "lat": 49.931039, "lon": 5.788753, "tags": {"amenity": "charging_station", "brand": "Chargy", "opening_hours": "24/7", "operator": "Chargy", "name": "Harlange - Parking Salle des Fêtes", "addr:country": "DE", "socket:type2": "2", "socket:type2:output": "22.0 kW", "charging_station:output": "22.0 kW", "capacity": "2", "_source": "worldwide"}}, {"type": "node", "id": 6047149231, "lat": 49.508355, "lon": 5.965104, "tags": {"amenity": "charging_station", "brand": "Chargy", "opening_hours": "24/7", "operator": "Chargy", "name": "Esch-sur-Alzette - Parking Op Sommet", "addr:country": "DE", "socket:type2": "2", "socket:type2:output": "22.0 kW", "charging_station:output": "22.0 kW", "capacity": "2", "_source": "worldwide"}}, {"type": "node", "id": 6071824614, "lat": 49.546701, "lon": 5.855994, "tags": {"amenity": "charging_station", "brand": "Chargy", "opening_hours": "24/7", "operator": "Chargy", "name": "Lamadelaine - Parking Centre Squaire François Ney", "addr:country": "DE", "socket:type2": "2", "socket:type2:output": "22.0 kW", "charging_station:output": "22.0 kW", "capacity": "2", "_source": "worldwide"}}, {"type": "node", "id": 6077067792, "lat": 49.546237, "lon": 5.83611, "tags": {"amenity": "charging_station", "brand": "Chargy", "opening_hours": "24/7", "operator": "Chargy", "name": "Rodange - Parking Hall Polyvalent et Sportif", "addr:country": "DE", "socket:type2": "2", "socket:type2:output": "22.0 kW", "charging_station:output": "22.0 kW", "capacity": "2", "_source": "worldwide"}}, {"type": "node", "id": 6363474823, "lat": 49.54629, "lon": 5.840659, "tags": {"amenity": "charging_station", "brand": "Chargy", "opening_hours": "24/7", "operator": "Chargy", "name": "Rodange - Parking Centre Square", "addr:country": "DE", "socket:type2": "2", "socket:type2:output": "22.0 kW", "charging_station:output": "22.0 kW", "capacity": "2", "_source": "worldwide"}}, {"type": "node", "id": 6113796696, "lat": 49.55838, "lon": 5.870898, "tags": {"amenity": "charging_station", "brand": "Chargy", "opening_hours": "24/7", "operator": "Chargy", "name": "Pétange - Parking Centre Sportif Bim Diederich", "addr:country": "DE", "socket:type2": "2", "socket:type2:output": "22.0 kW", "charging_station:output": "22.0 kW", "capacity": "2", "_source": "worldwide"}}, {"type": "node", "id": 6113796698, "lat": 49.555988, "lon": 5.876625, "tags": {"amenity": "charging_station", "brand": "Chargy", "opening_hours": "24/7", "operator": "Chargy", "name": "Pétange - Parking Place du Marché", "addr:country": "DE", "socket:type2": "2", "socket:type2:output": "22.0 kW", "charging_station:output": "22.0 kW", "capacity": "2", "_source": "worldwide"}}, {"type": "node", "id": 6333758903, "lat": 49.557525, "lon": 5.867933, "tags": {"amenity": "charging_station", "brand": "Chargy", "opening_hours": "24/7", "operator": "Chargy", "name": "Pétange - Parking Centre de Quilles QT", "addr:country": "DE", "socket:type2": "2", "socket:type2:output": "22.0 kW", "charging_station:output": "22.0 kW", "capacity": "2", "_source": "worldwide"}}, {"type": "node", "id": 8892508867, "lat": 49.559159, "lon": 5.875942, "tags": {"amenity": "charging_station", "access": "yes", "brand": "Chargy", "opening_hours": "24/7", "operator": "Chargy", "name": "Pétange - Parking Place de la Libération", "addr:country": "DE", "socket:type2": "2", "socket:type2:output": "22.0 kW", "charging_station:output": "22.0 kW", "capacity": "2", "_source": "worldwide"}}, {"type": "node", "id": 6113796697, "lat": 49.661454, "lon": 5.911252, "tags": {"amenity": "charging_station", "brand": "Chargy", "opening_hours": "24/7", "operator": "Chargy", "name": "Steinfort - Centre d'accueil Mirador", "addr:country": "DE", "socket:type2": "2", "socket:type2:output": "22.0 kW", "charging_station:output": "22.0 kW", "capacity": "2", "_source": "worldwide"}}, {"type": "node", "id": 6381325771, "lat": 49.658544, "lon": 5.913469, "tags": {"amenity": "charging_station", "brand": "Chargy", "opening_hours": "24/7", "operator": "Chargy", "name": "Steinfort - Parking rue de Kleinbettingen", "addr:country": "DE", "socket:type2": "2", "socket:type2:output": "22.0 kW", "charging_station:output": "22.0 kW", "capacity": "2", "_source": "worldwide"}}, {"type": "node", "id": 6412805980, "lat": 49.660049, "lon": 5.914907, "tags": {"amenity": "charging_station", "brand": "Chargy", "opening_hours": "24/7", "operator": "Chargy", "name": "Steinfort - Parking Mairie", "addr:country": "DE", "socket:type2": "2", "socket:type2:output": "22.0 kW", "charging_station:output": "22.0 kW", "capacity": "2", "_source": "worldwide"}}, {"type": "node", "id": 6942697043, "lat": 49.658605, "lon": 5.918041, "tags": {"amenity": "charging_station", "brand": "Chargy", "opening_hours": "24/7", "operator": "Chargy", "name": "Chargy Ok - AC Steinfort - Aischzenter Phase 1", "addr:country": "DE", "socket:type2": "2", "socket:type2:output": "22.0 kW", "charging_station:output": "22.0 kW", "capacity": "2", "_source": "worldwide"}}, {"type": "node", "id": 9393060070, "lat": 49.658731, "lon": 5.91086, "tags": {"amenity": "charging_station", "brand": "Chargy", "opening_hours": "24/7", "operator": "Chargy", "name": "Steinfort - P+R Gare", "addr:country": "DE", "socket:type2": "6", "socket:type2:output": "22.0 kW", "charging_station:output": "22.0 kW", "capacity": "6", "_source": "worldwide"}}, {"type": "node", "id": 6127955872, "lat": 49.742613, "lon": 5.016775, "tags": {"amenity": "charging_station", "operator": "Clem", "name": "AM 041 - La chapelle - Grande Rue", "addr:country": "DE", "capacity": "2", "_source": "worldwide"}}, {"type": "node", "id": 6128311757, "lat": 49.706683, "lon": 5.091613, "tags": {"amenity": "charging_station", "operator": "Clem", "name": "AM 060 - Pouru aux Bois - Rue de la Mairie", "addr:country": "DE", "capacity": "2", "_source": "worldwide"}}, {"type": "node", "id": 6128314850, "lat": 49.678425, "lon": 5.082469, "tags": {"amenity": "charging_station", "operator": "Clem", "name": "AM 061 - Pouru Saint-Remy - Belle Bersin", "addr:country": "DE", "capacity": "2", "_source": "worldwide"}}, {"type": "node", "id": 6128328058, "lat": 49.690833, "lon": 5.023079, "tags": {"amenity": "charging_station", "operator": "Clem", "name": "AM 064 - Rubecourt Lamecourt - Mairie", "addr:country": "DE", "capacity": "2", "_source": "worldwide"}}, {"type": "node", "id": 6128386186, "lat": 49.716785, "lon": 5.032419, "tags": {"amenity": "charging_station", "operator": "Clem", "name": "AM 074 - Villers Cernay - RD 4", "addr:country": "DE", "capacity": "2", "_source": "worldwide"}}, {"type": "node", "id": 6190698722, "lat": 49.768884, "lon": 5.978152, "tags": {"amenity": "charging_station", "brand": "Chargy", "opening_hours": "24/7", "operator": "Chargy", "name": "Useldange - Parking rue d'Everlange", "addr:country": "DE", "socket:type2": "2", "socket:type2:output": "22.0 kW", "charging_station:output": "22.0 kW", "capacity": "2", "_source": "worldwide"}}, {"type": "node", "id": 6223514291, "lat": 49.550676, "lon": 5.843216, "tags": {"amenity": "charging_station", "brand": "Chargy", "opening_hours": "24/7", "operator": "Chargy", "name": "Rodange - Parking Gare", "addr:country": "DE", "socket:type2": "2", "socket:type2:output": "22.0 kW", "charging_station:output": "22.0 kW", "capacity": "2", "_source": "worldwide"}}, {"type": "node", "id": 6293249526, "lat": 49.683757, "lon": 5.812255, "tags": {"amenity": "charging_station", "addr:country": "DE", "capacity": "2", "_source": "worldwide"}}, {"type": "node", "id": 6363474824, "lat": 49.574208, "lon": 5.985271, "tags": {"amenity": "charging_station", "brand": "Chargy", "opening_hours": "24/7", "operator": "Chargy", "name": "Bettange-sur-Mess - Parking rue de la Gare", "addr:country": "DE", "socket:type2": "2", "socket:type2:output": "22.0 kW", "charging_station:output": "22.0 kW", "capacity": "2", "_source": "worldwide"}}, {"type": "node", "id": 6363474825, "lat": 49.586926, "lon": 5.980828, "tags": {"amenity": "charging_station", "brand": "Chargy", "opening_hours": "24/7", "operator": "Chargy", "name": "Dippach - Parking rue Centrale", "addr:country": "DE", "socket:type2": "2", "socket:type2:output": "22.0 kW", "charging_station:output": "22.0 kW", "capacity": "2", "_source": "worldwide"}}, {"type": "node", "id": 6412805981, "lat": 49.545134, "lon": 5.923752, "tags": {"amenity": "charging_station", "brand": "Chargy", "opening_hours": "24/7", "operator": "Chargy", "name": "Sanem - Parking Hall Omnisport", "addr:country": "DE", "socket:type2": "2", "socket:type2:output": "22.0 kW", "charging_station:output": "22.0 kW", "capacity": "2", "_source": "worldwide"}}, {"type": "node", "id": 6412805982, "lat": 49.612775, "lon": 5.949611, "tags": {"amenity": "charging_station", "access": "yes", "brand": "Chargy", "opening_hours": "24/7", "operator": "Chargy", "name": "Garnich - Parking Botterkräiz", "addr:country": "DE", "socket:type2": "2", "socket:type2:output": "22.0 kW", "charging_station:output": "22.0 kW", "capacity": "2", "_source": "worldwide"}}, {"type": "node", "id": 6412805983, "lat": 49.647463, "lon": 5.955391, "tags": {"amenity": "charging_station", "brand": "Chargy", "opening_hours": "24/7", "operator": "Chargy", "name": "Chargy Ok - Windhof - Parking route d'Arlon", "addr:country": "DE", "socket:type2": "2", "socket:type2:output": "13.0 kW", "charging_station:output": "13.0 kW", "capacity": "2", "_source": "worldwide"}}, {"type": "node", "id": 6426074705, "lat": 49.659619, "lon": 5.980815, "tags": {"amenity": "charging_station", "brand": "Chargy", "opening_hours": "24/7", "operator": "Chargy", "name": "Chargy Ok - Goetzingen - Parking route de Luxembourg", "addr:country": "DE", "socket:type2": "2", "socket:type2:output": "22.0 kW", "charging_station:output": "22.0 kW", "capacity": "2", "_source": "worldwide"}}, {"type": "node", "id": 6426074708, "lat": 49.772521, "lon": 5.897418, "tags": {"amenity": "charging_station", "brand": "Chargy", "opening_hours": "24/7", "operator": "Chargy", "name": "Chargy Ok - Cactus Redange", "addr:country": "DE", "socket:type2": "2", "socket:type2:output": "22.0 kW", "charging_station:output": "22.0 kW", "capacity": "2", "_source": "worldwide"}}, {"type": "node", "id": 6437062429, "lat": 49.793667, "lon": 5.93707, "tags": {"amenity": "charging_station", "brand": "Chargy", "opening_hours": "24/7", "operator": "Chargy", "name": "Chargy Ok - Commune Preizerdaul", "addr:country": "DE", "socket:type2": "2", "socket:type2:output": "22.0 kW", "charging_station:output": "22.0 kW", "capacity": "2", "_source": "worldwide"}}, {"type": "node", "id": 8500760597, "lat": 49.795228, "lon": 5.940235, "tags": {"amenity": "charging_station", "brand": "Chargy", "opening_hours": "24/7", "operator": "Chargy", "name": "Bettborn - Parking Cimetière", "addr:country": "DE", "socket:type2": "2", "socket:type2:output": "22.0 kW", "charging_station:output": "22.0 kW", "capacity": "2", "_source": "worldwide"}}, {"type": "node", "id": 6470496447, "lat": 49.540208, "lon": 5.844179, "tags": {"amenity": "charging_station", "brand": "Chargy", "opening_hours": "24/7", "operator": "Chargy", "name": "Rodange - Parking Piko", "addr:country": "DE", "socket:type2": "2", "socket:type2:output": "22.0 kW", "charging_station:output": "22.0 kW", "capacity": "2", "_source": "worldwide"}}, {"type": "node", "id": 6555909349, "lat": 49.517631, "lon": 5.926452, "tags": {"amenity": "charging_station", "access": "yes", "brand": "Chargy", "opening_hours": "24/7", "operator": "Chargy", "name": "Soleuvre - Parking Kuss (Centre sportif Roger Klein)", "addr:country": "DE", "socket:type2": "2", "socket:type2:output": "22.0 kW", "charging_station:output": "22.0 kW", "capacity": "2", "_source": "worldwide"}}, {"type": "node", "id": 6555909350, "lat": 49.643906, "lon": 5.988504, "tags": {"amenity": "charging_station", "access": "yes", "brand": "Chargy", "opening_hours": "24/7", "operator": "Chargy", "name": "Capellen - Parking Campus Scolaire", "addr:country": "DE", "socket:type2": "2", "socket:type2:output": "22.0 kW", "charging_station:output": "22.0 kW", "capacity": "2", "_source": "worldwide"}}, {"type": "node", "id": 10911439400, "lat": 49.643878, "lon": 5.992647, "tags": {"amenity": "charging_station", "access": "yes", "brand": "Chargy", "operator": "Chargy", "name": "Chargy", "addr:country": "DE", "capacity": "2", "_source": "worldwide"}}, {"type": "node", "id": 6595163331, "lat": 49.520273, "lon": 5.887796, "tags": {"amenity": "charging_station", "addr:country": "DE", "_source": "worldwide"}}, {"type": "node", "id": 6653115907, "lat": 49.678892, "lon": 5.823057, "tags": {"amenity": "charging_station", "network": "Carrefour", "operator": "Carrefour", "name": "Ladestation Carrefour", "addr:country": "DE", "capacity": "2", "_source": "worldwide"}}, {"type": "node", "id": 6942697048, "lat": 49.909881, "lon": 5.936837, "tags": {"amenity": "charging_station", "brand": "Chargy", "opening_hours": "24/7", "operator": "Chargy", "name": "Esch-sur-Sûre - Place des Jardins", "addr:country": "DE", "socket:type2": "2", "socket:type2:output": "22.0 kW", "charging_station:output": "22.0 kW", "capacity": "2", "_source": "worldwide"}}, {"type": "node", "id": 6942697049, "lat": 49.884744, "lon": 5.935986, "tags": {"amenity": "charging_station", "brand": "Chargy", "opening_hours": "24/7", "operator": "Chargy", "name": "Eschdorf - Parking Mairie", "addr:country": "DE", "socket:type2": "2", "socket:type2:output": "22.0 kW", "charging_station:output": "22.0 kW", "capacity": "2", "_source": "worldwide"}}, {"type": "node", "id": 6942697054, "lat": 49.920371, "lon": 5.970674, "tags": {"amenity": "charging_station", "brand": "Chargy", "opening_hours": "24/7", "operator": "Chargy", "name": "Goesdorf - Parking Mairie", "addr:country": "DE", "socket:type2": "2", "socket:type2:output": "22.0 kW", "charging_station:output": "22.0 kW", "capacity": "2", "_source": "worldwide"}}, {"type": "node", "id": 7086356064, "lat": 49.492728, "lon": 5.97622, "tags": {"amenity": "charging_station", "brand": "Chargy", "opening_hours": "24/7", "operator": "Chargy", "name": "Esch-sur-Alzette - Parking souterrain Brill - Place de la Résistance", "addr:country": "DE", "socket:type2": "4", "socket:type2:output": "22.0 kW", "charging_station:output": "22.0 kW", "capacity": "4", "_source": "worldwide"}}, {"type": "node", "id": 7117350015, "lat": 49.163451, "lon": 5.383231, "tags": {"amenity": "charging_station", "network": "MODULO", "opening_hours": "24/7", "operator": "Virta", "name": "Virta - MODULO", "addr:country": "DE", "socket:type2": "2", "socket:type2:output": "22 kW", "charging_station:output": "22 kW", "capacity": "2", "wheelchair": "yes", "_source": "worldwide"}}, {"type": "node", "id": 7117350016, "lat": 49.167775, "lon": 5.387209, "tags": {"amenity": "charging_station", "network": "MODULO", "opening_hours": "24/7", "operator": "Virta", "name": "Virta - MODULO", "addr:country": "DE", "socket:type2": "2", "socket:type2:output": "22 kW", "charging_station:output": "22 kW", "capacity": "2", "wheelchair": "yes", "_source": "worldwide"}}, {"type": "node", "id": 7117350017, "lat": 49.175335, "lon": 5.379948, "tags": {"amenity": "charging_station", "network": "MODULO", "opening_hours": "24/7", "operator": "Virta", "name": "Virta - MODULO", "addr:country": "DE", "socket:type2": "2", "socket:type2:output": "22 kW", "charging_station:output": "22 kW", "capacity": "2", "wheelchair": "yes", "_source": "worldwide"}}, {"type": "node", "id": 7118877907, "lat": 49.47311, "lon": 5.907842, "tags": {"amenity": "charging_station", "addr:country": "DE", "_source": "worldwide"}}, {"type": "node", "id": 7118914572, "lat": 49.415789, "lon": 5.902298, "tags": {"amenity": "charging_station", "fee": "yes", "network": "GRAND NANCY", "opening_hours": "24/7", "operator": "Izivia", "name": "Izivia - GRAND NANCY", "addr:country": "DE", "socket:type2": "1", "socket:type2:output": "22 kW", "charging_station:output": "22 kW", "capacity": "2", "authentication:none": "yes", "_source": "worldwide"}}, {"type": "node", "id": 7124924383, "lat": 49.496312, "lon": 5.984326, "tags": {"amenity": "charging_station", "brand": "Chargy", "opening_hours": "24/7", "operator": "Chargy", "name": "Esch-sur-Alzette - Parking souterrain Hôtel de Ville", "addr:country": "DE", "socket:type2": "4", "socket:type2:output": "22.0 kW", "charging_station:output": "22.0 kW", "capacity": "4", "_source": "worldwide"}}, {"type": "node", "id": 8215513587, "lat": 49.498413, "lon": 5.980647, "tags": {"amenity": "charging_station", "brand": "Chargy", "opening_hours": "24/7", "operator": "Chargy", "name": "Esch-sur-Alzette - Parking Cimetière St. Joseph", "addr:country": "DE", "socket:type2": "2", "socket:type2:output": "22.0 kW", "charging_station:output": "22.0 kW", "capacity": "2", "_source": "worldwide"}}, {"type": "node", "id": 7154966889, "lat": 49.644062, "lon": 5.917085, "tags": {"amenity": "charging_station", "brand": "Chargy", "opening_hours": "24/7", "operator": "Chargy", "name": "Kleinbettingen - P+R Gare", "addr:country": "DE", "socket:type2": "4", "socket:type2:output": "22.0 kW", "charging_station:output": "22.0 kW", "capacity": "4", "_source": "worldwide"}}, {"type": "node", "id": 7346108629, "lat": 49.561405, "lon": 5.900914, "tags": {"amenity": "charging_station", "access": "yes", "fee": "yes", "operator": "Enovos", "name": "Ladestation Enovos", "addr:country": "DE", "capacity": "2", "_source": "worldwide"}}, {"type": "node", "id": 7442293751, "lat": 49.562905, "lon": 5.905263, "tags": {"amenity": "charging_station", "brand": "Chargy", "opening_hours": "24/7", "operator": "Chargy", "name": "Bascharage - Parking du Treff Dribbel", "addr:country": "DE", "socket:type2": "2", "socket:type2:output": "22.0 kW", "charging_station:output": "22.0 kW", "capacity": "2", "_source": "worldwide"}}, {"type": "node", "id": 11829173586, "lat": 49.562467, "lon": 5.900626, "tags": {"amenity": "charging_station", "brand": "Aral pulse", "operator": "Aral", "name": "Aral - Aral pulse", "addr:country": "DE", "_source": "worldwide"}}, {"type": "node", "id": 7442293752, "lat": 49.566074, "lon": 5.907033, "tags": {"amenity": "charging_station", "brand": "Chargy", "opening_hours": "24/7", "operator": "Chargy", "name": "Bascharage - Parking du Centre", "addr:country": "DE", "socket:type2": "2", "socket:type2:output": "22.0 kW", "charging_station:output": "22.0 kW", "capacity": "2", "_source": "worldwide"}}, {"type": "node", "id": 7891047999, "lat": 49.565314, "lon": 5.907775, "tags": {"amenity": "charging_station", "access": "yes", "brand": "Chargy", "opening_hours": "24/7", "operator": "Chargy", "name": "Bascharage - Parking Place Robert Schuman", "addr:country": "DE", "socket:type2": "2", "socket:type2:output": "22.0 kW", "charging_station:output": "22.0 kW", "capacity": "2", "_source": "worldwide"}}, {"type": "node", "id": 8024490601, "lat": 49.630388, "lon": 5.166793, "tags": {"amenity": "charging_station", "addr:country": "DE", "capacity": "1", "_source": "worldwide"}}, {"type": "node", "id": 8196295878, "lat": 49.684419, "lon": 5.79559, "tags": {"amenity": "charging_station", "access": "customers", "operator": "Lidl", "name": "Ladestation Lidl", "addr:country": "DE", "capacity": "2", "_source": "worldwide"}}, {"type": "node", "id": 8215513585, "lat": 49.51104, "lon": 5.99468, "tags": {"amenity": "charging_station", "brand": "Chargy", "opening_hours": "24/7", "operator": "Chargy", "name": "Esch-sur-Alzette - Parking Pudel II", "addr:country": "DE", "socket:type2": "2", "socket:type2:output": "22.0 kW", "charging_station:output": "22.0 kW", "capacity": "2", "_source": "worldwide"}}, {"type": "node", "id": 8215513592, "lat": 49.767999, "lon": 5.897167, "tags": {"amenity": "charging_station", "brand": "Chargy", "opening_hours": "24/7", "operator": "Chargy", "name": "Redange-sur-Attert - Parking rue Seitert", "addr:country": "DE", "socket:type2": "2", "socket:type2:output": "22.0 kW", "charging_station:output": "22.0 kW", "capacity": "2", "_source": "worldwide"}}, {"type": "node", "id": 8215513593, "lat": 49.727026, "lon": 5.984828, "tags": {"amenity": "charging_station", "brand": "Chargy", "opening_hours": "24/7", "operator": "Chargy", "name": "Saeul - Parking Église", "addr:country": "DE", "socket:type2": "2", "socket:type2:output": "22.0 kW", "charging_station:output": "22.0 kW", "capacity": "2", "_source": "worldwide"}}, {"type": "node", "id": 8215513598, "lat": 49.519319, "lon": 5.969428, "tags": {"amenity": "charging_station", "brand": "Chargy", "opening_hours": "24/7", "operator": "Chargy", "name": "Ehlerange - Parking ZARE Ilot Ouest", "addr:country": "DE", "socket:type2": "2", "socket:type2:output": "22.0 kW", "charging_station:output": "22.0 kW", "capacity": "2", "_source": "worldwide"}}, {"type": "node", "id": 8258046148, "lat": 49.506773, "lon": 5.989619, "tags": {"amenity": "charging_station", "brand": "Chargy", "opening_hours": "24/7", "operator": "Chargy", "name": "Esch-sur-Alzette - Parking Boulevard Aloyse Meyer", "addr:country": "DE", "socket:type2": "2", "socket:type2:output": "22.0 kW", "charging_station:output": "22.0 kW", "capacity": "2", "_source": "worldwide"}}, {"type": "node", "id": 8258046152, "lat": 49.502438, "lon": 5.971776, "tags": {"amenity": "charging_station", "brand": "Chargy", "opening_hours": "24/7", "operator": "Chargy", "name": "Esch-sur-Alzette - Parking Place Benelux", "addr:country": "DE", "socket:type2": "2", "socket:type2:output": "22.0 kW", "charging_station:output": "22.0 kW", "capacity": "2", "_source": "worldwide"}}, {"type": "node", "id": 8500760599, "lat": 49.497835, "lon": 5.988986, "tags": {"amenity": "charging_station", "brand": "Chargy", "opening_hours": "24/7", "operator": "Chargy", "name": "Chargy Ok - Enovos - Parking Burgoard", "addr:country": "DE", "socket:type2": "12", "socket:type2:output": "11.0 kW", "charging_station:output": "11.0 kW", "capacity": "12", "_source": "worldwide"}}, {"type": "node", "id": 8585664462, "lat": 49.638086, "lon": 5.886631, "tags": {"amenity": "charging_station", "brand": "bluecorner", "name": "Ladestation bluecorner", "addr:country": "DE", "_source": "worldwide"}}, {"type": "node", "id": 8651777445, "lat": 49.456295, "lon": 5.471531, "tags": {"amenity": "charging_station", "access": "yes", "fee": "yes", "operator": "G2 Mobility", "name": "Ladestation G2 Mobility", "addr:country": "DE", "_source": "worldwide"}}, {"type": "node", "id": 8679566559, "lat": 49.444499, "lon": 5.604201, "tags": {"amenity": "charging_station", "addr:country": "DE", "_source": "worldwide"}}, {"type": "node", "id": 8684664534, "lat": 49.447816, "lon": 5.600142, "tags": {"amenity": "charging_station", "operator": "Freshmile", "name": "Ladestation Freshmile", "addr:country": "DE", "capacity": "2", "_source": "worldwide"}}, {"type": "node", "id": 8684664535, "lat": 49.500539, "lon": 5.7884, "tags": {"amenity": "charging_station", "addr:country": "DE", "_source": "worldwide"}}, {"type": "node", "id": 8684664536, "lat": 49.414574, "lon": 5.710401, "tags": {"amenity": "charging_station", "addr:country": "DE", "capacity": "2", "_source": "worldwide"}}, {"type": "node", "id": 8684664537, "lat": 49.388754, "lon": 5.75564, "tags": {"amenity": "charging_station", "fee": "yes", "network": "GRAND NANCY", "opening_hours": "24/7", "operator": "Izivia", "name": "Izivia - GRAND NANCY", "addr:country": "DE", "socket:type2": "1", "socket:type2:output": "22 kW", "charging_station:output": "22 kW", "capacity": "2", "authentication:none": "yes", "_source": "worldwide"}}, {"type": "node", "id": 8684664538, "lat": 49.471516, "lon": 5.930057, "tags": {"amenity": "charging_station", "addr:country": "DE", "capacity": "2", "_source": "worldwide"}}, {"type": "node", "id": 8684664539, "lat": 49.463238, "lon": 5.925123, "tags": {"amenity": "charging_station", "addr:country": "DE", "capacity": "2", "_source": "worldwide"}}, {"type": "node", "id": 8684664540, "lat": 49.458838, "lon": 5.927296, "tags": {"amenity": "charging_station", "addr:country": "DE", "capacity": "3", "_source": "worldwide"}}, {"type": "node", "id": 8684664541, "lat": 49.446444, "lon": 5.896565, "tags": {"amenity": "charging_station", "addr:country": "DE", "_source": "worldwide"}}, {"type": "node", "id": 8684664542, "lat": 49.429166, "lon": 5.930863, "tags": {"amenity": "charging_station", "fee": "yes", "network": "GRAND NANCY", "opening_hours": "24/7", "operator": "Izivia", "name": "Izivia - GRAND NANCY", "addr:country": "DE", "socket:type2": "1", "socket:type2:output": "22 kW", "charging_station:output": "22 kW", "capacity": "2", "authentication:none": "yes", "_source": "worldwide"}}, {"type": "node", "id": 8684664543, "lat": 49.417902, "lon": 5.94211, "tags": {"amenity": "charging_station", "addr:country": "DE", "_source": "worldwide"}}, {"type": "node", "id": 8684664545, "lat": 49.366717, "lon": 5.905906, "tags": {"amenity": "charging_station", "fee": "yes", "network": "GRAND NANCY", "opening_hours": "24/7", "operator": "Izivia", "name": "Izivia - GRAND NANCY", "addr:country": "DE", "socket:type2": "1", "socket:type2:output": "22 kW", "charging_station:output": "22 kW", "capacity": "2", "authentication:none": "yes", "_source": "worldwide"}}, {"type": "node", "id": 8684664546, "lat": 49.324339, "lon": 5.93087, "tags": {"amenity": "charging_station", "fee": "yes", "network": "GRAND NANCY", "opening_hours": "24/7", "operator": "Izivia", "name": "Izivia - GRAND NANCY", "addr:country": "DE", "socket:type2": "1", "socket:type2:output": "22 kW", "charging_station:output": "22 kW", "capacity": "2", "authentication:none": "yes", "_source": "worldwide"}}, {"type": "node", "id": 8684664547, "lat": 49.311163, "lon": 5.900127, "tags": {"amenity": "charging_station", "fee": "yes", "network": "GRAND NANCY", "opening_hours": "24/7", "operator": "Izivia", "name": "Izivia - GRAND NANCY", "addr:country": "DE", "socket:type2": "2", "socket:type2:output": "22 kW", "charging_station:output": "22 kW", "capacity": "2", "authentication:none": "yes", "_source": "worldwide"}}, {"type": "node", "id": 8684664548, "lat": 49.327853, "lon": 5.834073, "tags": {"amenity": "charging_station", "fee": "yes", "network": "GRAND NANCY", "opening_hours": "24/7", "operator": "Izivia", "name": "Izivia - GRAND NANCY", "addr:country": "DE", "socket:type2": "2", "socket:type2:output": "22 kW", "charging_station:output": "22 kW", "capacity": "2", "authentication:none": "yes", "_source": "worldwide"}}, {"type": "node", "id": 8684664549, "lat": 49.321111, "lon": 5.804448, "tags": {"amenity": "charging_station", "fee": "yes", "network": "GRAND NANCY", "opening_hours": "24/7", "operator": "Izivia", "name": "Izivia - GRAND NANCY", "addr:country": "DE", "socket:type2": "1", "socket:type2:output": "22 kW", "charging_station:output": "22 kW", "capacity": "2", "authentication:none": "yes", "_source": "worldwide"}}, {"type": "node", "id": 8684664550, "lat": 49.289134, "lon": 5.779039, "tags": {"amenity": "charging_station", "fee": "yes", "network": "GRAND NANCY", "opening_hours": "24/7", "operator": "Izivia", "name": "Izivia - GRAND NANCY", "addr:country": "DE", "socket:type2": "1", "socket:type2:output": "22 kW", "charging_station:output": "22 kW", "capacity": "2", "authentication:none": "yes", "_source": "worldwide"}}, {"type": "node", "id": 8684664551, "lat": 49.293411, "lon": 5.741864, "tags": {"amenity": "charging_station", "fee": "yes", "network": "GRAND NANCY", "opening_hours": "24/7", "operator": "Izivia", "name": "Izivia - GRAND NANCY", "addr:country": "DE", "socket:type2": "1", "socket:type2:output": "22 kW", "charging_station:output": "22 kW", "capacity": "2", "authentication:none": "yes", "_source": "worldwide"}}, {"type": "node", "id": 8721776250, "lat": 49.500062, "lon": 5.947274, "tags": {"amenity": "charging_station", "brand": "Chargy", "opening_hours": "24/7", "operator": "Chargy", "name": "Belval - Parking souterrain Rockhal", "addr:country": "DE", "socket:type2": "10", "socket:type2:output": "22.0 kW", "charging_station:output": "22.0 kW", "capacity": "10", "_source": "worldwide"}}, {"type": "node", "id": 12660290845, "lat": 49.499898, "lon": 5.944586, "tags": {"amenity": "charging_station", "brand": "Chargy", "opening_hours": "24/7", "operator": "Chargy", "name": "Belval - P+R Gare", "addr:country": "DE", "socket:type2": "52", "socket:type2:output": "22.0 kW", "charging_station:output": "22.0 kW", "capacity": "52", "_source": "worldwide"}}, {"type": "node", "id": 8721776255, "lat": 49.499712, "lon": 5.989199, "tags": {"amenity": "charging_station", "brand": "Chargy", "opening_hours": "24/7", "operator": "Chargy", "name": "Chargy Ok - Real Estate Enovos - Parking Visiteurs", "addr:country": "DE", "socket:type2": "1", "socket:type2:output": "22.0 kW", "charging_station:output": "22.0 kW", "capacity": "1", "_source": "worldwide"}}, {"type": "node", "id": 8737065157, "lat": 49.839878, "lon": 5.435821, "tags": {"amenity": "charging_station", "addr:country": "DE", "_source": "worldwide"}}, {"type": "node", "id": 8811709668, "lat": 49.554642, "lon": 5.878816, "tags": {"amenity": "charging_station", "brand": "Chargy", "opening_hours": "24/7", "operator": "Chargy", "name": "Pétange-Nord - P+R Gare", "addr:country": "DE", "socket:type2": "8", "socket:type2:output": "22.0 kW", "charging_station:output": "22.0 kW", "capacity": "8", "_source": "worldwide"}}, {"type": "node", "id": 9216217665, "lat": 49.554228, "lon": 5.888543, "tags": {"amenity": "charging_station", "brand": "Chargy", "opening_hours": "24/7", "operator": "Chargy", "name": "Chargy Ok - CFL technics", "addr:country": "DE", "socket:type2": "2", "socket:type2:output": "22.0 kW", "charging_station:output": "22.0 kW", "capacity": "2", "_source": "worldwide"}}, {"type": "node", "id": 9081726161, "lat": 49.963519, "lon": 5.858273, "tags": {"amenity": "charging_station", "brand": "Chargy", "opening_hours": "24/7", "operator": "Chargy", "name": "Chargy Ok - Knaufshopping", "addr:country": "DE", "socket:type2": "2", "socket:type2:output": "22.0 kW", "charging_station:output": "22.0 kW", "capacity": "2", "_source": "worldwide"}}, {"type": "node", "id": 13311287890, "lat": 49.960551, "lon": 5.860206, "tags": {"amenity": "charging_station", "fee": "yes", "brand": "Aral pulse", "operator": "Aral", "name": "Aral - Aral pulse", "addr:country": "DE", "capacity": "3", "_source": "worldwide"}}, {"type": "node", "id": 9081726164, "lat": 49.507494, "lon": 5.97161, "tags": {"amenity": "charging_station", "brand": "Chargy", "opening_hours": "24/7", "operator": "Chargy", "name": "Esch-sur-Alzette - Parking rue Rosalind Franklin", "addr:country": "DE", "socket:type2": "2", "socket:type2:output": "22.0 kW", "charging_station:output": "22.0 kW", "capacity": "2", "_source": "worldwide"}}, {"type": "node", "id": 9081726169, "lat": 49.644815, "lon": 5.980221, "tags": {"amenity": "charging_station", "brand": "Chargy", "opening_hours": "24/7", "operator": "Chargy", "name": "Chargy Ok - Capellen - Parking Zolwerfeld II", "addr:country": "DE", "socket:type2": "2", "socket:type2:output": "22.0 kW", "charging_station:output": "22.0 kW", "capacity": "2", "_source": "worldwide"}}, {"type": "node", "id": 9153238387, "lat": 49.831122, "lon": 5.7297, "tags": {"amenity": "charging_station", "access": "yes", "fee": "no", "opening_hours": "24/7", "operator": "ZE MO", "name": "Ladestation ZE MO", "addr:country": "DE", "capacity": "2", "_source": "worldwide"}}, {"type": "node", "id": 9216217663, "lat": 49.505667, "lon": 5.948794, "tags": {"amenity": "charging_station", "brand": "Chargy", "opening_hours": "24/7", "operator": "Chargy", "name": "Esch-sur-Alzette - Parking souterrain Maison du Savoir", "addr:country": "DE", "socket:type2": "10", "socket:type2:output": "22.0 kW", "charging_station:output": "22.0 kW", "capacity": "10", "_source": "worldwide"}}, {"type": "node", "id": 9393060076, "lat": 49.974009, "lon": 5.942964, "tags": {"amenity": "charging_station", "brand": "Chargy", "opening_hours": "24/7", "operator": "Chargy", "name": "Chargy Ok - Weidingen - Parking Am Pëtz", "addr:country": "DE", "socket:type2": "2", "socket:type2:output": "22.0 kW", "charging_station:output": "22.0 kW", "capacity": "2", "_source": "worldwide"}}, {"type": "node", "id": 9393060081, "lat": 49.493023, "lon": 5.992634, "tags": {"amenity": "charging_station", "brand": "Chargy", "opening_hours": "24/7", "operator": "Chargy", "name": "Esch-sur-Alzette - Parking rue Neudorf", "addr:country": "DE", "socket:type2": "2", "socket:type2:output": "22.0 kW", "charging_station:output": "22.0 kW", "capacity": "2", "_source": "worldwide"}}, {"type": "node", "id": 9549315388, "lat": 49.848884, "lon": 5.43701, "tags": {"amenity": "charging_station", "access": "customers", "fee": "yes", "operator": "Lidl", "name": "Lidl Neufchâteau", "addr:country": "DE", "socket:type2": "1", "socket:type2:output": "22.0 kW", "socket:type2_combo": "1", "socket:type2_combo:output": "50.0 kW", "socket:chademo": "1", "socket:chademo:output": "50.0 kW", "charging_station:output": "50.0 kW", "capacity": "2", "_source": "worldwide"}}, {"type": "node", "id": 9801322915, "lat": 49.634833, "lon": 5.972754, "tags": {"amenity": "charging_station", "access": "yes", "brand": "Chargy", "opening_hours": "24/7", "operator": "Chargy", "name": "SuperChargy - Aire de Capellen direction Luxembourg", "addr:country": "DE", "socket:type2": "6", "socket:type2:output": "160.0 kW", "charging_station:output": "160.0 kW", "capacity": "6", "_source": "worldwide"}}, {"type": "node", "id": 9815199176, "lat": 49.734991, "lon": 5.671736, "tags": {"amenity": "charging_station", "addr:country": "DE", "capacity": "2", "_source": "worldwide"}}, {"type": "node", "id": 9871687157, "lat": 49.637457, "lon": 5.970677, "tags": {"amenity": "charging_station", "access": "yes", "fee": "yes", "brand": "Chargy", "opening_hours": "24/7", "operator": "Chargy", "name": "SuperChargy - Aire de Capellen direction Arlon", "addr:country": "DE", "socket:type2": "6", "socket:type2:output": "160.0 kW", "charging_station:output": "160.0 kW", "capacity": "6", "_source": "worldwide"}}, {"type": "node", "id": 9916313354, "lat": 49.161959, "lon": 5.388625, "tags": {"amenity": "charging_station", "network": "MODULO", "opening_hours": "24/7", "operator": "Virta", "name": "Virta - MODULO", "addr:country": "DE", "socket:type2": "2", "socket:type2:output": "22 kW", "charging_station:output": "22 kW", "capacity": "2", "wheelchair": "yes", "_source": "worldwide"}}, {"type": "node", "id": 9916323095, "lat": 49.160289, "lon": 5.390739, "tags": {"amenity": "charging_station", "network": "MODULO", "opening_hours": "24/7", "operator": "Virta", "name": "Virta - MODULO", "addr:country": "DE", "socket:type2": "2", "socket:type2:output": "22 kW", "charging_station:output": "22 kW", "capacity": "2", "wheelchair": "yes", "_source": "worldwide"}}, {"type": "node", "id": 9916336218, "lat": 49.159209, "lon": 5.387712, "tags": {"amenity": "charging_station", "network": "MODULO", "opening_hours": "24/7", "operator": "Virta", "name": "Virta - MODULO", "addr:country": "DE", "socket:type2": "2", "socket:type2:output": "22 kW", "charging_station:output": "22 kW", "capacity": "2", "wheelchair": "yes", "_source": "worldwide"}}, {"type": "node", "id": 9920942677, "lat": 49.57264, "lon": 5.99547, "tags": {"amenity": "charging_station", "brand": "Chargy", "opening_hours": "24/7", "operator": "Chargy", "name": "Dippach - P+R Gare", "addr:country": "DE", "socket:type2": "4", "socket:type2:output": "22.0 kW", "charging_station:output": "22.0 kW", "capacity": "4", "_source": "worldwide"}}, {"type": "node", "id": 9920942686, "lat": 49.521287, "lon": 5.986987, "tags": {"amenity": "charging_station", "brand": "Chargy", "opening_hours": "24/7", "name": "Chargy Ok - Mondercange - Parking Ateliers Communaux", "addr:country": "DE", "socket:type2": "4", "socket:type2:output": "22.0 kW", "charging_station:output": "22.0 kW", "capacity": "4", "_source": "worldwide"}}, {"type": "node", "id": 9920942692, "lat": 49.510778, "lon": 5.928931, "tags": {"amenity": "charging_station", "brand": "Chargy", "opening_hours": "24/7", "operator": "Chargy", "name": "Chargy Ok - Commune Sanem - Parking Mairie", "addr:country": "DE", "socket:type2": "2", "socket:type2:output": "22.0 kW", "charging_station:output": "22.0 kW", "capacity": "2", "_source": "worldwide"}}, {"type": "node", "id": 9920942698, "lat": 49.585879, "lon": 5.971318, "tags": {"amenity": "charging_station", "brand": "Chargy", "opening_hours": "24/7", "operator": "Chargy", "name": "Chargy Ok - Sprinkange - Parking ZAE Op den Geieren", "addr:country": "DE", "socket:type2": "2", "socket:type2:output": "22.0 kW", "charging_station:output": "22.0 kW", "capacity": "2", "_source": "worldwide"}}, {"type": "node", "id": 9920942699, "lat": 49.553271, "lon": 5.878193, "tags": {"amenity": "charging_station", "brand": "Chargy", "opening_hours": "24/7", "operator": "Chargy", "name": "Pétange-Sud - P+R Gare", "addr:country": "DE", "socket:type2": "2", "socket:type2:output": "22.0 kW", "charging_station:output": "22.0 kW", "capacity": "2", "_source": "worldwide"}}, {"type": "node", "id": 9947107625, "lat": 49.561078, "lon": 5.83066, "tags": {"amenity": "charging_station", "fee": "yes", "addr:country": "DE", "capacity": "2", "_source": "worldwide"}}, {"type": "node", "id": 10211755940, "lat": 49.156957, "lon": 5.882457, "tags": {"amenity": "charging_station", "name": "Bornes de recharge", "addr:country": "DE", "capacity": "2", "_source": "worldwide"}}, {"type": "node", "id": 10216786917, "lat": 49.164929, "lon": 5.845493, "tags": {"amenity": "charging_station", "fee": "yes", "name": "Bornes de recharge", "addr:country": "DE", "capacity": "2", "_source": "worldwide"}}, {"type": "node", "id": 10577778667, "lat": 49.118551, "lon": 5.509747, "tags": {"amenity": "charging_station", "access": "yes", "brand": "Ionity", "opening_hours": "24/7", "operator": "IONITY", "name": "Ionity Verdun Saint-Nicolas Sud", "addr:country": "DE", "socket:type2_combo": "6", "socket:type2_combo:output": "350.0 kW", "charging_station:output": "350.0 kW", "capacity": "6", "_source": "worldwide"}}, {"type": "node", "id": 11109195065, "lat": 49.119734, "lon": 5.50913, "tags": {"amenity": "charging_station", "fee": "no", "network": "IONITY GMBH", "opening_hours": "24/7", "operator": "IONITY", "name": "IONITY - IONITY GMBH", "addr:country": "DE", "socket:type2": "1", "socket:type2:output": "22 kW", "socket:type2_combo": "1", "socket:type2_combo:output": "50 kW", "socket:chademo": "1", "socket:chademo:output": "50 kW", "charging_station:output": "50 kW", "authentication:none": "yes", "_source": "worldwide"}}, {"type": "node", "id": 11109195066, "lat": 49.118201, "lon": 5.50902, "tags": {"amenity": "charging_station", "fee": "no", "network": "IONITY GMBH", "opening_hours": "24/7", "operator": "IONITY", "name": "IONITY - IONITY GMBH", "addr:country": "DE", "socket:type2": "1", "socket:type2:output": "22 kW", "socket:type2_combo": "1", "socket:type2_combo:output": "50 kW", "socket:chademo": "1", "socket:chademo:output": "50 kW", "charging_station:output": "50 kW", "authentication:none": "yes", "_source": "worldwide"}}, {"type": "node", "id": 12081426225, "lat": 49.637853, "lon": 5.889985, "tags": {"amenity": "charging_station", "brand": "Allego", "name": "Ladestation Allego", "addr:country": "DE", "socket:type2": "4", "socket:type2:output": "22.0 kW", "charging_station:output": "22.0 kW", "capacity": "4", "_source": "worldwide"}}, {"type": "node", "id": 10895463251, "lat": 49.647047, "lon": 5.956404, "tags": {"amenity": "charging_station", "access": "customers", "addr:country": "DE", "_source": "worldwide"}}, {"type": "node", "id": 10950124699, "lat": 49.746599, "lon": 5.974238, "tags": {"amenity": "charging_station", "access": "yes", "fee": "yes", "brand": "Chargy", "operator": "Chargy", "name": "Chargy", "addr:country": "DE", "_source": "worldwide"}}, {"type": "node", "id": 11093585733, "lat": 49.903984, "lon": 5.137443, "tags": {"amenity": "charging_station", "addr:country": "DE", "_source": "worldwide"}}, {"type": "node", "id": 11109170260, "lat": 49.308085, "lon": 5.784605, "tags": {"amenity": "charging_station", "fee": "no", "network": "Freshmile", "opening_hours": "24/7", "operator": "Freshmile SAS", "name": "Freshmile SAS - Freshmile", "addr:country": "DE", "socket:type2": "1", "socket:type2:output": "22 kW", "charging_station:output": "22 kW", "authentication:none": "yes", "_source": "worldwide"}}, {"type": "node", "id": 11109170368, "lat": 49.119967, "lon": 5.508255, "tags": {"amenity": "charging_station", "fee": "no", "network": "Verdun Saint-Nicolas Nord", "opening_hours": "24/7", "operator": "Verdun Saint-Nicolas Nord", "name": "Ladestation Verdun Saint-Nicolas Nord", "addr:country": "DE", "socket:type2": "1", "socket:type2:output": "22 kW", "socket:type2_combo": "1", "socket:type2_combo:output": "50 kW", "socket:chademo": "1", "socket:chademo:output": "50 kW", "charging_station:output": "50 kW", "authentication:none": "yes", "_source": "worldwide"}}, {"type": "node", "id": 11109171395, "lat": 49.32408, "lon": 5.935854, "tags": {"amenity": "charging_station", "fee": "no", "network": "ITM NETTO TRIEUX", "operator": "ZEborne", "name": "ZEborne - ITM NETTO TRIEUX", "addr:country": "DE", "socket:type2": "1", "socket:type2:output": "22 kW", "charging_station:output": "22 kW", "authentication:none": "yes", "_source": "worldwide"}}, {"type": "node", "id": 11133580008, "lat": 49.319037, "lon": 5.797901, "tags": {"amenity": "charging_station", "addr:country": "DE", "capacity": "2", "_source": "worldwide"}}, {"type": "node", "id": 11386508692, "lat": 49.874659, "lon": 5.246766, "tags": {"amenity": "charging_station", "fee": "no", "name": "Frun shopping", "addr:country": "DE", "socket:type2": "4", "socket:type2:output": "22 kW", "charging_station:output": "22 kW", "authentication:none": "yes", "_source": "worldwide"}}, {"type": "node", "id": 11386515272, "lat": 49.51294, "lon": 5.734454, "tags": {"amenity": "charging_station", "fee": "no", "opening_hours": "Mo-Sa 08:30-19:30; Su 08:30-12:38", "name": "Aldi", "addr:country": "DE", "socket:type2": "4", "socket:type2:output": "22 kW", "socket:schuko": "4", "socket:schuko:output": "2.3 kW", "charging_station:output": "22 kW", "_source": "worldwide"}}, {"type": "node", "id": 1460070339, "lat": 49.514712, "lon": 5.734664, "tags": {"amenity": "charging_station", "operator": "EVzen", "name": "Ladestation EVzen", "addr:country": "DE", "socket:type2": "1", "socket:type2:output": "22.0 kW", "socket:type2_combo": "6", "socket:type2_combo:output": "180.0 kW", "charging_station:output": "180.0 kW", "capacity": "6", "_source": "worldwide"}}, {"type": "node", "id": 11386531781, "lat": 49.634925, "lon": 5.160708, "tags": {"amenity": "charging_station", "fee": "yes", "name": "Lidl", "addr:country": "DE", "socket:type2": "4", "socket:type2:output": "22 kW", "socket:type2_combo": "2", "socket:type2_combo:output": "50 kW", "socket:schuko": "4", "socket:schuko:output": "2.3 kW", "charging_station:output": "50 kW", "authentication:none": "", "_source": "worldwide"}}, {"type": "node", "id": 11400090412, "lat": 49.65444, "lon": 5.649318, "tags": {"amenity": "charging_station", "addr:country": "DE", "_source": "worldwide"}}, {"type": "node", "id": 11400184482, "lat": 49.664867, "lon": 5.571946, "tags": {"amenity": "charging_station", "addr:country": "DE", "_source": "worldwide"}}, {"type": "node", "id": 11685332013, "lat": 49.556003, "lon": 5.743051, "tags": {"amenity": "charging_station", "access": "yes", "fee": "no", "operator": "bike-energy", "name": "Ladestation bike-energy", "addr:country": "DE", "capacity": "3", "_source": "worldwide"}}, {"type": "node", "id": 11745473259, "lat": 49.870189, "lon": 5.379177, "tags": {"amenity": "charging_station", "access": "yes", "addr:country": "DE", "socket:type2_combo": "1", "socket:type2_combo:output": "50 kW", "charging_station:output": "50 kW", "capacity": "1", "_source": "worldwide"}}, {"type": "node", "id": 11816227410, "lat": 49.86978, "lon": 5.376571, "tags": {"amenity": "charging_station", "access": "yes", "fee": "yes", "network": "Ecotap", "opening_hours": "24/7", "operator": "Ecotap", "name": "Ladestation Ecotap", "addr:country": "DE", "socket:type2": "2", "socket:type2:output": "11.0 kW", "charging_station:output": "11.0 kW", "capacity": "2", "authentication:none": "", "_source": "worldwide"}}, {"type": "node", "id": 11766868637, "lat": 49.994761, "lon": 5.997104, "tags": {"amenity": "charging_station", "fee": "yes", "brand": "Chargy", "opening_hours": "24/7", "operator": "Chargy", "name": "Wilwerwiltz - Parking Terrain de foot", "addr:country": "DE", "socket:type2": "2", "socket:type2:output": "22.0 kW", "charging_station:output": "22.0 kW", "capacity": "2", "_source": "worldwide"}}, {"type": "node", "id": 11811472198, "lat": 49.728733, "lon": 5.841777, "tags": {"amenity": "charging_station", "brand": "Ecotap", "name": "Ladestation Ecotap", "addr:country": "DE", "capacity": "2", "_source": "worldwide"}}, {"type": "node", "id": 12194037762, "lat": 49.285892, "lon": 5.284342, "tags": {"amenity": "charging_station", "addr:country": "DE", "_source": "worldwide"}}, {"type": "node", "id": 12198797226, "lat": 49.662806, "lon": 5.844197, "tags": {"amenity": "charging_station", "access": "customers", "fee": "no", "addr:country": "DE", "capacity": "2", "_source": "worldwide"}}, {"type": "node", "id": 12231861221, "lat": 49.681256, "lon": 5.526373, "tags": {"amenity": "charging_station", "addr:country": "DE", "capacity": "2", "_source": "worldwide"}}, {"type": "node", "id": 12403334511, "lat": 49.717846, "lon": 5.48752, "tags": {"amenity": "charging_station", "addr:country": "DE", "capacity": "6", "_source": "worldwide"}}, {"type": "node", "id": 12407267649, "lat": 49.569082, "lon": 5.805565, "tags": {"amenity": "charging_station", "addr:country": "DE", "_source": "worldwide"}}, {"type": "node", "id": 12407268846, "lat": 49.561808, "lon": 5.794612, "tags": {"amenity": "charging_station", "addr:country": "DE", "_source": "worldwide"}}, {"type": "node", "id": 12492629380, "lat": 49.509092, "lon": 5.714819, "tags": {"amenity": "charging_station", "addr:country": "DE", "_source": "worldwide"}}, {"type": "node", "id": 12498093218, "lat": 49.863316, "lon": 5.279839, "tags": {"amenity": "charging_station", "operator": "ecotap", "name": "Ladestation ecotap", "addr:country": "DE", "capacity": "2", "_source": "worldwide"}}, {"type": "node", "id": 12556091329, "lat": 49.359939, "lon": 5.194452, "tags": {"amenity": "charging_station", "fee": "yes", "network": "IECharge", "opening_hours": "24/7", "operator": "IECharge", "name": "IECharge Liny-Devant-Dun", "addr:country": "DE", "socket:type2_combo": "4", "socket:type2_combo:output": "320.0 kW", "charging_station:output": "320.0 kW", "authentication:none": "yes", "_source": "worldwide"}}, {"type": "node", "id": 12618539097, "lat": 49.605418, "lon": 5.652152, "tags": {"amenity": "charging_station", "fee": "no", "brand": "Bike-Energy.com", "name": "Ladestation Bike-Energy.com", "addr:country": "DE", "capacity": "4", "_source": "worldwide"}}, {"type": "node", "id": 12676705118, "lat": 49.682174, "lon": 5.787696, "tags": {"amenity": "charging_station", "fee": "yes", "opening_hours": "24/7", "operator": "Shell Recharge", "name": "Shell Recharge Parc de l'Hydrion", "addr:country": "DE", "_source": "worldwide"}}, {"type": "node", "id": 12805695101, "lat": 49.91245, "lon": 5.355626, "tags": {"amenity": "charging_station", "addr:country": "DE", "_source": "worldwide"}}, {"type": "node", "id": 12881545317, "lat": 49.316073, "lon": 5.157702, "tags": {"amenity": "charging_station", "fee": "yes", "opening_hours": "24/7", "operator": "IECharge", "name": "IECharge Brieulles-sur-Meuse", "addr:country": "DE", "socket:type2_combo": "4", "socket:type2_combo:output": "50 kW", "charging_station:output": "50 kW", "capacity": "4", "_source": "worldwide"}}, {"type": "node", "id": 12889206482, "lat": 49.201139, "lon": 5.846519, "tags": {"amenity": "charging_station", "fee": "yes", "opening_hours": "24/7", "operator": "IECharge", "name": "Station de charge rapide IECharge", "addr:country": "DE", "socket:type2_combo": "4", "socket:type2_combo:output": "50 kW", "charging_station:output": "50 kW", "capacity": "4", "_source": "worldwide"}}, {"type": "node", "id": 12901999718, "lat": 49.879532, "lon": 5.991875, "tags": {"amenity": "charging_station", "addr:country": "DE", "capacity": "2", "_source": "worldwide"}}, {"type": "node", "id": 12978184752, "lat": 49.98638, "lon": 5.071431, "tags": {"amenity": "charging_station", "access": "yes", "fee": "no", "brand": "Bike Energie", "name": "Ladestation Bike Energie", "addr:country": "DE", "capacity": "2", "_source": "worldwide"}}, {"type": "node", "id": 12987450003, "lat": 49.48426, "lon": 5.200012, "tags": {"amenity": "charging_station", "addr:country": "DE", "_source": "worldwide"}}, {"type": "node", "id": 13104441210, "lat": 49.928495, "lon": 5.594805, "tags": {"amenity": "charging_station", "access": "yes", "fee": "yes", "brand": "King Charge Vaux-sur-Sûre", "operator": "novoeco | recharge (BayWa)", "name": "novoeco | recharge (BayWa) - King Charge Vaux-sur-Sûre", "addr:country": "DE", "capacity": "600", "_source": "worldwide"}}, {"type": "node", "id": 13186519894, "lat": 49.520964, "lon": 5.90957, "tags": {"amenity": "charging_station", "addr:country": "DE", "capacity": "2", "_source": "worldwide"}}, {"type": "node", "id": 13233344649, "lat": 49.803843, "lon": 5.530768, "tags": {"amenity": "charging_station", "addr:country": "DE", "_source": "worldwide"}}, {"type": "node", "id": 13644643820, "lat": 49.727699, "lon": 5.539142, "tags": {"amenity": "charging_station", "access": "yes", "fee": "yes", "opening_hours": "24/7", "operator": "EnergyVision", "name": "Ladestation EnergyVision", "addr:country": "DE", "capacity": "3", "_source": "worldwide"}}, {"type": "node", "id": 13721222895, "lat": 49.793406, "lon": 5.069722, "tags": {"amenity": "charging_station", "fee": "no", "addr:country": "DE", "_source": "worldwide"}}, {"type": "node", "id": 1121688671, "lat": 49.67976, "lon": 5.809333, "tags": {"amenity": "charging_station", "operator": "NMBS/SNCB", "name": "Ladestation NMBS/SNCB", "addr:country": "DE", "capacity": "4", "_source": "worldwide"}}, {"type": "node", "id": 1353714224, "lat": 49.653423, "lon": 5.818913, "tags": {"amenity": "charging_station", "operator": "TotalEnergies", "name": "TotalEnergies - Total", "addr:country": "DE", "socket:type2": "2", "socket:type2:output": "22 kW", "charging_station:output": "22 kW", "capacity": "2", "_source": "worldwide"}}, {"type": "node", "id": 1453574086, "lat": 49.517589, "lon": 5.753615, "tags": {"amenity": "charging_station", "fee": "yes", "brand": "Ionity", "operator": "IONITY", "name": "Ionity Pulventeux", "addr:country": "DE", "socket:chademo": "1", "socket:chademo:output": "50.0 kW", "charging_station:output": "50.0 kW", "capacity": "9", "_source": "worldwide"}}, {"type": "node", "id": 1460063001, "lat": 49.517817, "lon": 5.748, "tags": {"amenity": "charging_station", "fee": "yes", "brand": "Fastned", "operator": "Fastned", "name": "Fastned - Fastned", "addr:country": "DE", "socket:type2_combo": "8", "socket:type2_combo:output": "400.0 kW", "socket:chademo": "2", "socket:chademo:output": "50.0 kW", "charging_station:output": "400.0 kW", "capacity": "8", "_source": "worldwide"}}, {"type": "node", "id": 1453575026, "lat": 49.540876, "lon": 5.795444, "tags": {"amenity": "charging_station", "fee": "yes", "operator": "Lidl", "name": "Ladestation Lidl", "addr:country": "DE", "capacity": "8", "_source": "worldwide"}}, {"type": "node", "id": 1453576350, "lat": 49.615421, "lon": 5.813037, "tags": {"amenity": "charging_station", "fee": "yes", "brand": "Powerdot", "operator": "Powerdot", "name": "Powerdot Messancy", "addr:country": "DE", "capacity": "8", "_source": "worldwide"}}, {"type": "node", "id": 1453576704, "lat": 49.61155, "lon": 5.812738, "tags": {"amenity": "charging_station", "fee": "yes", "brand": "Ionity", "operator": "IONITY", "name": "Ionity Messancy", "addr:country": "DE", "socket:type2_combo": "6", "socket:type2_combo:output": "350.0 kW", "charging_station:output": "350.0 kW", "capacity": "6", "_source": "worldwide"}}, {"type": "node", "id": 1453592465, "lat": 49.557617, "lon": 5.70769, "tags": {"amenity": "charging_station", "operator": "DATS 24", "name": "DATS 24 Musson", "addr:country": "DE", "socket:type2": "2", "socket:type2:output": "22.0 kW", "socket:type2_combo": "1", "socket:type2_combo:output": "30.0 kW", "charging_station:output": "30.0 kW", "_source": "worldwide"}}, {"type": "node", "id": 1453654138, "lat": 49.305959, "lon": 5.854475, "tags": {"amenity": "charging_station", "network": "Mairy-Mainville", "opening_hours": "24/7", "operator": "NW IECharge", "name": "NW IECharge - Mairy-Mainville", "addr:country": "DE", "socket:type2_combo": "2", "socket:type2_combo:output": "50 kW", "charging_station:output": "50 kW", "capacity": "4", "authentication:none": "yes", "_source": "worldwide"}}, {"type": "node", "id": 1475206848, "lat": 49.692376, "lon": 5.405575, "tags": {"amenity": "charging_station", "addr:country": "DE", "_source": "worldwide"}}]}