{"id": "36-36", "latMin": 36, "lonMin": 36, "latMax": 37, "lonMax": 37, "generated": "2026-04-16T18:39:07.468Z", "count": 5, "pois": [{"type": "node", "id": 4234689289, "lat": 36.225489, "lon": 36.774859, "tags": {"amenity": "charging_station", "operator": "ابو احمد بغدادي", "name": "Ladestation ابو احمد بغدادي", "_source": "worldwide"}}, {"type": "node", "id": 5711097746, "lat": 36.280477, "lon": 36.19196, "tags": {"amenity": "charging_station", "name": "Reles İthalat ve İhracat Araç Şarj İstasyonu", "_source": "worldwide"}}, {"type": "node", "id": 5711111693, "lat": 36.573067, "lon": 36.159103, "tags": {"amenity": "charging_station", "operator": "Reles İthalat ve İhracat", "name": "Araç Şarj İstasyonu", "_source": "worldwide"}}, {"type": "node", "id": 7077989417, "lat": 36.478162, "lon": 36.258878, "tags": {"amenity": "charging_station", "fee": "yes", "opening_hours": "24/7", "operator": "SHARZ", "name": "SHARZ Hypco Hatay Akaryakıt", "addr:street": "Kıcı Mahallesi, Hatay İskenderun Yolu, 31350 Belen/Hatay", "addr:city": "BELEN", "socket:type2": "1", "socket:type2:output": "22 kW", "charging_station:output": "22 kW", "_source": "worldwide"}}, {"type": "node", "id": 13346560357, "lat": 36.217081, "lon": 36.691517, "tags": {"amenity": "charging_station", "access": "yes", "fee": "yes", "brand": "Super Tajj Ev Charger. 2", "operator": "Super Tajj Ev Charger. 2", "name": "Super Tajj Ev Charger. 2 - Super Tajj Ev Charger. 2", "_source": "worldwide"}}]}