{"id": "-37-144", "latMin": -37, "lonMin": 144, "latMax": -36, "lonMax": 145, "generated": "2026-04-16T18:39:07.186Z", "count": 9, "pois": [{"type": "node", "id": 6816255780, "lat": -36.774565, "lon": 144.306463, "tags": {"amenity": "charging_station", "fee": "yes", "access": "yes", "opening_hours": "24/7", "brand": "Tesla Supercharger", "network": "Supercharger", "operator": "Tesla", "name": "Tesla Supercharger", "capacity": "6", "_source": "worldwide"}}, {"type": "node", "id": 8645337003, "lat": -36.998613, "lon": 144.260965, "tags": {"amenity": "charging_station", "brand": "Charging the Regions", "operator": "Central Victorian Greenhouse Alliance", "name": "Charging the Regions", "socket:chademo": "1", "capacity": "2", "_source": "worldwide"}}, {"type": "node", "id": 8690279176, "lat": -36.127142, "lon": 144.748, "tags": {"amenity": "charging_station", "brand": "Charging the Regions", "operator": "Central Victorian Greenhouse Alliance", "name": "Charging the Regions", "_source": "worldwide"}}, {"type": "node", "id": 10184645214, "lat": -36.113512, "lon": 144.757421, "tags": {"amenity": "charging_station", "name": "EV Charging Station", "_source": "worldwide"}}, {"type": "node", "id": 11278409135, "lat": -36.756932, "lon": 144.276653, "tags": {"amenity": "charging_station", "fee": "yes", "brand": "Charging the Regions", "network": "Evie", "operator": "Central Victorian Greenhouse Alliance", "name": "Charging the Regions", "socket:chademo": "2", "capacity": "4", "_source": "worldwide"}}, {"type": "node", "id": 11363471775, "lat": -36.923434, "lon": 144.709949, "tags": {"amenity": "charging_station", "operator": "Evie Networks", "name": "Evie Networks", "capacity": "2", "_source": "worldwide"}}, {"type": "node", "id": 11548535146, "lat": -36.753332, "lon": 144.294362, "tags": {"amenity": "charging_station", "fee": "yes", "access": "yes", "opening_hours": "24/7", "network": "Chargefox", "operator": "Chargefox", "name": "Chargefox", "capacity": "3", "_source": "worldwide"}}, {"type": "node", "id": 12872507191, "lat": -36.734553, "lon": 144.133423, "tags": {"amenity": "charging_station", "operator": "NRMA", "name": "NRMA", "socket:chademo": "1", "capacity": "4", "_source": "worldwide"}}, {"type": "node", "id": 12885984005, "lat": -36.76352, "lon": 144.279593, "tags": {"amenity": "charging_station", "operator": "Evie Networks", "name": "Evie Networks", "socket:chademo": "1", "capacity": "2", "_source": "worldwide"}}]}