{"id": "40-0", "latMin": 40, "lonMin": 0, "latMax": 41, "lonMax": 1, "generated": "2026-04-16T18:39:07.811Z", "count": 87, "pois": [{"type": "node", "id": 8995483735, "lat": 40.114088, "lon": -0.739053, "tags": {"amenity": "charging_station", "access": "yes", "fee": "yes", "operator": "Wenea", "name": "Wenea Rest Los Maños", "addr:country": "ES", "capacity": "2", "_source": "worldwide"}}, {"type": "node", "id": 9315942772, "lat": 40.135541, "lon": -0.280112, "tags": {"amenity": "charging_station", "fee": "no", "operator": "Ayuntamiento de Lucena del Cid", "name": "Lucena del Cid", "addr:country": "ES", "socket:type2": "2", "socket:type2:output": "22 kW", "charging_station:output": "22 kW", "capacity": "2", "_source": "worldwide"}}, {"type": "node", "id": 9315942795, "lat": 40.377844, "lon": -0.140186, "tags": {"amenity": "charging_station", "fee": "no", "operator": "Ayuntamiento de Benassal", "name": "Benassal", "addr:country": "ES", "socket:type2": "2", "socket:type2:output": "22 kW", "charging_station:output": "22 kW", "capacity": "2", "_source": "worldwide"}}, {"type": "node", "id": 11154592035, "lat": 40.217428, "lon": -0.939632, "tags": {"amenity": "charging_station", "access": "yes", "fee": "yes", "brand": "Tesla Supercharger", "opening_hours": "24/7", "operator": "Tesla", "name": "Tesla Supercharger", "addr:country": "ES", "socket:type2_combo": "12", "socket:type2_combo:output": "250.0 kW", "charging_station:output": "250.0 kW", "capacity": "12", "_source": "worldwide"}}, {"type": "node", "id": 11298445488, "lat": 40.004581, "lon": -0.055879, "tags": {"amenity": "charging_station", "access": "yes", "fee": "yes", "brand": "Tesla Supercharger", "opening_hours": "24/7", "operator": "Tesla", "name": "Castellón Supercharger", "addr:country": "ES", "socket:type2_combo": "12", "socket:type2_combo:output": "250.0 kW", "charging_station:output": "250.0 kW", "capacity": "12", "_source": "worldwide"}}, {"type": "node", "id": 11921833161, "lat": 40.974071, "lon": -0.436505, "tags": {"amenity": "charging_station", "operator": "Endesa", "name": "Ladestation Endesa", "addr:country": "ES", "_source": "worldwide"}}, {"type": "node", "id": 11921833162, "lat": 40.897343, "lon": -0.371509, "tags": {"amenity": "charging_station", "operator": "Repsol", "name": "Ladestation Repsol", "addr:country": "ES", "_source": "worldwide"}}, {"type": "node", "id": 12011970951, "lat": 40.533668, "lon": -0.260881, "tags": {"amenity": "charging_station", "addr:country": "ES", "socket:type2": "2", "socket:type2:output": "22 kW", "charging_station:output": "22 kW", "capacity": "2", "_source": "worldwide"}}, {"type": "node", "id": 12012000345, "lat": 40.502402, "lon": -0.190941, "tags": {"amenity": "charging_station", "operator": "myRecarga", "name": "Ladestation myRecarga", "addr:country": "ES", "socket:type2": "2", "socket:type2:output": "22 kW", "charging_station:output": "22 kW", "capacity": "2", "_source": "worldwide"}}, {"type": "node", "id": 12012056929, "lat": 40.431363, "lon": -0.253804, "tags": {"amenity": "charging_station", "addr:country": "ES", "socket:type2": "2", "socket:type2:output": "22 kW", "charging_station:output": "22 kW", "capacity": "2", "_source": "worldwide"}}, {"type": "node", "id": 12015701996, "lat": 40.214144, "lon": -0.169291, "tags": {"amenity": "charging_station", "addr:country": "ES", "socket:type2": "2", "socket:type2:output": "22.0 kW", "charging_station:output": "22.0 kW", "capacity": "2", "_source": "worldwide"}}, {"type": "node", "id": 12015827601, "lat": 40.172992, "lon": -0.031817, "tags": {"amenity": "charging_station", "addr:country": "ES", "socket:type2": "2", "socket:type2:output": "22.0 kW", "charging_station:output": "22.0 kW", "capacity": "2", "_source": "worldwide"}}, {"type": "node", "id": 12420449845, "lat": 40.667195, "lon": -0.548435, "tags": {"amenity": "charging_station", "fee": "yes", "addr:country": "ES", "_source": "worldwide"}}, {"type": "node", "id": 12988628068, "lat": 40.327368, "lon": -0.079799, "tags": {"amenity": "charging_station", "addr:country": "ES", "socket:type2": "2", "socket:type2:output": "22 kW", "charging_station:output": "22 kW", "_source": "worldwide"}}, {"type": "node", "id": 13009634002, "lat": 40.214413, "lon": -0.94389, "tags": {"amenity": "charging_station", "addr:country": "ES", "_source": "worldwide"}}, {"type": "node", "id": 13299823513, "lat": 40.250493, "lon": -0.751776, "tags": {"amenity": "charging_station", "operator": "Ayuntamiento Mora de Rubielos", "name": "Ladestation Ayuntamiento Mora de Rubielos", "addr:country": "ES", "capacity": "2", "_source": "worldwide"}}, {"type": "node", "id": 1209187080, "lat": 40.293686, "lon": -0.29048, "tags": {"amenity": "charging_station", "fee": "no", "operator": "Ajuntament de Visatebella del Maestrat", "name": "Vistabella", "addr:country": "ES", "socket:type2": "2", "socket:type2:output": "22 kW", "charging_station:output": "22 kW", "capacity": "2", "_source": "worldwide"}}, {"type": "node", "id": 1381320854, "lat": 40.721414, "lon": -0.003411, "tags": {"amenity": "charging_station", "addr:country": "ES", "_source": "worldwide"}}, {"type": "node", "id": 1383031759, "lat": 40.648799, "lon": -0.246083, "tags": {"amenity": "charging_station", "addr:country": "ES", "capacity": "2", "_source": "worldwide"}}, {"type": "node", "id": 1413577800, "lat": 40.336822, "lon": -0.164855, "tags": {"amenity": "charging_station", "access": "yes", "brand": "Iberdrola", "name": "Ladestation Iberdrola", "addr:country": "ES", "socket:type2": "2", "socket:type2:output": "22 kW", "charging_station:output": "22 kW", "capacity": "2", "_source": "worldwide"}}, {"type": "node", "id": 1431592699, "lat": 40.644022, "lon": -0.200496, "tags": {"amenity": "charging_station", "addr:country": "ES", "_source": "worldwide"}}, {"type": "node", "id": 4305668808, "lat": 40.753002, "lon": 0.606433, "tags": {"amenity": "charging_station", "access": "yes", "fee": "yes", "brand": "Tesla Supercharger", "opening_hours": "24/7", "operator": "Tesla", "name": "L'Aldea Supercharger", "addr:street": "N-340", "addr:postcode": "43896", "addr:city": "L'Aldea", "socket:tesla_supercharger": "8", "socket:tesla_supercharger:output": "150.0 kW", "charging_station:output": "150.0 kW", "capacity": "16", "_source": "worldwide"}}, {"type": "node", "id": 6913351787, "lat": 40.807549, "lon": 0.520161, "tags": {"amenity": "charging_station", "addr:country": "ES", "capacity": "1", "_source": "worldwide"}}, {"type": "node", "id": 7049825175, "lat": 40.999869, "lon": 0.916887, "tags": {"amenity": "charging_station", "access": "yes", "addr:country": "ES", "_source": "worldwide"}}, {"type": "node", "id": 7798624002, "lat": 40.885649, "lon": 0.803925, "tags": {"amenity": "charging_station", "addr:country": "ES", "_source": "worldwide"}}, {"type": "node", "id": 8796448921, "lat": 40.35537, "lon": 0.301424, "tags": {"amenity": "charging_station", "operator": "Iberdrola", "name": "Ladestation Iberdrola", "addr:country": "ES", "capacity": "6", "_source": "worldwide"}}, {"type": "node", "id": 8869728372, "lat": 40.812214, "lon": 0.711581, "tags": {"amenity": "charging_station", "access": "yes", "operator": "etecnic / Generalitat de Catalunya", "name": "Ladestation etecnic / Generalitat de Catalunya", "addr:country": "ES", "socket:type2": "2", "socket:type2:output": "22 kW", "charging_station:output": "22 kW", "capacity": "2", "_source": "worldwide"}}, {"type": "node", "id": 10047978912, "lat": 40.811312, "lon": 0.70553, "tags": {"amenity": "charging_station", "access": "yes", "fee": "yes", "opening_hours": "24/7", "operator": "Acciona Energía", "name": "Acciona - L'ampolla", "addr:country": "ES", "socket:type2_combo": "2", "socket:type2_combo:output": "100.0 kW", "charging_station:output": "100.0 kW", "capacity": "2", "_source": "worldwide"}}, {"type": "node", "id": 13186100534, "lat": 40.814159, "lon": 0.709987, "tags": {"amenity": "charging_station", "access": "yes", "fee": "yes", "operator": "Acciona Energía", "name": "Acciona - L'Ampolla Centre de dia", "addr:country": "ES", "socket:type2": "1", "socket:type2:output": "43.0 kW", "socket:type2_combo": "1", "socket:type2_combo:output": "50.0 kW", "socket:chademo": "1", "socket:chademo:output": "50.0 kW", "charging_station:output": "50.0 kW", "capacity": "2", "_source": "worldwide"}}, {"type": "node", "id": 8869744689, "lat": 40.552373, "lon": 0.530748, "tags": {"amenity": "charging_station", "access": "yes", "operator": "Ports de la Generalitat", "name": "Ladestation Ports de la Generalitat", "addr:country": "ES", "socket:type2": "2", "socket:type2:output": "22 kW", "charging_station:output": "22 kW", "capacity": "2", "_source": "worldwide"}}, {"type": "node", "id": 8869752461, "lat": 40.596024, "lon": 0.449425, "tags": {"amenity": "charging_station", "access": "yes", "operator": "Ajuntament d'Ulldecona", "name": "SELBA EdRSR 1", "addr:country": "ES", "socket:type2": "2", "socket:type2:output": "22 kW", "charging_station:output": "22 kW", "capacity": "2", "_source": "worldwide"}}, {"type": "node", "id": 8869763204, "lat": 40.814166, "lon": 0.515154, "tags": {"amenity": "charging_station", "access": "yes", "name": "PIRVEC-24", "addr:country": "ES", "socket:type2": "2", "socket:type2:output": "22 kW", "charging_station:output": "22 kW", "_source": "worldwide"}}, {"type": "node", "id": 8869763258, "lat": 40.716943, "lon": 0.842516, "tags": {"amenity": "charging_station", "access": "yes", "name": "EdRsR", "addr:country": "ES", "socket:type2": "2", "socket:type2:output": "22 kW", "charging_station:output": "22 kW", "capacity": "2", "_source": "worldwide"}}, {"type": "node", "id": 8869765804, "lat": 40.717609, "lon": 0.49217, "tags": {"amenity": "charging_station", "access": "yes", "operator": "Ajuntament de Santa Bàrbara", "name": "SELBA EdRSR 1", "addr:country": "ES", "socket:type2": "2", "socket:type2:output": "22 kW", "charging_station:output": "22 kW", "capacity": "2", "_source": "worldwide"}}, {"type": "node", "id": 8869768915, "lat": 40.79478, "lon": 0.525435, "tags": {"amenity": "charging_station", "access": "yes", "fee": "no", "brand": "etecnic", "opening_hours": "24/7", "operator": "Etecnic", "name": "Punt de càrrega Consell Comarcal del Baix Ebre", "addr:street": "Carrer de Barcelona 221", "addr:postcode": "43518", "addr:city": "Tortosa", "socket:type2": "1", "socket:type2:output": "22 kW", "socket:type2_combo": "1", "socket:type2_combo:output": "50 kW", "socket:chademo": "1", "socket:chademo:output": "50 kW", "charging_station:output": "50 kW", "capacity": "2", "authentication:none": "", "_source": "worldwide"}}, {"type": "node", "id": 8869775181, "lat": 40.712381, "lon": 0.57919, "tags": {"amenity": "charging_station", "access": "yes", "operator": "Ajuntament d'Amposta", "name": "Ladestation Ajuntament d'Amposta", "addr:country": "ES", "socket:type2": "1", "socket:type2:output": "22 kW", "socket:type2_combo": "1", "socket:type2_combo:output": "50 kW", "socket:chademo": "1", "socket:chademo:output": "50 kW", "charging_station:output": "50 kW", "capacity": "3", "_source": "worldwide"}}, {"type": "node", "id": 8869775238, "lat": 40.617362, "lon": 0.594008, "tags": {"amenity": "charging_station", "access": "yes", "addr:country": "ES", "socket:type2": "1", "socket:type2:output": "22 kW", "socket:type2_combo": "1", "socket:type2_combo:output": "50 kW", "socket:chademo": "1", "socket:chademo:output": "50 kW", "charging_station:output": "50 kW", "capacity": "2", "_source": "worldwide"}}, {"type": "node", "id": 8869785113, "lat": 40.956693, "lon": 0.315543, "tags": {"amenity": "charging_station", "access": "yes", "addr:country": "ES", "socket:type2": "1", "socket:type2:output": "22 kW", "socket:type2_combo": "1", "socket:type2_combo:output": "50 kW", "socket:chademo": "1", "socket:chademo:output": "50 kW", "charging_station:output": "50 kW", "capacity": "2", "_source": "worldwide"}}, {"type": "node", "id": 8869812985, "lat": 40.816889, "lon": 0.52432, "tags": {"amenity": "charging_station", "access": "yes", "operator": "Ajuntament de Tortosa", "name": "Ladestation Ajuntament de Tortosa", "addr:country": "ES", "socket:type2": "1", "socket:type2:output": "22 kW", "socket:type2_combo": "1", "socket:type2_combo:output": "50 kW", "socket:chademo": "1", "socket:chademo:output": "50 kW", "charging_station:output": "50 kW", "capacity": "3", "_source": "worldwide"}}, {"type": "node", "id": 8869820359, "lat": 40.909633, "lon": 0.489371, "tags": {"amenity": "charging_station", "access": "yes", "operator": "Ajuntament de Xerta", "name": "SELBA EdRSR 1", "addr:country": "ES", "socket:type2": "2", "socket:type2:output": "22 kW", "charging_station:output": "22 kW", "capacity": "2", "_source": "worldwide"}}, {"type": "node", "id": 8869834589, "lat": 40.921647, "lon": 0.401074, "tags": {"amenity": "charging_station", "access": "yes", "name": "SELBA EdRSR 1", "addr:country": "ES", "socket:type2": "2", "socket:type2:output": "22 kW", "charging_station:output": "22 kW", "capacity": "2", "_source": "worldwide"}}, {"type": "node", "id": 8869885688, "lat": 40.882737, "lon": 0.804021, "tags": {"amenity": "charging_station", "access": "yes", "operator": "Ajuntament de l'Ametlla de Mar", "name": "Ladestation Ajuntament de l'Ametlla de Mar", "addr:country": "ES", "socket:type2": "2", "socket:type2:output": "22 kW", "charging_station:output": "22 kW", "capacity": "2", "_source": "worldwide"}}, {"type": "node", "id": 9039017966, "lat": 40.412148, "lon": 0.428049, "tags": {"amenity": "charging_station", "access": "customers", "brand": "Tesla, Inc.", "operator": "Tesla", "name": "Tesla Destination Charger (11kW)", "addr:country": "ES", "socket:type2": "1", "socket:type2:output": "22 kW", "charging_station:output": "22 kW", "capacity": "1", "_source": "worldwide"}}, {"type": "node", "id": 9083582517, "lat": 40.874382, "lon": 0.154102, "tags": {"amenity": "charging_station", "addr:country": "ES", "capacity": "2", "_source": "worldwide"}}, {"type": "node", "id": 11374286970, "lat": 40.873959, "lon": 0.157102, "tags": {"amenity": "charging_station", "operator": "Endesa", "name": "Endesa", "addr:country": "ES", "_source": "worldwide"}}, {"type": "node", "id": 9315942754, "lat": 40.603771, "lon": 0.046447, "tags": {"amenity": "charging_station", "fee": "no", "operator": "Ayuntamiento de Vallibona", "name": "Vallibona", "addr:country": "ES", "socket:type2": "2", "socket:type2:output": "22 kW", "charging_station:output": "22 kW", "capacity": "2", "_source": "worldwide"}}, {"type": "node", "id": 9315942757, "lat": 40.415998, "lon": 0.172683, "tags": {"amenity": "charging_station", "fee": "no", "operator": "Ayuntamiento de la Salzadella", "name": "La Salzadella", "addr:country": "ES", "socket:type2": "2", "socket:type2:output": "22 kW", "charging_station:output": "22 kW", "capacity": "2", "_source": "worldwide"}}, {"type": "node", "id": 9315942799, "lat": 40.305914, "lon": 0.2252, "tags": {"amenity": "charging_station", "fee": "no", "operator": "Ayuntamiento de Alcalá de Xivert", "name": "Alcalá de Xivert", "addr:country": "ES", "socket:type2": "2", "socket:type2:output": "22 kW", "charging_station:output": "22 kW", "capacity": "2", "_source": "worldwide"}}, {"type": "node", "id": 9315942813, "lat": 40.153988, "lon": 0.039581, "tags": {"amenity": "charging_station", "fee": "no", "operator": "Ayuntamiento de Cabanes", "name": "Cabanes", "addr:country": "ES", "socket:type2": "2", "socket:type2:output": "22 kW", "charging_station:output": "22 kW", "capacity": "2", "_source": "worldwide"}}, {"type": "node", "id": 9315942814, "lat": 40.35862, "lon": 0.403269, "tags": {"amenity": "charging_station", "fee": "no", "operator": "Ayuntamiento de Peñíscola", "name": "Peñíscola", "addr:country": "ES", "socket:type2": "2", "socket:type2:output": "22 kW", "charging_station:output": "22 kW", "capacity": "2", "_source": "worldwide"}}, {"type": "node", "id": 13031513773, "lat": 40.361874, "lon": 0.395748, "tags": {"amenity": "charging_station", "addr:country": "ES", "socket:type2_combo": "2", "socket:type2_combo:output": "120.0 kW", "charging_station:output": "120.0 kW", "capacity": "2", "_source": "worldwide"}}, {"type": "node", "id": 9964664115, "lat": 40.824979, "lon": 0.511815, "tags": {"amenity": "charging_station", "access": "yes", "fee": "yes", "operator": "Endesa", "name": "Endesa X - EMD de Jesús", "addr:country": "ES", "socket:type2": "1", "socket:type2:output": "43.0 kW", "socket:type2_combo": "1", "socket:type2_combo:output": "50.0 kW", "socket:chademo": "1", "socket:chademo:output": "50.0 kW", "charging_station:output": "50.0 kW", "capacity": "2", "_source": "worldwide"}}, {"type": "node", "id": 9968047727, "lat": 40.614003, "lon": 0.590236, "tags": {"amenity": "charging_station", "access": "yes", "fee": "yes", "operator": "Endesa", "name": "Endesa X - la Ràpita - Passeig Maritim 18", "addr:country": "ES", "socket:type2": "2", "socket:type2:output": "22.0 kW", "socket:type2_combo": "2", "socket:type2_combo:output": "50.0 kW", "socket:chademo": "2", "socket:chademo:output": "50.0 kW", "charging_station:output": "50.0 kW", "capacity": "4", "_source": "worldwide"}}, {"type": "node", "id": 13366743252, "lat": 40.615938, "lon": 0.592746, "tags": {"amenity": "charging_station", "access": "yes", "fee": "no", "opening_hours": "24/7", "addr:country": "ES", "capacity": "2", "authentication:none": "yes", "_source": "worldwide"}}, {"type": "node", "id": 9968062290, "lat": 40.774539, "lon": 0.659308, "tags": {"amenity": "charging_station", "access": "yes", "fee": "yes", "operator": "Endesa", "name": "Endesa X - Camarles", "addr:country": "ES", "socket:type2": "1", "socket:type2:output": "43.0 kW", "socket:type2_combo": "1", "socket:type2_combo:output": "50.0 kW", "socket:chademo": "1", "socket:chademo:output": "50.0 kW", "charging_station:output": "50.0 kW", "capacity": "2", "_source": "worldwide"}}, {"type": "node", "id": 9968072118, "lat": 40.89467, "lon": 0.782384, "tags": {"amenity": "charging_station", "access": "yes", "fee": "yes", "operator": "Endesa", "name": "Endesa X - Plaça Poligon - L'Ametlla de Mar", "addr:country": "ES", "socket:type2": "1", "socket:type2:output": "21.0 kW", "socket:type2_combo": "1", "socket:type2_combo:output": "50.0 kW", "socket:chademo": "1", "socket:chademo:output": "50.0 kW", "charging_station:output": "50.0 kW", "capacity": "2", "_source": "worldwide"}}, {"type": "node", "id": 9972826396, "lat": 40.603834, "lon": 0.420802, "tags": {"amenity": "charging_station", "access": "yes", "fee": "yes", "operator": "Wenea", "name": "Wenea - Restaurant Les Moles", "addr:country": "ES", "socket:type2": "1", "socket:type2:output": "43.0 kW", "socket:type2_combo": "1", "socket:type2_combo:output": "50.0 kW", "socket:chademo": "1", "socket:chademo:output": "50.0 kW", "charging_station:output": "50.0 kW", "capacity": "2", "_source": "worldwide"}}, {"type": "node", "id": 10246334106, "lat": 40.764979, "lon": 0.646228, "tags": {"amenity": "charging_station", "fee": "yes", "opening_hours": "24/7", "operator": "Wenea", "name": "Wenea", "addr:country": "ES", "_source": "worldwide"}}, {"type": "node", "id": 10700363270, "lat": 40.454988, "lon": 0.453756, "tags": {"amenity": "charging_station", "fee": "yes", "brand": "Endesa", "opening_hours": "24/7", "operator": "Endesa", "name": "Endesa - Endesa", "addr:country": "ES", "capacity": "2", "_source": "worldwide"}}, {"type": "node", "id": 13367055300, "lat": 40.455693, "lon": 0.454601, "tags": {"amenity": "charging_station", "access": "yes", "operator": "Iberdrola", "name": "Ladestation Iberdrola", "addr:country": "ES", "capacity": "2", "_source": "worldwide"}}, {"type": "node", "id": 11185386391, "lat": 40.04014, "lon": 0.051007, "tags": {"amenity": "charging_station", "brand": "Endesa X", "operator": "Endesa X", "name": "Endesa X - Endesa X", "addr:country": "ES", "socket:type2": "2", "socket:type2:output": "11.0 kW", "charging_station:output": "11.0 kW", "capacity": "2", "_source": "worldwide"}}, {"type": "node", "id": 11291123823, "lat": 40.247769, "lon": 0.275179, "tags": {"amenity": "charging_station", "brand": "Endesa X", "operator": "Endesa X", "name": "Endesa X - Endesa X", "addr:country": "ES", "_source": "worldwide"}}, {"type": "node", "id": 11338627708, "lat": 40.251044, "lon": 0.286079, "tags": {"amenity": "charging_station", "access": "yes", "fee": "yes", "brand": "Place To Plug", "operator": "Vimel Energy", "name": "Vimel Energy - Place To Plug", "addr:country": "ES", "socket:type2": "2", "socket:type2:output": "22.0 kW", "charging_station:output": "22.0 kW", "capacity": "2", "_source": "worldwide"}}, {"type": "node", "id": 12037284777, "lat": 40.65657, "lon": 0.779324, "tags": {"amenity": "charging_station", "access": "customers", "addr:country": "ES", "capacity": "2", "_source": "worldwide"}}, {"type": "node", "id": 12097053018, "lat": 40.217077, "lon": 0.188562, "tags": {"amenity": "charging_station", "access": "yes", "fee": "yes", "brand": "TotalEnergies", "operator": "TotalEnergies", "name": "TotalEnergies - TotalEnergies", "addr:country": "ES", "socket:type2_combo": "2", "socket:type2_combo:output": "100.0 kW", "socket:chademo": "1", "socket:chademo:output": "50.0 kW", "charging_station:output": "100.0 kW", "capacity": "2", "_source": "worldwide"}}, {"type": "node", "id": 12165240201, "lat": 40.312154, "lon": 0.121652, "tags": {"amenity": "charging_station", "addr:country": "ES", "socket:type2": "2", "socket:type2:output": "22.0 kW", "charging_station:output": "22.0 kW", "capacity": "2", "_source": "worldwide"}}, {"type": "node", "id": 12391450436, "lat": 40.45708, "lon": 0.449874, "tags": {"amenity": "charging_station", "fee": "yes", "opening_hours": "24/7", "addr:country": "ES", "capacity": "1", "_source": "worldwide"}}, {"type": "node", "id": 12534169401, "lat": 40.707082, "lon": 0.718158, "tags": {"amenity": "charging_station", "operator": "etecnic", "name": "ID-1743", "addr:country": "ES", "_source": "worldwide"}}, {"type": "node", "id": 12534169902, "lat": 40.705858, "lon": 0.720389, "tags": {"amenity": "charging_station", "addr:country": "ES", "_source": "worldwide"}}, {"type": "node", "id": 12618378688, "lat": 40.05367, "lon": 0.064615, "tags": {"amenity": "charging_station", "access": "yes", "fee": "no", "addr:country": "ES", "capacity": "4", "_source": "worldwide"}}, {"type": "node", "id": 12776351465, "lat": 40.615975, "lon": 0.220455, "tags": {"amenity": "charging_station", "operator": "Endesa X", "name": "Ladestation Endesa X", "addr:country": "ES", "capacity": "2", "_source": "worldwide"}}, {"type": "node", "id": 12778030187, "lat": 40.63228, "lon": 0.285516, "tags": {"amenity": "charging_station", "operator": "Umbrella", "name": "Ladestation Umbrella", "addr:country": "ES", "_source": "worldwide"}}, {"type": "node", "id": 12837268760, "lat": 40.798518, "lon": 0.522019, "tags": {"amenity": "charging_station", "access": "yes", "fee": "yes", "opening_hours": "24/7", "operator": "Endesa X", "name": "Ladestation Endesa X", "addr:country": "ES", "socket:type2": "2", "socket:type2:output": "22.0 kW", "socket:type2_combo": "2", "socket:type2_combo:output": "55.0 kW", "socket:chademo": "2", "socket:chademo:output": "55.0 kW", "charging_station:output": "55.0 kW", "capacity": "4", "_source": "worldwide"}}, {"type": "node", "id": 12921420549, "lat": 40.515552, "lon": 0.14156, "tags": {"amenity": "charging_station", "brand": "Monta", "operator": "Monta", "name": "Monta - Monta", "addr:country": "ES", "_source": "worldwide"}}, {"type": "node", "id": 12944473124, "lat": 40.765754, "lon": 0.627085, "tags": {"amenity": "charging_station", "addr:country": "ES", "capacity": "6", "_source": "worldwide"}}, {"type": "node", "id": 13031321856, "lat": 40.370705, "lon": 0.3943, "tags": {"amenity": "charging_station", "operator": "Iberdrola", "name": "Ladestation Iberdrola", "addr:country": "ES", "socket:type2": "2", "socket:type2:output": "22.0 kW", "charging_station:output": "22.0 kW", "capacity": "2", "_source": "worldwide"}}, {"type": "node", "id": 13031473834, "lat": 40.377282, "lon": 0.389012, "tags": {"amenity": "charging_station", "addr:country": "ES", "socket:type2": "2", "socket:type2:output": "22 kW", "charging_station:output": "22 kW", "_source": "worldwide"}}, {"type": "node", "id": 13031696671, "lat": 40.462595, "lon": 0.355572, "tags": {"amenity": "charging_station", "operator": "Iberdrola", "name": "Ladestation Iberdrola", "addr:country": "ES", "socket:type2": "1", "socket:type2:output": "22.0 kW", "charging_station:output": "22.0 kW", "_source": "worldwide"}}, {"type": "node", "id": 13265113744, "lat": 40.699443, "lon": 0.579542, "tags": {"amenity": "charging_station", "access": "yes", "fee": "yes", "operator": "Endesa X", "name": "Ladestation Endesa X", "addr:country": "ES", "socket:type2_combo": "2", "socket:type2_combo:output": "150.0 kW", "charging_station:output": "150.0 kW", "capacity": "2", "_source": "worldwide"}}, {"type": "node", "id": 13361819501, "lat": 40.975079, "lon": 0.51679, "tags": {"amenity": "charging_station", "addr:country": "ES", "_source": "worldwide"}}, {"type": "node", "id": 13370055565, "lat": 40.195561, "lon": 0.223956, "tags": {"amenity": "charging_station", "access": "yes", "fee": "yes", "opening_hours": "24/7", "operator": "Qwello", "name": "Ladestation Qwello", "addr:country": "ES", "socket:type2": "2", "socket:type2:output": "22.0 kW", "charging_station:output": "22.0 kW", "capacity": "2", "_source": "worldwide"}}, {"type": "node", "id": 13432568932, "lat": 40.198797, "lon": 0.228886, "tags": {"amenity": "charging_station", "operator": "Qwello", "name": "Ladestation Qwello", "addr:country": "ES", "socket:type2": "2", "socket:type2:output": "22 kW", "charging_station:output": "22 kW", "capacity": "2", "_source": "worldwide"}}, {"type": "node", "id": 13432591807, "lat": 40.219445, "lon": 0.200022, "tags": {"amenity": "charging_station", "operator": "Eranovum", "name": "Ladestation Eranovum", "addr:country": "ES", "socket:type2": "1", "socket:type2:output": "22 kW", "socket:type2_combo": "1", "socket:type2_combo:output": "30.0 kW", "charging_station:output": "30.0 kW", "capacity": "2", "_source": "worldwide"}}, {"type": "node", "id": 13522292470, "lat": 40.891043, "lon": 0.795908, "tags": {"amenity": "charging_station", "access": "customers", "opening_hours": "Mo-Sa 09:00-21:00", "operator": "Mercadona", "name": "Ladestation Mercadona", "addr:country": "ES", "capacity": "2", "_source": "worldwide"}}, {"type": "node", "id": 13522395932, "lat": 40.889327, "lon": 0.797567, "tags": {"amenity": "charging_station", "operator": "Lidl", "name": "Ladestation Lidl", "addr:country": "ES", "capacity": "2", "_source": "worldwide"}}, {"type": "node", "id": 13688794501, "lat": 40.984591, "lon": 0.895932, "tags": {"amenity": "charging_station", "addr:country": "ES", "_source": "worldwide"}}, {"type": "node", "id": 1278340168, "lat": 40.466919, "lon": 0.18286, "tags": {"amenity": "charging_station", "operator": "Iberdrola", "name": "Ladestation Iberdrola", "addr:country": "ES", "capacity": "4", "_source": "worldwide"}}]}