{"id": "36--95", "latMin": 36, "lonMin": -95, "latMax": 37, "lonMax": -94, "generated": "2026-04-16T18:39:07.376Z", "count": 7, "pois": [{"type": "node", "id": 4267513757, "lat": 36.352517, "lon": -94.171796, "tags": {"amenity": "charging_station", "brand": "EVgo", "operator": "EVgo", "name": "eVgo", "socket:chademo": "1", "socket:type1": "2", "socket:type1_combo": "1", "capacity": "4", "_source": "worldwide"}}, {"type": "node", "id": 4267523232, "lat": 36.379777, "lon": -94.177846, "tags": {"amenity": "charging_station", "opening_hours": "24/7", "name": "EV Charging Station", "socket:type1": "1", "capacity": "1", "_source": "worldwide"}}, {"type": "node", "id": 4267527802, "lat": 36.113022, "lon": -94.145292, "tags": {"amenity": "charging_station", "name": "EV Charging Station", "_source": "worldwide"}}, {"type": "node", "id": 9103413245, "lat": 36.25533, "lon": -94.15264, "tags": {"amenity": "charging_station", "fee": "yes", "access": "yes", "opening_hours": "24/7", "brand": "Tesla Supercharger", "network": "Supercharger", "operator": "Tesla, Inc.", "name": "Lowell Supercharger", "addr:street": "West Monroe Avenue", "addr:housenumber": "898", "addr:postcode": "72745", "addr:city": "Lowell", "addr:country": "US", "capacity": "8", "_source": "worldwide"}}, {"type": "node", "id": 11182285469, "lat": 36.362823, "lon": -94.204578, "tags": {"amenity": "charging_station", "fee": "no", "access": "yes", "brand": "ChargePoint", "operator": "ChargePoint", "name": "ChargePoint", "_source": "worldwide"}}, {"type": "node", "id": 11182285470, "lat": 36.078049, "lon": -94.211367, "tags": {"amenity": "charging_station", "fee": "yes", "access": "yes", "brand": "ChargePoint", "operator": "ChargePoint", "name": "ChargePoint", "_source": "worldwide"}}, {"type": "node", "id": 13610997121, "lat": 36.336095, "lon": -94.175365, "tags": {"amenity": "charging_station", "fee": "yes", "access": "yes", "opening_hours": "24/7", "brand": "Tesla Supercharger", "network": "Supercharger", "operator": "Tesla", "name": "Rogers. AR Supercharger", "addr:street": "West Walnut Street", "addr:housenumber": "4019", "addr:postcode": "72756", "addr:city": "Rogers", "addr:country": "US", "capacity": "8", "_source": "worldwide"}}]}