{"id": "-42-147", "latMin": -42, "lonMin": 147, "latMax": -41, "lonMax": 148, "generated": "2026-04-16T18:39:07.178Z", "count": 15, "pois": [{"type": "node", "id": 6510389778, "lat": -41.435815, "lon": 147.139557, "tags": {"amenity": "charging_station", "operator": "Chargefox", "name": "Chargefox", "socket:chademo": "1", "capacity": "3", "_source": "worldwide"}}, {"type": "node", "id": 7034602235, "lat": -41.468165, "lon": 147.158684, "tags": {"amenity": "charging_station", "network": "Chargefox", "operator": "Chargefox", "name": "Chargefox", "socket:chademo": "2", "capacity": "4", "_source": "worldwide"}}, {"type": "node", "id": 7070676761, "lat": -41.162162, "lon": 147.51461, "tags": {"amenity": "charging_station", "operator": "Dorset Council", "name": "Dorset Council", "_source": "worldwide"}}, {"type": "node", "id": 7125090552, "lat": -41.929345, "lon": 147.494527, "tags": {"amenity": "charging_station", "fee": "yes", "opening_hours": "24/7", "brand": "Evie Networks", "network": "Evie Networks", "operator": "Evie Networks", "name": "Evie Networks", "socket:chademo": "2", "capacity": "4", "_source": "worldwide"}}, {"type": "node", "id": 8340141563, "lat": -41.003588, "lon": 147.394742, "tags": {"amenity": "charging_station", "opening_hours": "Mo-Su 10:00-16:00", "name": "EV Charging Station", "capacity": "1", "_source": "worldwide"}}, {"type": "node", "id": 8660513415, "lat": -41.439917, "lon": 147.137655, "tags": {"amenity": "charging_station", "brand": "Tesla", "name": "Tesla Destination Charger", "_source": "worldwide"}}, {"type": "node", "id": 8660540033, "lat": -41.440315, "lon": 147.129041, "tags": {"amenity": "charging_station", "brand": "Tesla", "name": "Tesla Destination Charger", "_source": "worldwide"}}, {"type": "node", "id": 8896794603, "lat": -41.450155, "lon": 147.141991, "tags": {"amenity": "charging_station", "operator": "Chargefox", "name": "Chargefox", "socket:chademo": "1", "capacity": "2", "_source": "worldwide"}}, {"type": "node", "id": 9837441206, "lat": -41.638086, "lon": 147.968177, "tags": {"amenity": "charging_station", "fee": "yes", "access": "yes", "opening_hours": "24/7", "brand": "Electric Highway Tasmania", "network": "Chargefox", "operator": "Electric Highway Tasmania", "name": "Electric Highway Tasmania", "addr:street": "Talbot Street", "addr:postcode": "7214", "socket:chademo": "1", "capacity": "3", "_source": "worldwide"}}, {"type": "node", "id": 10203818135, "lat": -41.251906, "lon": 147.216622, "tags": {"amenity": "charging_station", "operator": "Chargefox", "name": "Chargefox", "capacity": "1", "_source": "worldwide"}}, {"type": "node", "id": 12284511268, "lat": -41.399258, "lon": 147.11952, "tags": {"amenity": "charging_station", "name": "EV Charging Station", "capacity": "1", "_source": "worldwide"}}, {"type": "node", "id": 12284511269, "lat": -41.399214, "lon": 147.119502, "tags": {"amenity": "charging_station", "name": "EV Charging Station", "capacity": "2", "_source": "worldwide"}}, {"type": "node", "id": 12284543777, "lat": -41.446362, "lon": 147.122885, "tags": {"amenity": "charging_station", "fee": "yes", "operator": "Chargefox", "name": "Chargefox", "capacity": "1", "_source": "worldwide"}}, {"type": "node", "id": 13266298941, "lat": -41.374565, "lon": 147.057296, "tags": {"amenity": "charging_station", "brand": "Evie Networks", "operator": "Evie Networks", "name": "Evie Networks", "capacity": "4", "_source": "worldwide"}}, {"type": "node", "id": 13640681973, "lat": -41.587403, "lon": 147.120187, "tags": {"amenity": "charging_station", "fee": "yes", "access": "yes", "name": "EnergyROI - Longford", "capacity": "4", "_source": "worldwide"}}]}