{"id": "32--81", "latMin": 32, "lonMin": -81, "latMax": 33, "lonMax": -80, "generated": "2026-04-16T18:39:07.283Z", "count": 15, "pois": [{"type": "node", "id": 3701043957, "lat": 32.874143, "lon": -80.017174, "tags": {"amenity": "charging_station", "brand": "ChargePoint", "operator": "ChargePoint", "name": "ChargePoint", "socket:type1": "8", "capacity": "8", "_source": "worldwide"}}, {"type": "node", "id": 9284373558, "lat": 32.792606, "lon": -80.029262, "tags": {"amenity": "charging_station", "fee": "yes", "access": "yes", "name": "AAA", "socket:chademo": "1", "socket:type1_combo": "1", "capacity": "2", "_source": "worldwide"}}, {"type": "node", "id": 11396730085, "lat": 32.151857, "lon": -80.760199, "tags": {"amenity": "charging_station", "fee": "yes", "access": "customers", "brand": "ChargePoint", "operator": "ChargePoint", "name": "ChargePoint", "_source": "worldwide"}}, {"type": "node", "id": 11421035305, "lat": 32.873136, "lon": -80.019369, "tags": {"amenity": "charging_station", "access": "customers", "name": "EV Charging Station", "_source": "worldwide"}}, {"type": "node", "id": 12757398580, "lat": 32.933099, "lon": -80.689371, "tags": {"amenity": "charging_station", "operator": "EV Connect", "name": "EV Connect", "_source": "worldwide"}}, {"type": "node", "id": 12757398581, "lat": 32.9333, "lon": -80.6925, "tags": {"amenity": "charging_station", "fee": "yes", "access": "yes", "opening_hours": "24/7", "brand": "Tesla Supercharger", "network": "Supercharger", "operator": "Tesla, Inc.", "name": "Walterboro Supercharger", "addr:street": "Bells Highway", "addr:housenumber": "2076", "addr:postcode": "29488", "addr:city": "Walterboro", "addr:country": "US", "capacity": "12", "_source": "worldwide"}}, {"type": "node", "id": 12944743353, "lat": 32.21475, "lon": -80.70341, "tags": {"amenity": "charging_station", "fee": "yes", "access": "yes", "opening_hours": "24/7", "brand": "Tesla Supercharger", "network": "Supercharger", "operator": "Tesla, Inc.", "name": "Tesla Supercharger", "addr:street": "William Hilton Parkway", "addr:housenumber": "430", "addr:postcode": "29926", "addr:city": "Hilton Head Island", "addr:country": "US", "capacity": "8", "_source": "worldwide"}}, {"type": "node", "id": 12944743727, "lat": 32.25582, "lon": -80.85124, "tags": {"amenity": "charging_station", "fee": "yes", "access": "yes", "opening_hours": "24/7", "brand": "Tesla Supercharger", "network": "Supercharger", "operator": "Tesla, Inc.", "name": "Tesla Supercharger", "addr:street": "Fording Island Road", "addr:housenumber": "1050", "addr:postcode": "29910", "addr:city": "Bluffton", "addr:country": "US", "capacity": "12", "_source": "worldwide"}}, {"type": "node", "id": 12944743826, "lat": 32.48547, "lon": -80.97788, "tags": {"amenity": "charging_station", "fee": "yes", "access": "yes", "opening_hours": "24/7", "brand": "Tesla Supercharger", "network": "Supercharger", "operator": "Tesla, Inc.", "name": "Tesla Supercharger", "addr:street": "North Jacob Smart Boulevard", "addr:housenumber": "11142", "addr:postcode": "29936", "addr:city": "Ridgeland", "addr:country": "US", "capacity": "8", "_source": "worldwide"}}, {"type": "node", "id": 12944743839, "lat": 32.79824, "lon": -80.02917, "tags": {"amenity": "charging_station", "fee": "yes", "access": "yes", "opening_hours": "24/7", "brand": "Tesla Supercharger", "network": "Supercharger", "operator": "Tesla", "name": "Tesla Supercharger", "addr:street": "Sam Rittenberg Boulevard", "addr:housenumber": "2070", "addr:postcode": "29407", "addr:city": "Charleston", "addr:country": "US", "capacity": "12", "_source": "worldwide"}}, {"type": "node", "id": 12944744059, "lat": 32.63423, "lon": -80.87518, "tags": {"amenity": "charging_station", "fee": "yes", "access": "yes", "opening_hours": "24/7", "brand": "Tesla Supercharger", "network": "Supercharger", "operator": "Tesla, Inc.", "name": "Yemassee Supercharger", "addr:street": "US-17", "addr:housenumber": "810", "addr:postcode": "29945", "addr:city": "Yemassee", "addr:country": "US", "capacity": "8", "_source": "worldwide"}}, {"type": "node", "id": 12944744143, "lat": 32.15369, "lon": -80.76793, "tags": {"amenity": "charging_station", "fee": "yes", "access": "yes", "opening_hours": "24/7", "brand": "Tesla Supercharger", "network": "Supercharger", "operator": "Tesla, Inc.", "name": "Tesla Supercharger", "addr:street": "Office Park Road", "addr:housenumber": "33", "addr:postcode": "29928", "addr:city": "Hilton Head Island", "addr:country": "US", "capacity": "8", "_source": "worldwide"}}, {"type": "node", "id": 12944744251, "lat": 32.87263, "lon": -80.01554, "tags": {"amenity": "charging_station", "fee": "yes", "access": "yes", "opening_hours": "24/7", "brand": "Tesla Supercharger", "network": "Supercharger", "operator": "Tesla, Inc.", "name": "North Charleston Supercharger", "addr:street": "Tanger Outlet Boulevard", "addr:housenumber": "4855", "addr:postcode": "29418", "addr:city": "North Charleston", "addr:country": "US", "capacity": "8", "_source": "worldwide"}}, {"type": "node", "id": 12998167719, "lat": 32.95669, "lon": -80.04525, "tags": {"amenity": "charging_station", "opening_hours": "24/7", "network": "ZEFNET", "name": "EV Charging Station", "addr:street": "Rivers Avenue", "addr:housenumber": "8199", "addr:postcode": "29406", "addr:city": "North Charleston", "addr:country": "US", "socket:type1_combo": "2", "capacity": "2", "_source": "worldwide"}}, {"type": "node", "id": 13271125048, "lat": 32.479218, "lon": -80.974262, "tags": {"amenity": "charging_station", "fee": "yes", "access": "yes", "opening_hours": "24/7", "brand": "Tesla Supercharger", "network": "Supercharger", "operator": "Tesla", "name": "Tesla Supercharger", "_source": "worldwide"}}]}