{"id": "40-29", "latMin": 40, "lonMin": 29, "latMax": 41, "lonMax": 30, "generated": "2026-04-16T18:39:07.815Z", "count": 63, "pois": [{"type": "node", "id": 5724400299, "lat": 40.197143, "lon": 29.059863, "tags": {"amenity": "charging_station", "fee": "yes", "opening_hours": "10:00-22:00", "operator": "VOLTRUN", "name": "Kent Meydanı AVM Voltrun Şarj İstasyonu", "capacity": "1", "_source": "worldwide"}}, {"type": "node", "id": 5724401021, "lat": 40.957016, "lon": 29.081566, "tags": {"amenity": "charging_station", "fee": "yes", "opening_hours": "24/7", "operator": "VOLTRUN", "name": "Teknik Yapı Suadiye Sahil", "capacity": "2", "_source": "worldwide"}}, {"type": "node", "id": 5724401022, "lat": 40.978918, "lon": 29.120177, "tags": {"amenity": "charging_station", "fee": "yes", "opening_hours": "Mo-Fr 07:00-22:00; Sa 07:00-17:00", "operator": "VOLTRUN", "name": "Garaj Oto", "capacity": "1", "_source": "worldwide"}}, {"type": "node", "id": 5724401025, "lat": 40.866163, "lon": 29.396123, "tags": {"amenity": "charging_station", "fee": "yes", "opening_hours": "Mo-Fr 08:00-17:00", "operator": "VOLTRUN", "name": "Doğuş Oto Şekerpınar", "capacity": "1", "_source": "worldwide"}}, {"type": "node", "id": 6428835364, "lat": 40.865806, "lon": 29.275292, "tags": {"amenity": "charging_station", "operator": "Eşarj", "name": "Pendorya Alışveriş Merkezi", "capacity": "2", "_source": "worldwide"}}, {"type": "node", "id": 6428835365, "lat": 40.917419, "lon": 29.178312, "tags": {"amenity": "charging_station", "operator": "Eşarj", "name": "Asf Otomotiv", "capacity": "1", "_source": "worldwide"}}, {"type": "node", "id": 6428844105, "lat": 40.919465, "lon": 29.164548, "tags": {"amenity": "charging_station", "operator": "Eşarj", "name": "Maltepe Park Avm", "capacity": "2", "_source": "worldwide"}}, {"type": "node", "id": 6687160185, "lat": 40.691136, "lon": 29.434296, "tags": {"amenity": "charging_station", "name": "EV Charging Station", "_source": "worldwide"}}, {"type": "node", "id": 7077951368, "lat": 40.990142, "lon": 29.175971, "tags": {"amenity": "charging_station", "fee": "yes", "opening_hours": "24/7", "operator": "SHARZ", "name": "SHARZ Ferhatpaşa Lukoil", "addr:street": "Ataşehir Ferhat Paşa, 52. Sk., 34779 Ataşehir/İstanbul", "addr:city": "İstanbul", "capacity": "1", "_source": "worldwide"}}, {"type": "node", "id": 7077951371, "lat": 40.790341, "lon": 29.447585, "tags": {"amenity": "charging_station", "fee": "yes", "opening_hours": "24/7", "operator": "SHARZ", "name": "SHARZ Bilisim Vadisi", "addr:street": "Muallimköy Teknoloji Geliştirme Bölgesi Muallim Mah. Deniz Cad.", "addr:city": "GEBZE", "capacity": "1", "_source": "worldwide"}}, {"type": "node", "id": 7077951372, "lat": 40.790306, "lon": 29.462906, "tags": {"amenity": "charging_station", "fee": "yes", "opening_hours": "24/7", "operator": "SHARZ", "name": "SHARZ Gebze Tubitak Martek", "addr:street": "Tübitak Gebze Yerleşkesi", "addr:city": "Gebze", "capacity": "2", "_source": "worldwide"}}, {"type": "node", "id": 7077989390, "lat": 40.11351, "lon": 29.452914, "tags": {"amenity": "charging_station", "fee": "yes", "opening_hours": "24/7", "operator": "SHARZ", "name": "SHARZ İmotiv Mobilya Avm", "addr:street": "Yeniceköy, Bursa Karayolu 4.km, 16400 İnegöl/Bursa", "addr:city": "İNEGÖL", "capacity": "1", "_source": "worldwide"}}, {"type": "node", "id": 7077989418, "lat": 40.997737, "lon": 29.099472, "tags": {"amenity": "charging_station", "fee": "yes", "opening_hours": "24/7", "operator": "SHARZ", "name": "SHARZ Watergarden AVM", "addr:street": "Barbaros Mahallesi, 34746, Ataşehir/İstanbul", "addr:city": "İstanbul", "capacity": "1", "_source": "worldwide"}}, {"type": "node", "id": 7077989426, "lat": 40.227487, "lon": 29.060419, "tags": {"amenity": "charging_station", "fee": "yes", "opening_hours": "24/7", "operator": "SHARZ", "name": "SHARZ Özdilek Park Bursa AVM", "addr:street": "Soğanlı Mahallesi, Unnamed Road, 16190 Osmangazi/Bursa", "addr:city": "OSMANGAZİ", "capacity": "1", "_source": "worldwide"}}, {"type": "node", "id": 7077989461, "lat": 40.894355, "lon": 29.259436, "tags": {"amenity": "charging_station", "fee": "yes", "opening_hours": "24/7", "operator": "Sharz", "name": "SHARZ Babaeski Petrol 1", "addr:street": "Hukukçular Caddesi", "addr:postcode": "34896", "addr:city": "İstanbul", "capacity": "1", "_source": "worldwide"}}, {"type": "node", "id": 8638172187, "lat": 40.642581, "lon": 29.258896, "tags": {"amenity": "charging_station", "fee": "yes", "opening_hours": "24/7", "operator": "ZES", "name": "ZES - Yalova Atakent Hastanesi", "capacity": "1", "_source": "worldwide"}}, {"type": "node", "id": 8638172188, "lat": 40.658992, "lon": 29.300184, "tags": {"amenity": "charging_station", "fee": "yes", "opening_hours": "24/7", "operator": "SHARZ", "name": "SHARZ - NCC Petrol", "capacity": "1", "_source": "worldwide"}}, {"type": "node", "id": 8638284463, "lat": 40.79218, "lon": 29.511319, "tags": {"amenity": "charging_station", "fee": "yes", "opening_hours": "24/7", "operator": "ZES", "name": "ZES - Bilişim Vadisi", "capacity": "2", "_source": "worldwide"}}, {"type": "node", "id": 8638284513, "lat": 40.797238, "lon": 29.430352, "tags": {"amenity": "charging_station", "fee": "yes", "opening_hours": "24/7", "operator": "SHARZ", "name": "SHARZ - Gebze Katlı Otopark", "capacity": "1", "_source": "worldwide"}}, {"type": "node", "id": 8638284530, "lat": 40.787001, "lon": 29.416992, "tags": {"amenity": "charging_station", "fee": "yes", "opening_hours": "24/7", "operator": "EŞARJ", "name": "EŞARJ - ASF Otomotiv Gebze", "capacity": "1", "_source": "worldwide"}}, {"type": "node", "id": 9126625838, "lat": 40.902033, "lon": 29.228643, "tags": {"amenity": "charging_station", "name": "Tekerlekli Sandalye Şarj istasyonu", "_source": "worldwide"}}, {"type": "node", "id": 9444480205, "lat": 40.869487, "lon": 29.395608, "tags": {"amenity": "charging_station", "brand": "Tesla Supercharger", "operator": "Tesla, Inc.", "name": "Tesla Supercharger", "_source": "worldwide"}}, {"type": "node", "id": 9590802302, "lat": 40.77243, "lon": 29.968429, "tags": {"amenity": "charging_station", "fee": "yes", "access": "customers", "operator": "BMW", "name": "BMW", "_source": "worldwide"}}, {"type": "node", "id": 10788173103, "lat": 40.801146, "lon": 29.439484, "tags": {"amenity": "charging_station", "brand": "Akülü Sandalye Şarj İstasyonu", "name": "Akülü Sandalye Şarj İstasyonu", "_source": "worldwide"}}, {"type": "node", "id": 10826917411, "lat": 40.927418, "lon": 29.438856, "tags": {"amenity": "charging_station", "name": "Togg Trugo", "_source": "worldwide"}}, {"type": "node", "id": 10826917412, "lat": 40.929877, "lon": 29.436502, "tags": {"amenity": "charging_station", "name": "Togg Trugo", "_source": "worldwide"}}, {"type": "node", "id": 10826917609, "lat": 40.378132, "lon": 29.076293, "tags": {"amenity": "charging_station", "name": "Togg Trugo", "_source": "worldwide"}}, {"type": "node", "id": 10826917610, "lat": 40.396111, "lon": 29.082833, "tags": {"amenity": "charging_station", "name": "Togg Trugo", "_source": "worldwide"}}, {"type": "node", "id": 10826917611, "lat": 40.956467, "lon": 29.080356, "tags": {"amenity": "charging_station", "name": "Togg Trugo", "_source": "worldwide"}}, {"type": "node", "id": 10826924905, "lat": 40.791176, "lon": 29.512116, "tags": {"amenity": "charging_station", "name": "Togg Trugo", "_source": "worldwide"}}, {"type": "node", "id": 10832200275, "lat": 40.774472, "lon": 29.87404, "tags": {"amenity": "charging_station", "name": "En Yakıt Elektrikli Şarj İstasyonu", "_source": "worldwide"}}, {"type": "node", "id": 10875876717, "lat": 40.19292, "lon": 29.078637, "tags": {"amenity": "charging_station", "access": "yes", "brand": "TOGG", "name": "TOGG", "_source": "worldwide"}}, {"type": "node", "id": 11256480889, "lat": 40.894493, "lon": 29.512371, "tags": {"amenity": "charging_station", "name": "EV Charging Station", "_source": "worldwide"}}, {"type": "node", "id": 11256482939, "lat": 40.894186, "lon": 29.512438, "tags": {"amenity": "charging_station", "name": "EV Charging Station", "_source": "worldwide"}}, {"type": "node", "id": 11281077269, "lat": 40.255386, "lon": 29.061159, "tags": {"amenity": "charging_station", "operator": "Astor Enerji", "name": "Astorşarj", "_source": "worldwide"}}, {"type": "node", "id": 11309204729, "lat": 40.950466, "lon": 29.391887, "tags": {"amenity": "charging_station", "name": "Solarşarj", "_source": "worldwide"}}, {"type": "node", "id": 12567095636, "lat": 40.390163, "lon": 29.140229, "tags": {"amenity": "charging_station", "brand": "ChargePoint", "operator": "ChargePoint", "name": "ChargePoint", "_source": "worldwide"}}, {"type": "node", "id": 12568201512, "lat": 40.389494, "lon": 29.141535, "tags": {"amenity": "charging_station", "fee": "yes", "access": "yes", "opening_hours": "24/7", "brand": "Tesla Supercharger", "operator": "Tesla", "name": "Gemlik Istanbul Bound Supercharger", "capacity": "8", "_source": "worldwide"}}, {"type": "node", "id": 12754215984, "lat": 40.986034, "lon": 29.100193, "tags": {"amenity": "charging_station", "name": "EV Charging Station", "_source": "worldwide"}}, {"type": "node", "id": 12754215985, "lat": 40.994049, "lon": 29.121972, "tags": {"amenity": "charging_station", "name": "EV Charging Station", "_source": "worldwide"}}, {"type": "node", "id": 12811000869, "lat": 40.998798, "lon": 29.15491, "tags": {"amenity": "charging_station", "name": "EV Charging Station", "_source": "worldwide"}}, {"type": "node", "id": 12830416902, "lat": 40.391121, "lon": 29.142118, "tags": {"amenity": "charging_station", "name": "EV Charging Station", "_source": "worldwide"}}, {"type": "node", "id": 12836031051, "lat": 40.990381, "lon": 29.141903, "tags": {"amenity": "charging_station", "name": "EV Charging Station", "_source": "worldwide"}}, {"type": "node", "id": 12836031052, "lat": 40.99026, "lon": 29.14289, "tags": {"amenity": "charging_station", "name": "EV Charging Station", "_source": "worldwide"}}, {"type": "node", "id": 12870979530, "lat": 40.70294, "lon": 29.886571, "tags": {"amenity": "charging_station", "fee": "yes", "access": "permissive", "name": "EV Charging Station", "_source": "worldwide"}}, {"type": "node", "id": 12881054939, "lat": 40.389051, "lon": 29.139764, "tags": {"amenity": "charging_station", "fee": "yes", "access": "yes", "opening_hours": "24/7", "brand": "Tesla Supercharger", "operator": "Tesla", "name": "Gemlik Izmir Bound Supercharger", "capacity": "8", "_source": "worldwide"}}, {"type": "node", "id": 13002249394, "lat": 40.722706, "lon": 29.947288, "tags": {"amenity": "charging_station", "name": "EV Charging Station", "_source": "worldwide"}}, {"type": "node", "id": 13461892232, "lat": 40.988128, "lon": 29.195444, "tags": {"amenity": "charging_station", "fee": "yes", "access": "yes", "opening_hours": "24/7", "brand": "Tesla Supercharger", "operator": "Tesla", "name": "İstanbul North Supercharger", "capacity": "8", "_source": "worldwide"}}, {"type": "node", "id": 13537340902, "lat": 40.89159, "lon": 29.263033, "tags": {"amenity": "charging_station", "fee": "yes", "access": "yes", "brand": "EŞarj", "name": "Eşarj", "_source": "worldwide"}}, {"type": "node", "id": 13537340903, "lat": 40.891039, "lon": 29.262761, "tags": {"amenity": "charging_station", "fee": "yes", "access": "yes", "brand": "Otopriz", "name": "Otopriz", "_source": "worldwide"}}, {"type": "node", "id": 13537353256, "lat": 40.875227, "lon": 29.254541, "tags": {"amenity": "charging_station", "fee": "yes", "access": "yes", "brand": "Trugo", "name": "Trugo", "_source": "worldwide"}}, {"type": "node", "id": 13537357941, "lat": 40.880755, "lon": 29.254879, "tags": {"amenity": "charging_station", "fee": "yes", "access": "yes", "brand": "Trugo", "name": "Trugo", "_source": "worldwide"}}, {"type": "node", "id": 13537357955, "lat": 40.88317, "lon": 29.245433, "tags": {"amenity": "charging_station", "fee": "yes", "access": "yes", "brand": "Checkpoint", "name": "Checkpoint", "_source": "worldwide"}}, {"type": "node", "id": 13556776229, "lat": 40.754968, "lon": 29.947023, "tags": {"amenity": "charging_station", "fee": "yes", "access": "yes", "opening_hours": "24/7", "brand": "Tesla Supercharger", "operator": "Tesla", "name": "İzmit Supercharger", "capacity": "8", "_source": "worldwide"}}, {"type": "node", "id": 13584556130, "lat": 40.897016, "lon": 29.253743, "tags": {"amenity": "charging_station", "fee": "yes", "access": "yes", "brand": "Zes", "operator": "ZES", "name": "Zes", "_source": "worldwide"}}, {"type": "node", "id": 13584556140, "lat": 40.885036, "lon": 29.235729, "tags": {"amenity": "charging_station", "fee": "yes", "access": "yes", "brand": "Rst ChargePoint", "name": "Rst ChargePoint", "_source": "worldwide"}}, {"type": "node", "id": 13584607722, "lat": 40.870712, "lon": 29.232208, "tags": {"amenity": "charging_station", "fee": "yes", "access": "customers", "brand": "Sharz", "operator": "Sharz", "name": "Sharz", "capacity": "1", "_source": "worldwide"}}, {"type": "node", "id": 13584612675, "lat": 40.879865, "lon": 29.229667, "tags": {"amenity": "charging_station", "fee": "yes", "access": "yes", "opening_hours": "24/7", "brand": "U-Şarj", "operator": "U-Şarj", "name": "U-Şarj", "capacity": "4", "_source": "worldwide"}}, {"type": "node", "id": 13584612698, "lat": 40.879253, "lon": 29.220278, "tags": {"amenity": "charging_station", "fee": "yes", "access": "yes", "opening_hours": "24/7", "brand": "Rst ChargePoint", "operator": "Rst ChargePoint", "name": "Rst ChargePoint", "capacity": "2", "_source": "worldwide"}}, {"type": "node", "id": 13584622686, "lat": 40.870766, "lon": 29.232165, "tags": {"amenity": "charging_station", "fee": "yes", "access": "customers", "brand": "Trugo", "operator": "Trugo", "name": "Trugo", "_source": "worldwide"}}, {"type": "node", "id": 13670897177, "lat": 40.107926, "lon": 29.1423, "tags": {"amenity": "charging_station", "name": "EV Charging Station", "_source": "worldwide"}}, {"type": "node", "id": 13670897178, "lat": 40.107938, "lon": 29.142238, "tags": {"amenity": "charging_station", "name": "EV Charging Station", "_source": "worldwide"}}, {"type": "node", "id": 13673919608, "lat": 40.894296, "lon": 29.227507, "tags": {"amenity": "charging_station", "access": "yes", "name": "EV Charging Station", "_source": "worldwide"}}]}