{"id": "35-33", "latMin": 35, "lonMin": 33, "latMax": 36, "lonMax": 34, "generated": "2026-04-16T18:39:07.350Z", "count": 25, "pois": [{"type": "node", "id": 1164922606, "lat": 35.065234, "lon": 33.387585, "tags": {"amenity": "charging_station", "name": "EV Charging Station", "_source": "worldwide"}}, {"type": "node", "id": 9893770006, "lat": 35.18596, "lon": 33.350454, "tags": {"amenity": "charging_station", "name": "EV Charging Station", "_source": "worldwide"}}, {"type": "node", "id": 10278969254, "lat": 35.002789, "lon": 33.393304, "tags": {"amenity": "charging_station", "opening_hours": "24/7", "operator": "EAC", "name": "Alambra Bus Station", "_source": "worldwide"}}, {"type": "node", "id": 10278969256, "lat": 35.139258, "lon": 33.335275, "tags": {"amenity": "charging_station", "opening_hours": "24/7", "operator": "EAC", "name": "Public Works Department", "_source": "worldwide"}}, {"type": "node", "id": 10278969257, "lat": 35.127697, "lon": 33.374962, "tags": {"amenity": "charging_station", "opening_hours": "24/7", "operator": "EAC", "name": "Nicosia General Hospital", "_source": "worldwide"}}, {"type": "node", "id": 10278969263, "lat": 35.040084, "lon": 33.983864, "tags": {"amenity": "charging_station", "opening_hours": "24/7", "operator": "EAC", "name": "Paralimni Amphitheatre", "_source": "worldwide"}}, {"type": "node", "id": 10278969270, "lat": 35.107448, "lon": 33.378068, "tags": {"amenity": "charging_station", "opening_hours": "24/7", "operator": "EAC", "name": "Latsia Municipality Bldg", "_source": "worldwide"}}, {"type": "node", "id": 10278969271, "lat": 35.138809, "lon": 33.373362, "tags": {"amenity": "charging_station", "opening_hours": "24/7", "operator": "Electricity Authority of Cyprus", "name": "EAC Head Office", "_source": "worldwide"}}, {"type": "node", "id": 10278969272, "lat": 35.148033, "lon": 33.316216, "tags": {"amenity": "charging_station", "opening_hours": "24/7", "operator": "EAC", "name": "Lefkotheou - Papakyriakou Junction", "_source": "worldwide"}}, {"type": "node", "id": 10278969273, "lat": 35.148981, "lon": 33.389477, "tags": {"amenity": "charging_station", "opening_hours": "24/7", "operator": "EAC", "name": "Kyrinias-Mpoumpoulinas Junction", "_source": "worldwide"}}, {"type": "node", "id": 10278969274, "lat": 35.164367, "lon": 33.362053, "tags": {"amenity": "charging_station", "opening_hours": "24/7", "operator": "EAC", "name": "EAC Nicosia Area Office", "_source": "worldwide"}}, {"type": "node", "id": 10278969275, "lat": 35.140763, "lon": 33.337463, "tags": {"amenity": "charging_station", "opening_hours": "24/7", "operator": "Electricity Authority of Cyprus", "name": "Stovolou - Kantaras Junction", "_source": "worldwide"}}, {"type": "node", "id": 10861764440, "lat": 35.123275, "lon": 33.373619, "tags": {"amenity": "charging_station", "fee": "no", "name": "EV Charging Station", "_source": "worldwide"}}, {"type": "node", "id": 10996686390, "lat": 35.13526, "lon": 33.28043, "tags": {"amenity": "charging_station", "fee": "no", "access": "yes", "brand": "EV Power - Nicosia Mall", "operator": "Nicosia Mall", "name": "EV Power - Nicosia Mall", "_source": "worldwide"}}, {"type": "node", "id": 11225403114, "lat": 35.127635, "lon": 33.321106, "tags": {"amenity": "charging_station", "brand": "Joltie", "name": "Joltie", "_source": "worldwide"}}, {"type": "node", "id": 11225403115, "lat": 35.122986, "lon": 33.377142, "tags": {"amenity": "charging_station", "brand": "Joltie", "name": "Joltie", "_source": "worldwide"}}, {"type": "node", "id": 11225403116, "lat": 35.151081, "lon": 33.339924, "tags": {"amenity": "charging_station", "brand": "Joltie", "name": "Joltie", "_source": "worldwide"}}, {"type": "node", "id": 11225403117, "lat": 35.151998, "lon": 33.339013, "tags": {"amenity": "charging_station", "brand": "Joltie", "name": "Joltie", "_source": "worldwide"}}, {"type": "node", "id": 11428713169, "lat": 35.159742, "lon": 33.339049, "tags": {"amenity": "charging_station", "operator": "EUNICE", "name": "Joltie", "_source": "worldwide"}}, {"type": "node", "id": 12004438693, "lat": 35.330674, "lon": 33.297205, "tags": {"amenity": "charging_station", "brand": "Zes", "name": "Zes", "_source": "worldwide"}}, {"type": "node", "id": 12004691854, "lat": 35.330572, "lon": 33.296464, "tags": {"amenity": "charging_station", "brand": "Zes", "name": "Zes", "_source": "worldwide"}}, {"type": "node", "id": 12203470885, "lat": 35.332612, "lon": 33.333497, "tags": {"amenity": "charging_station", "brand": "Zes", "name": "Zes", "_source": "worldwide"}}, {"type": "node", "id": 13164727283, "lat": 35.000043, "lon": 33.758804, "tags": {"amenity": "charging_station", "fee": "yes", "brand": "Lidl", "operator": "Lidl", "name": "Lidl", "_source": "worldwide"}}, {"type": "node", "id": 13173470588, "lat": 35.049293, "lon": 33.976438, "tags": {"amenity": "charging_station", "fee": "yes", "operator": "Lidl", "name": "Lidl", "_source": "worldwide"}}, {"type": "node", "id": 13283889583, "lat": 35.14814, "lon": 33.321211, "tags": {"amenity": "charging_station", "brand": "pcharge", "name": "pcharge", "_source": "worldwide"}}]}