{"id": "35-42", "latMin": 35, "lonMin": 42, "latMax": 36, "lonMax": 43, "generated": "2026-04-16T18:39:07.353Z", "count": 72, "pois": [{"type": "node", "id": 4732885621, "lat": 35.0451793, "lon": 42.2299646, "tags": {"man_made": "water_well"}}, {"type": "node", "id": 4656253303, "lat": 35.6509218, "lon": 42.0807897, "tags": {"tourism": "hostel"}}, {"type": "node", "id": 2485279117, "lat": 35.3, "lon": 42.4, "tags": {"alt_name": "عين طرفاوي", "int_name": "Ayn Ţarfāwī, Tarafawi, Ayn Tarfawi, Tarafawi", "name": "عين طرفاوي", "name:ar": "عين طرفاوي", "name:ar1": "عين طرفاوي", "name:de": "Ayn Tarfawi", "name:en": "Ayn Tarfawi", "name:fr": "Ayn Tarfawi", "natural": "spring", "place": "locality"}}, {"type": "node", "id": 4816631023, "lat": 35.5730126, "lon": 42.7227751, "tags": {"historic": "castle"}}, {"type": "node", "id": 10729396710, "lat": 35.5876146, "lon": 42.7163217, "tags": {"name:en": "Temple of the triad", "tourism": "information"}}, {"type": "node", "id": 2488245763, "lat": 35.585556, "lon": 42.7175, "tags": {"alt_name": "معبد الحضر", "historic": "archaeological_site", "int_name": "Al Ḩaḑar, Mabad al Ḩaḑar, Mabad al Ḩaḑr, Temple of Hatra, Temple of Haţra, Al Hadar, Mabad al Hadar, Mabad al Hadr, Temple of Hatra, Temple of Hatra", "name": "معبد الحضر", "name:ar": "معبد الحضر", "name:ar1": "معبد الحضر", "name:de": "Al Hadar", "name:en": "Al Hadar", "name:fr": "Al Hadar"}}, {"type": "node", "id": 2488245949, "lat": 35.5883189, "lon": 42.7177273, "tags": {"alt_name": "آثار الحضر", "historic": "archaeological_site", "int_name": "Āthār al Ḩaḑar, Athar al Hadar", "name": "آثار الحضر", "name:ar": "آثار الحضر", "name:ar1": "آثار الحضر", "name:de": "Athar al Hadar", "name:en": "Athar al Hadar", "name:fr": "Athar al Hadar"}}, {"type": "node", "id": 10548437627, "lat": 35.587767, "lon": 42.7176145, "tags": {"addr:country": "IQ", "addr:state": "محافظة نينوى", "ele": "0", "historic": "archaeological_site", "historic:civilization": "فرثي,ساساني", "name": "مدينة الحضر", "ref": "35/3"}}, {"type": "node", "id": 10729396707, "lat": 35.5891292, "lon": 42.7174963, "tags": {"name:en": "Temple of Allat", "tourism": "information"}}, {"type": "node", "id": 10729396711, "lat": 35.5877346, "lon": 42.7165468, "tags": {"name:en": "Cavea", "tourism": "information"}}, {"type": "node", "id": 10729396712, "lat": 35.5884835, "lon": 42.7168442, "tags": {"name:en": "Temple of Shahiru", "tourism": "information"}}, {"type": "node", "id": 10729396713, "lat": 35.5880845, "lon": 42.7169353, "tags": {"name:en": "Temple of Samya", "tourism": "information"}}, {"type": "node", "id": 10729396714, "lat": 35.5877836, "lon": 42.7207441, "tags": {"amenity": "parking"}}, {"type": "node", "id": 10729396805, "lat": 35.5885731, "lon": 42.7173982, "tags": {"name:en": "Temple of Maran", "tourism": "information"}}, {"type": "node", "id": 10729396905, "lat": 35.5872041, "lon": 42.7190045, "tags": {"name:en": "SBAH office", "tourism": "information"}}, {"type": "node", "id": 10729396906, "lat": 35.5870727, "lon": 42.7166937, "tags": {"name:en": "Communal bath", "tourism": "attraction"}}, {"type": "node", "id": 10729396907, "lat": 35.5885184, "lon": 42.7164865, "tags": {"name:en": "Great Iwans complex", "tourism": "information"}}, {"type": "node", "id": 10729397005, "lat": 35.5873846, "lon": 42.7170112, "tags": {"name:en": "Ablution temple", "tourism": "information"}}, {"type": "node", "id": 5142636723, "lat": 35.576313, "lon": 42.7308373, "tags": {"name": "الحضر", "name:en": "Hatra", "tourism": "viewpoint"}}, {"type": "node", "id": 11118680136, "lat": 35.5788513, "lon": 42.7326512, "tags": {"addr:full": "الموصل", "name": "فندق الحضر", "operator": "عام", "tourism": "hotel"}}, {"type": "node", "id": 5289230221, "lat": 35.5765983, "lon": 42.7404668, "tags": {"historic": "memorial"}}, {"type": "node", "id": 2488245983, "lat": 35.6080456, "lon": 42.7331065, "tags": {"alt_name": "فندق الحضر الدولي", "int_name": "Funduq al Ḩaḑar ad Duwalī, Funduq al Hadar ad Duwali", "name": "فندق الحضر الدولي", "name:ar": "فندق الحضر الدولي", "name:ar1": "فندق الحضر الدولي", "name:de": "Funduq al Hadar ad Duwali", "name:en": "Funduq al Hadar ad Duwali", "name:fr": "Funduq al Hadar ad Duwali", "tourism": "hotel"}}, {"type": "node", "id": 2488246278, "lat": 35.6078882, "lon": 42.7326463, "tags": {"alt_name": "فندق الحضر الدولى", "int_name": "فندق الحضر الدولى, فندق الحضر الدولى", "name": "فندق الحضر الدولى", "name:ar": "فندق الحضر الدولى", "name:ar1": "فندق الحضر الدولى", "name:de": "فندق الحضر الدولى", "name:en": "فندق الحضر الدولى", "name:fr": "فندق الحضر الدولى", "tourism": "hotel"}}, {"type": "node", "id": 4592348511, "lat": 35.4872065, "lon": 42.8670876, "tags": {"man_made": "water_well"}}, {"type": "node", "id": 2488317374, "lat": 35.555556, "lon": 42.784167, "tags": {"alt_name": "عين أم الكيل", "int_name": "Ayn Umm al Kayl, Ayn Umm al Kayl", "name": "عين أم الكيل", "name:ar": "عين أم الكيل", "name:ar1": "عين أم الكيل", "name:de": "Ayn Umm al Kayl", "name:en": "Ayn Umm al Kayl", "name:fr": "Ayn Umm al Kayl", "natural": "spring"}}, {"type": "node", "id": 2488228548, "lat": 35.535627, "lon": 42.923356, "tags": {"alt_name": "ضريح بندر باشا", "historic": "memorial", "int_name": "Ḑarīḩ Bandar Bāshā, ضريح بندر باشا, Darih Bandar Basha, ضريح بندر باشا", "name": "ضريح بندر باشا", "name:ar": "ضريح بندر باشا", "name:ar1": "ضريح بندر باشا", "name:de": "Darih Bandar Basha", "name:en": "Darih Bandar Basha", "name:fr": "Darih Bandar Basha", "place": "locality"}}, {"type": "node", "id": 2488228546, "lat": 35.539935, "lon": 42.98577, "tags": {"alt_name": "عين صديد", "int_name": "Ayn Şadīd, عين صديد, Ayn Sadid, عين صديد", "name": "عين صديد", "name:ar": "عين صديد", "name:ar1": "عين صديد", "name:de": "Ayn Sadid", "name:en": "Ayn Sadid", "name:fr": "Ayn Sadid", "natural": "spring"}}, {"type": "node", "id": 10548437688, "lat": 35.5952682, "lon": 42.8686066, "tags": {"addr:country": "IQ", "addr:state": "محافظة نينوى", "ele": "0", "historic": "archaeological_site", "name": "تل تركي"}}, {"type": "node", "id": 4361938889, "lat": 35.6568262, "lon": 42.9603703, "tags": {"historic": "memorial", "name": "مفرق الحضر", "name:ar": "مفرق الحضر", "tourism": "viewpoint"}}, {"type": "node", "id": 6168689986, "lat": 35.8160068, "lon": 42.304415, "tags": {"man_made": "water_well"}}, {"type": "node", "id": 6168690285, "lat": 35.8191808, "lon": 42.3030901, "tags": {"man_made": "water_well"}}, {"type": "node", "id": 4779498823, "lat": 35.9095715, "lon": 42.1849375, "tags": {"amenity": "hospital", "name": "المركز الصحي في ثري الكراح", "name:ar": "المركز الصحي في ثري الكراح"}}, {"type": "node", "id": 9733274617, "lat": 35.9877379, "lon": 42.1941415, "tags": {"internet_access": "wlan", "name": "قرية محمد الهرس", "name:en": "Mohammed village", "tourism": "guest_house"}}, {"type": "node", "id": 9733277917, "lat": 35.9877397, "lon": 42.1939511, "tags": {"internet_access": "wlan", "name": "قرية محمد الهرس", "tourism": "guest_house"}}, {"type": "node", "id": 4893550528, "lat": 35.7990231, "lon": 42.4129402, "tags": {"name": "ح١٦", "name:ar": "ح١٦", "tourism": "camp_site"}}, {"type": "node", "id": 4893550527, "lat": 35.805562, "lon": 42.4122888, "tags": {"name": "ح١٥", "name:ar": "ح١٥", "tourism": "camp_site"}}, {"type": "node", "id": 4893550525, "lat": 35.8112597, "lon": 42.4119416, "tags": {"name": "ح١٤", "name:ar": "ح١٤", "tourism": "camp_site"}}, {"type": "node", "id": 4893550526, "lat": 35.8165713, "lon": 42.4117458, "tags": {"name": "ح١٣", "name:ar": "ح١٣", "tourism": "camp_site"}}, {"type": "node", "id": 4850704021, "lat": 35.8189897, "lon": 42.4141088, "tags": {"man_made": "water_well"}}, {"type": "node", "id": 4893548829, "lat": 35.8236778, "lon": 42.413374, "tags": {"name": "ح١٢", "name:ar": "ح١٢", "tourism": "camp_site"}}, {"type": "node", "id": 4893548832, "lat": 35.7840696, "lon": 42.4235514, "tags": {"name": "ح١٩", "name:ar": "ح١٩", "tourism": "camp_site"}}, {"type": "node", "id": 4893550529, "lat": 35.7800784, "lon": 42.4264788, "tags": {"name": "ح٢٠", "name:ar": "ح٢٠", "tourism": "camp_site"}}, {"type": "node", "id": 4893548833, "lat": 35.7765135, "lon": 42.4288626, "tags": {"name": "٢١", "name:ar": "٢١", "tourism": "camp_site"}}, {"type": "node", "id": 4893552023, "lat": 35.7889643, "lon": 42.4194598, "tags": {"name": "ح١٨", "name:ar": "ح١٨", "tourism": "camp_site"}}, {"type": "node", "id": 4893548831, "lat": 35.7936123, "lon": 42.4166733, "tags": {"name": "ح١٧", "name:ar": "ح١٧", "tourism": "camp_site"}}, {"type": "node", "id": 4893552022, "lat": 35.8295954, "lon": 42.415082, "tags": {"name": "ح١١", "name:ar": "ح١١", "tourism": "camp_site"}}, {"type": "node", "id": 4893550524, "lat": 35.8348959, "lon": 42.4173843, "tags": {"name": "ح١٠", "name:ar": "ح١٠", "tourism": "camp_site"}}, {"type": "node", "id": 4893548828, "lat": 35.8411391, "lon": 42.4192836, "tags": {"name": "ح٩", "name:ar": "ح٩", "tourism": "camp_site"}}, {"type": "node", "id": 4893548827, "lat": 35.8474269, "lon": 42.4205733, "tags": {"name": "ح٨", "name:ar": "ح٨", "tourism": "camp_site"}}, {"type": "node", "id": 4893548825, "lat": 35.8538297, "lon": 42.4210872, "tags": {"name": "ح٧", "name:ar": "ح٧", "tourism": "camp_site"}}, {"type": "node", "id": 4893548826, "lat": 35.8538137, "lon": 42.421083, "tags": {"name": "ح٧", "name:ar": "ح٧", "tourism": "camp_site"}}, {"type": "node", "id": 4893550523, "lat": 35.8598622, "lon": 42.4224936, "tags": {"name": "ح٦", "name:ar": "ح٦", "tourism": "camp_site"}}, {"type": "node", "id": 4893548830, "lat": 35.8655739, "lon": 42.4238152, "tags": {"name": "ح٥", "name:ar": "ح٥", "tourism": "camp_site"}}, {"type": "node", "id": 4893548824, "lat": 35.8715932, "lon": 42.4253102, "tags": {"name": "ح٤", "name:ar": "ح٤", "tourism": "camp_site"}}, {"type": "node", "id": 4893548823, "lat": 35.8779778, "lon": 42.4266325, "tags": {"name": "ح٣", "name:ar": "ح٣", "tourism": "camp_site"}}, {"type": "node", "id": 4893550522, "lat": 35.8835708, "lon": 42.4296525, "tags": {"name": "ح ٢", "name:ar": "ح ٢", "tourism": "camp_site"}}, {"type": "node", "id": 4893548822, "lat": 35.8877683, "lon": 42.4352023, "tags": {"name": "ح١", "name:ar": "ح١", "tourism": "camp_site"}}, {"type": "node", "id": 2488246213, "lat": 35.9276514, "lon": 42.5238487, "tags": {"alt_name": "أم طبوق", "int_name": "Umm Ţubūq, Umm Tubuq", "name": "أم طبوق", "name:ar": "أم طبوق", "name:ar1": "أم طبوق", "name:de": "Umm Tubuq", "name:en": "Umm Tubuq", "name:fr": "Umm Tubuq", "natural": "spring"}}, {"type": "node", "id": 4064663058, "lat": 35.9469409, "lon": 42.5705108, "tags": {"amenity": "fuel", "name": "محطة وقود التل", "name:ar": "محطة وقود تل عبطة", "name:en": "Al Tall Gas Station"}}, {"type": "node", "id": 6168667887, "lat": 35.9789677, "lon": 42.5835461, "tags": {"name": "محمد البربوت", "natural": "spring"}}, {"type": "node", "id": 10539265698, "lat": 35.9166566, "lon": 42.7166527, "tags": {"man_made": "monitoring_station", "monitoring:weather": "yes", "name:en": "TEL-ABTA", "operator": "Iraqi Meteorological Organization and Seismology", "ref:wigos": "0-20000-0-40609", "source": "World Meteorological Organization", "weather:anemometer": "yes", "weather:barometer": "yes", "weather:humidity_sensor": "yes", "weather:lightning_detector": "yes", "weather:precipitation_indicator": "yes", "weather:pyranometer": "yes", "weather:rain_gauge": "yes", "weather:soil_thermometer": "yes", "weather:thermometer": "yes"}}, {"type": "node", "id": 10548437696, "lat": 35.9193441, "lon": 42.7807615, "tags": {"addr:city": "اشوره", "addr:country": "IQ", "addr:state": "محافظة نينوى", "historic": "archaeological_site", "historic:civilization": "كشي,فرثي,ساساني", "name": "تل أم القرون", "ref": "3043"}}, {"type": "node", "id": 10548437645, "lat": 35.6806422, "lon": 42.8660906, "tags": {"addr:city": "ناحية الشوره", "addr:country": "IQ", "addr:state": "محافظة نينوى", "historic": "archaeological_site", "name": "تل عليبة"}}, {"type": "node", "id": 10901634009, "lat": 35.7595093, "lon": 42.9511586, "tags": {"name": "ركعي الفحيمي", "tourism": "guest_house"}}, {"type": "node", "id": 10901637125, "lat": 35.7595724, "lon": 42.9512184, "tags": {"addr:street": "طريق الموصل - بغداد", "email": "rafeaiadh@gmail.com", "name": "ركعي الفحيمي", "tourism": "guest_house"}}, {"type": "node", "id": 6444433885, "lat": 35.7593651, "lon": 42.9663651, "tags": {"name": "مغمل طحين الحضر", "shop": "bakery"}}, {"type": "node", "id": 10548437661, "lat": 35.8701261, "lon": 42.9237176, "tags": {"addr:country": "IQ", "addr:state": "محافظة نينوى", "historic": "archaeological_site", "name": "تل صليبي"}}, {"type": "node", "id": 10548437698, "lat": 35.913823, "lon": 42.8547135, "tags": {"addr:country": "IQ", "addr:state": "محافظة نينوى", "historic": "archaeological_site", "name": "تلول أم أدهم"}}, {"type": "node", "id": 5001313523, "lat": 35.9153005, "lon": 42.8639046, "tags": {"name": "التبليط الجديد", "name:ar": "التبليط الجديد", "tourism": "attraction"}}, {"type": "node", "id": 9510027017, "lat": 35.9070002, "lon": 42.9456864, "tags": {"name": "قرية ام عظام العجول", "tourism": "guest_house"}}, {"type": "way", "id": 297911349, "center": {"lat": 35.1798795, "lon": 42.5468396}, "nodes": [3018129368, 3018129371, 3018129374, 3018129372, 3018129368], "tags": {"amenity": "parking"}}, {"type": "way", "id": 404803462, "center": {"lat": 35.9456664, "lon": 42.5724168}, "nodes": [4070602472, 4070602473, 4070602474, 4070602475, 4070602472], "tags": {"amenity": "hospital", "emergency": "yes", "healthcare": "hospital", "name": "مركز صحي تل عبطة", "name:ar": "مركز صحي تل عبطة", "name:en": "Tall Abtah Health Centre"}}]}