{"id": "36-29", "latMin": 36, "lonMin": 29, "latMax": 37, "lonMax": 30, "generated": "2026-04-16T18:39:07.440Z", "count": 4218, "pois": [{"type": "node", "id": 4176340306, "lat": 36.2330899, "lon": 29.3592561, "tags": {"man_made": "water_well"}}, {"type": "node", "id": 7331766686, "lat": 36.2348744, "lon": 29.3547819, "tags": {"amenity": "shelter"}}, {"type": "node", "id": 11464791375, "lat": 36.2334624, "lon": 29.3562457, "tags": {"backcountry": "yes", "tourism": "camp_site"}}, {"type": "node", "id": 769224868, "lat": 36.269997, "lon": 29.3008702, "tags": {"name:en": "Sand dunes", "name:ru": "Песчаные дюны", "tourism": "viewpoint"}}, {"type": "node", "id": 8686698319, "lat": 36.2655351, "lon": 29.3002027, "tags": {"tourism": "picnic_site"}}, {"type": "node", "id": 311987317, "lat": 36.2703061, "lon": 29.303077, "tags": {"amenity": "parking"}}, {"type": "node", "id": 8596045888, "lat": 36.2945773, "lon": 29.2615806, "tags": {"amenity": "drinking_water"}}, {"type": "node", "id": 10177899919, "lat": 36.2932757, "lon": 29.2636173, "tags": {"natural": "spring"}}, {"type": "node", "id": 10185628364, "lat": 36.2934053, "lon": 29.2637862, "tags": {"amenity": "drinking_water"}}, {"type": "node", "id": 12231608848, "lat": 36.2942157, "lon": 29.2623272, "tags": {"amenity": "drinking_water"}}, {"type": "node", "id": 8664334317, "lat": 36.2528756, "lon": 29.3130682, "tags": {"amenity": "drinking_water", "name:en": "Water in WC", "name:ru": "Воду можно набрать в туалете"}}, {"type": "node", "id": 13192532541, "lat": 36.2512392, "lon": 29.3254031, "tags": {"backcountry": "yes", "tourism": "camp_site"}}, {"type": "node", "id": 11464791376, "lat": 36.2514787, "lon": 29.3213564, "tags": {"tourism": "viewpoint"}}, {"type": "node", "id": 6960101985, "lat": 36.2543247, "lon": 29.3300823, "tags": {"tourism": "viewpoint"}}, {"type": "node", "id": 1749745261, "lat": 36.2636867, "lon": 29.3139975, "tags": {"archaeological_site": "fortification", "historic": "archaeological_site", "name": "Medieval Settlement"}}, {"type": "node", "id": 5295438123, "lat": 36.2593846, "lon": 29.3134174, "tags": {"name:en": "View on Patara site", "name:fr": "Vue sur le site de Patara", "tourism": "viewpoint"}}, {"type": "node", "id": 8710509994, "lat": 36.2587424, "lon": 29.3122487, "tags": {"tourism": "viewpoint"}}, {"type": "node", "id": 11949921567, "lat": 36.2637755, "lon": 29.3140543, "tags": {"name": "Medieval Town Church", "tourism": "attraction"}}, {"type": "node", "id": 3667624228, "lat": 36.2616125, "lon": 29.3164352, "tags": {"historic": "archaeological_site", "name": "Vespasian bath"}}, {"type": "node", "id": 3667652506, "lat": 36.2621138, "lon": 29.3156483, "tags": {"alt_name": "The Main Avenue", "historic": "archaeological_site", "name": "Stoa"}}, {"type": "node", "id": 12466915660, "lat": 36.2603464, "lon": 29.3149359, "tags": {"board_type": "history", "information": "board", "tourism": "information"}}, {"type": "node", "id": 12466915663, "lat": 36.2625263, "lon": 29.3146803, "tags": {"information": "board", "name:en": "Small bath", "tourism": "information"}}, {"type": "node", "id": 12466915664, "lat": 36.263612, "lon": 29.315249, "tags": {"board_type": "history", "information": "board", "name": "Prostylos tapınak", "tourism": "information"}}, {"type": "node", "id": 12466915665, "lat": 36.2639207, "lon": 29.3150871, "tags": {"board_type": "history", "information": "board", "name": "Selçuk hamam", "tourism": "information"}}, {"type": "node", "id": 12466915666, "lat": 36.2617506, "lon": 29.3155184, "tags": {"board_type": "history", "information": "board", "name:en": "Harbor street", "tourism": "information"}}, {"type": "node", "id": 12467447462, "lat": 36.2588411, "lon": 29.3157418, "tags": {"board_type": "history", "information": "board", "name": "Patara", "tourism": "information"}}, {"type": "node", "id": 12466915661, "lat": 36.2656912, "lon": 29.3103958, "tags": {"board_type": "history", "information": "board", "name": "Depo yapısı", "tourism": "information"}}, {"type": "node", "id": 12466915662, "lat": 36.2665792, "lon": 29.3110461, "tags": {"board_type": "history", "information": "board", "tourism": "information"}}, {"type": "node", "id": 11907401769, "lat": 36.267302, "lon": 29.3194452, "tags": {"tourism": "viewpoint"}}, {"type": "node", "id": 11468947969, "lat": 36.2704678, "lon": 29.3267997, "tags": {"backcountry": "yes", "capacity:tents": "3", "caravans": "no", "fee": "no", "static_caravans": "no", "tents": "yes", "tourism": "camp_site"}}, {"type": "node", "id": 4824472074, "lat": 36.2504162, "lon": 29.3362914, "tags": {"addr:city": "Kas", "addr:district": "Gelemis", "addr:housenumber": "21", "addr:neighbourhood": "Yali Mevki", "addr:postcode": "07976", "guest_house": "apartment", "internet_access": "yes", "internet_access:fee": "no", "name": "Guesthouse Camelion", "operator": "Mehmet", "phone": "+90-532-158-8069", "rooms": "4", "smoking": "outside", "tourism": "guest_house"}}, {"type": "node", "id": 10792916390, "lat": 36.2477826, "lon": 29.3343443, "tags": {"guest_house": "apartment", "name": "Likya House", "operator": "airbnb", "phone": "+90-542 833 51 54", "tourism": "guest_house"}}, {"type": "node", "id": 258614306, "lat": 36.2698446, "lon": 29.3573688, "tags": {"drinking_water": "yes", "name": "well with Water 30.04.2025", "natural": "spring"}}, {"type": "node", "id": 8499054717, "lat": 36.2699838, "lon": 29.3545515, "tags": {"name:en": "Tower", "name:ru": "Башня", "tourism": "attraction"}}, {"type": "node", "id": 11468947972, "lat": 36.2701182, "lon": 29.3569075, "tags": {"name:en": "Not flat, small place under the olive tree without stones", "name:ru": "Не ровное, маленькое место под оливковым деревом без камней", "tourism": "camp_site"}}, {"type": "node", "id": 10111031217, "lat": 36.2748714, "lon": 29.312723, "tags": {"amenity": "drinking_water"}}, {"type": "node", "id": 697087644, "lat": 36.2751134, "lon": 29.3184046, "tags": {"amenity": "restaurant", "name": "Aspendos Restaurant & Lokanta"}}, {"type": "node", "id": 697087660, "lat": 36.2751409, "lon": 29.320091, "tags": {"name": "Pension St. Nicolas", "tourism": "guest_house", "wikidata": "Q111857442"}}, {"type": "node", "id": 1749749380, "lat": 36.2752032, "lon": 29.3197632, "tags": {"name": "Golden Pension 3", "phone": "+90-242-843-5162/532-425-1851", "tourism": "hotel", "website": "http://www.pataragoldenpension.com"}}, {"type": "node", "id": 1749752666, "lat": 36.2753105, "lon": 29.3195432, "tags": {"name": "Golden Pension", "tourism": "guest_house"}}, {"type": "node", "id": 1749753988, "lat": 36.2750453, "lon": 29.3196988, "tags": {"amenity": "fast_food", "cuisine": "kebab", "indoor_seating": "no", "name": "Carpediem Patara Ocakbaşi", "outdoor_seating": "yes"}}, {"type": "node", "id": 1818076064, "lat": 36.2740463, "lon": 29.319725, "tags": {"air_conditioning": "yes", "name": "Letoon Pansiyon", "tourism": "hotel"}}, {"type": "node", "id": 2501922629, "lat": 36.2770293, "lon": 29.3195637, "tags": {"addr:city": "Gelemiş", "name": "Rose Pension", "operator": "Mehmet Gül", "tourism": "hostel"}}, {"type": "node", "id": 2984774688, "lat": 36.2771798, "lon": 29.3205191, "tags": {"name": "Akay Pension", "tourism": "guest_house", "website": "https://pataraakayhotel.com/"}}, {"type": "node", "id": 2984870708, "lat": 36.2754354, "lon": 29.3199029, "tags": {"amenity": "atm", "name": "ATM Akbank"}}, {"type": "node", "id": 3785150733, "lat": 36.2752673, "lon": 29.32009, "tags": {"amenity": "restaurant", "name": "Alibaba"}}, {"type": "node", "id": 3785161315, "lat": 36.2753304, "lon": 29.3194096, "tags": {"amenity": "restaurant", "capacity": "50", "cuisine": "regional", "indoor_seating": "yes", "name": "Ayse Pancake House", "outdoor_seating": "yes", "takeaway": "yes"}}, {"type": "node", "id": 3785161316, "lat": 36.2752197, "lon": 29.3193505, "tags": {"amenity": "restaurant", "capacity": "150", "cuisine": "regional", "indoor_seating": "no", "name": "Tlos", "outdoor_seating": "yes"}}, {"type": "node", "id": 5969572786, "lat": 36.2751238, "lon": 29.3187937, "tags": {"amenity": "restaurant", "internet_access": "wlan", "name:en": "Cafe Inn", "website": "https://cafeinnpatara.dijital.menu/"}}, {"type": "node", "id": 7826842598, "lat": 36.2748455, "lon": 29.3198016, "tags": {"amenity": "drinking_water", "man_made": "water_tap"}}, {"type": "node", "id": 7913882985, "lat": 36.2753628, "lon": 29.3193082, "tags": {"amenity": "cafe", "indoor_seating": "yes", "name": "Patara Gözleme Evi", "outdoor_seating": "yes"}}, {"type": "node", "id": 7955571485, "lat": 36.2754226, "lon": 29.3191358, "tags": {"name": "Patara alışveriş merkezi", "shop": "convenience"}}, {"type": "node", "id": 7965468486, "lat": 36.2745407, "lon": 29.3180795, "tags": {"capacity:tents": "4", "description": "Место где можно бесплатно поставить палатку. Полиция не против. A place where you can put up a tent for free. The police don't mind. Ücretsiz çadır kurabileceğiniz bir yer. Polis aldırış etmez.", "description:en": "Free camping. Police is ok with this.", "description:ru": "Место где можно бесплатно поставить палатку. Полиция не против.", "tents": "yes", "tourism": "camp_site"}}, {"type": "node", "id": 9095318617, "lat": 36.2750723, "lon": 29.3182207, "tags": {"name": "Medusa hostel", "name:en": "Medusa bar & camping", "name:tr": "Medusa bar & camping", "phone": "+90-242-843-5193", "tourism": "hostel"}}, {"type": "node", "id": 9204501717, "lat": 36.2719646, "lon": 29.3201457, "tags": {"name:en": "Patata Castle Boutique Hotel", "tourism": "hotel"}}, {"type": "node", "id": 9204529817, "lat": 36.2754993, "lon": 29.3199737, "tags": {"name:en": "Kiler07 Supermarket", "shop": "supermarket"}}, {"type": "node", "id": 9726716517, "lat": 36.2746714, "lon": 29.317277, "tags": {"addr:postcode": "07086", "addr:street": "Patara Antik Kenti Gelemiş Mah. Tömler Sk. No:3", "internet_access": "wlan", "name": "Patara Woody Hostel & Camping", "phone": "+905346177019", "tourism": "hostel"}}, {"type": "node", "id": 9948805559, "lat": 36.2742871, "lon": 29.3161086, "tags": {"name": "Apollon", "tourism": "hotel"}}, {"type": "node", "id": 9948813792, "lat": 36.275494, "lon": 29.3189701, "tags": {"amenity": "restaurant", "indoor_seating": "yes", "name": "Durak", "outdoor_seating": "yes"}}, {"type": "node", "id": 10792916386, "lat": 36.2773568, "lon": 29.3205337, "tags": {"email": "info@pataraflowerpension.com", "guest_house": "guest_house", "internet_access": "yes", "name": "Flower Pension", "operator": "Bekir Kırca", "phone": "+90-242-843-5164/530-511-0206", "tourism": "guest_house", "website": "pataraflowerpension.com"}}, {"type": "node", "id": 10792916387, "lat": 36.2734135, "lon": 29.3160439, "tags": {"guest_house": "guest_house", "name": "Zeybek 2", "operator": "Soner", "phone": "+90-532-683-5845/531-822-63 87", "tourism": "guest_house", "website": "https://www.zeybek2pension.com/"}}, {"type": "node", "id": 10792916388, "lat": 36.2764654, "lon": 29.3178493, "tags": {"name": "Golden Lighthouse Hotel", "phone": "+90-242-843-51 07/506-621-04 12", "tourism": "hotel", "website": "https://www.pataragoldenlighthouse.com/"}}, {"type": "node", "id": 10792916389, "lat": 36.2757619, "lon": 29.3186181, "tags": {"name": "Dardanos Hotel", "phone": "+90-242-843-5151/555-716-3155", "tourism": "hotel", "website": "https://www.pataradardanoshotel.com/"}}, {"type": "node", "id": 11906628369, "lat": 36.2753745, "lon": 29.3198702, "tags": {"amenity": "atm", "operator": "İş Bankası"}}, {"type": "node", "id": 12954928101, "lat": 36.2732587, "lon": 29.315258, "tags": {"air_conditioning": "yes", "name": "Ferah otel", "tourism": "hotel"}}, {"type": "node", "id": 13207055164, "lat": 36.2752861, "lon": 29.3191652, "tags": {"amenity": "restaurant", "indoor_seating": "yes", "name": "Buse'nin Yeri", "outdoor_seating": "yes"}}, {"type": "node", "id": 13207106505, "lat": 36.275411, "lon": 29.3191951, "tags": {"amenity": "restaurant", "indoor_seating": "yes", "name": "Pidezade", "outdoor_seating": "yes"}}, {"type": "node", "id": 13208283719, "lat": 36.2756072, "lon": 29.3203278, "tags": {"name": "Sisyphos", "tourism": "hotel"}}, {"type": "node", "id": 13208290641, "lat": 36.2753846, "lon": 29.3187914, "tags": {"amenity": "restaurant", "indoor_seating": "yes", "name": "Piden'em", "outdoor_seating": "yes"}}, {"type": "node", "id": 13208297967, "lat": 36.2753179, "lon": 29.3194399, "tags": {"amenity": "cafe", "indoor_seating": "yes", "name": "Aliento", "outdoor_seating": "yes"}}, {"type": "node", "id": 13208298603, "lat": 36.2754237, "lon": 29.3198973, "tags": {"amenity": "atm", "brand": "Yapı Kredi", "brand:wikidata": "Q8049138", "operator": "Yapı Kredi", "operator:wikidata": "Q8049138"}}, {"type": "node", "id": 13208303392, "lat": 36.2758208, "lon": 29.3204459, "tags": {"air_conditioning": "yes", "name": "Denge Pansiyon", "tourism": "hotel"}}, {"type": "node", "id": 13208303393, "lat": 36.2754474, "lon": 29.31991, "tags": {"amenity": "atm", "brand": "Garanti Bankası", "brand:wikidata": "Q322962", "operator": "Garanti Bankası", "operator:wikidata": "Q322962"}}, {"type": "node", "id": 13208832864, "lat": 36.2744832, "lon": 29.32062, "tags": {"air_conditioning": "yes", "name": "Sema", "tourism": "hotel"}}, {"type": "node", "id": 13227658799, "lat": 36.2749689, "lon": 29.3180155, "tags": {"amenity": "cafe"}}, {"type": "node", "id": 13227663364, "lat": 36.2750036, "lon": 29.3180896, "tags": {"amenity": "restaurant"}}, {"type": "node", "id": 13227665685, "lat": 36.2744824, "lon": 29.3172738, "tags": {"amenity": "cafe", "indoor_seating": "yes", "name": "Nüans", "outdoor_seating": "yes"}}, {"type": "node", "id": 13227669219, "lat": 36.2752565, "lon": 29.318702, "tags": {"name": "Ekomini", "shop": "convenience"}}, {"type": "node", "id": 1818076063, "lat": 36.273942, "lon": 29.3211334, "tags": {"name": "Mehmet Hotel", "tourism": "hotel"}}, {"type": "node", "id": 8498869717, "lat": 36.2716256, "lon": 29.3263592, "tags": {"man_made": "water_well"}}, {"type": "node", "id": 11468947970, "lat": 36.2744431, "lon": 29.3248504, "tags": {"backcountry": "yes", "tourism": "camp_site"}}, {"type": "node", "id": 13208789856, "lat": 36.2764209, "lon": 29.3211213, "tags": {"name": "Delfin", "tourism": "hotel"}}, {"type": "node", "id": 13208844393, "lat": 36.277271, "lon": 29.3218177, "tags": {"name": "Xanthos", "tourism": "hotel"}}, {"type": "node", "id": 13208847932, "lat": 36.274645, "lon": 29.320963, "tags": {"name": "Beyoğlu", "tourism": "hotel"}}, {"type": "node", "id": 13208848023, "lat": 36.2762222, "lon": 29.3211061, "tags": {"air_conditioning": "yes", "name": "Patara Beach Hotel", "tourism": "hotel"}}, {"type": "node", "id": 13250407702, "lat": 36.2744849, "lon": 29.3248563, "tags": {"tourism": "viewpoint"}}, {"type": "node", "id": 10197240817, "lat": 36.2840179, "lon": 29.3251446, "tags": {"addr:housenumber": "61", "addr:street": "Turkiye kaş patara gelemiş karagaç soak", "email": "ruzievaferuza6@gmail.com", "internet_access": "wlan", "name:en": "Modestus otel", "phone": "+905353145770", "tourism": "hotel"}}, {"type": "node", "id": 12736588402, "lat": 36.2776293, "lon": 29.3208115, "tags": {"addr:street": "Likya Yolu 4.02", "caravans": "no", "drinking_water": "yes", "email": "ceyrekcamping@gmail.com", "internet_access": "wlan", "name": "Çeyrek Camping&Bungalows", "name:en": "Çeyrek Camping&Bungalowd", "opening_hours": "24/7", "phone": "+905422580240", "tents": "yes", "tourism": "camp_site", "website": "https://www.instagram.com/ceyrekcamping"}}, {"type": "node", "id": 13208283718, "lat": 36.2806058, "lon": 29.3214312, "tags": {"name": "Caretta Büfe", "shop": "convenience"}}, {"type": "node", "id": 13208289910, "lat": 36.2821171, "lon": 29.3219752, "tags": {"name": "Patara Gate", "tourism": "camp_site"}}, {"type": "node", "id": 13208297536, "lat": 36.2790601, "lon": 29.3214653, "tags": {"amenity": "restaurant", "indoor_seating": "no", "name": "Şefin mutfağı", "outdoor_seating": "yes"}}, {"type": "node", "id": 7912548386, "lat": 36.2967905, "lon": 29.3286767, "tags": {"name": "Ufuk market", "shop": "convenience"}}, {"type": "node", "id": 6964560713, "lat": 36.2782076, "lon": 29.3455124, "tags": {"man_made": "water_well", "name": "Cistern"}}, {"type": "node", "id": 3785161318, "lat": 36.2890727, "lon": 29.349693, "tags": {"amenity": "fuel", "brand": "Petrol Ofisi", "brand:wikidata": "Q1278087", "name": "Petrol Ofisi"}}, {"type": "node", "id": 7312267167, "lat": 36.3878368, "lon": 29.1411188, "tags": {"description": "cistern", "drinking_water:signed": "no", "man_made": "water_well", "name": "Cistern(bad water, need filter)"}}, {"type": "node", "id": 10886299666, "lat": 36.3871635, "lon": 29.1418286, "tags": {"tourism": "camp_site"}}, {"type": "node", "id": 6045627710, "lat": 36.385884, "lon": 29.149083, "tags": {"tourism": "viewpoint"}}, {"type": "node", "id": 6480589123, "lat": 36.3869504, "lon": 29.1467273, "tags": {"amenity": "shelter"}}, {"type": "node", "id": 11255234337, "lat": 36.3859909, "lon": 29.1488239, "tags": {"name:en": "Place for tent", "name:ru": "Место под палатки", "tourism": "camp_site"}}, {"type": "node", "id": 697076717, "lat": 36.4008945, "lon": 29.1368741, "tags": {"hiking": "yes", "information": "guidepost", "name": "Likya Yolu", "tourism": "information"}}, {"type": "node", "id": 10103749717, "lat": 36.396188, "lon": 29.1348205, "tags": {"tourism": "camp_site"}}, {"type": "node", "id": 10773837807, "lat": 36.4015443, "lon": 29.1369178, "tags": {"addr:housenumber": "85", "addr:street": "Yediburunlar", "name": "G7 Kamp, odaları, kahve", "name:en": "G7 camping, rooms and cafe", "phone": "+905070791282", "tourism": "camp_site"}}, {"type": "node", "id": 10789915936, "lat": 36.4007291, "lon": 29.1369, "tags": {"addr:neighbourhood": "+90-5396222448", "amenity": "cafe", "internet_access": "yes", "name": "Cüneyt Market", "outdoor_seating": "yes"}}, {"type": "node", "id": 4818393695, "lat": 36.3929571, "lon": 29.139966, "tags": {"description": "cistern", "man_made": "water_well", "name": "Cistern"}}, {"type": "node", "id": 9714675517, "lat": 36.3902441, "lon": 29.1408016, "tags": {"addr:street": "Yediburunlar Bel Köyü Likya Yolu 1,5 km", "caravans": "no", "description": "camping, shower, water, food, cold&hot drinks", "drinking_water": "yes", "name": "Panorama Kafe", "name:en": "Panorama Cafe", "opening_hours": "24/7", "phone": "+90 537 353 67 47", "power_supply": "yes", "shower": "yes", "tents": "yes", "toilets": "yes", "tourism": "camp_site"}}, {"type": "node", "id": 13441722552, "lat": 36.3921678, "lon": 29.1487185, "tags": {"tourism": "viewpoint"}}, {"type": "node", "id": 1326894475, "lat": 36.40147, "lon": 29.13954, "tags": {"email": "yediburun@gmail.com", "guest_house": "guest_house", "name": "Yediburun Pansiyon", "name:en": "Yediburun Pansiyon", "name:tr": "Yediburun Pansiyon", "phone": "05398267922", "tourism": "guest_house", "website": "https://www.facebook.com/geyvillagelycianway/"}}, {"type": "node", "id": 4393912189, "lat": 36.4016459, "lon": 29.1392082, "tags": {"name": "Dumanoğlu Pansiyon", "name:en": "Dumanoğlu Pansiyon", "name:tr": "Dumanoğlu Pansiyon", "tourism": "guest_house"}}, {"type": "node", "id": 4818393694, "lat": 36.3961854, "lon": 29.1391443, "tags": {"description": "cistern", "man_made": "water_well", "name": "Cistern"}}, {"type": "node", "id": 6372834913, "lat": 36.3998873, "lon": 29.1408295, "tags": {"man_made": "water_well", "name": "Cistern", "name:ru": "Цистерна с водой"}}, {"type": "node", "id": 8009585102, "lat": 36.4006813, "lon": 29.1380768, "tags": {"amenity": "drinking_water"}}, {"type": "node", "id": 8725125080, "lat": 36.4030834, "lon": 29.1395918, "tags": {"amenity": "cafe"}}, {"type": "node", "id": 8761668617, "lat": 36.4020021, "lon": 29.1381546, "tags": {"amenity": "cafe", "cuisine": "crepe;local;turkish", "description": "cafe & camping", "indoor_seating": "no", "name": "Türkmen Gözleme Evi", "name:en": "Türkmen Turkish Pancake House", "outdoor_seating": "yes", "phone": "+905387972148", "shop": "yes", "shower": "yes"}}, {"type": "node", "id": 4818351069, "lat": 36.411013, "lon": 29.1433702, "tags": {"description": "cistern", "man_made": "water_well"}}, {"type": "node", "id": 4818361849, "lat": 36.4106604, "lon": 29.143578, "tags": {"backcountry": "yes", "tourism": "camp_site"}}, {"type": "node", "id": 4818356792, "lat": 36.4131561, "lon": 29.14405, "tags": {"description": "cistern", "man_made": "water_well", "natural": "spring"}}, {"type": "node", "id": 8730692718, "lat": 36.4125299, "lon": 29.1463701, "tags": {"backcountry": "yes", "tourism": "camp_site"}}, {"type": "node", "id": 10789915908, "lat": 36.4130589, "lon": 29.1466939, "tags": {"description": "several wells and cisterns", "drinking_water:signed": "no", "man_made": "water_well", "material": "stone"}}, {"type": "node", "id": 12465431682, "lat": 36.415411, "lon": 29.1430378, "tags": {"tourism": "viewpoint"}}, {"type": "node", "id": 697076479, "lat": 36.4174355, "lon": 29.1459863, "tags": {"hiking": "yes", "information": "guidepost", "name": "Likya Yolu", "tourism": "information"}}, {"type": "node", "id": 7326065785, "lat": 36.4170663, "lon": 29.1443988, "tags": {"backcountry": "yes", "tourism": "camp_site"}}, {"type": "node", "id": 10905211610, "lat": 36.4273614, "lon": 29.1397716, "tags": {"name:ru": "Вид на все полуострова", "tourism": "viewpoint"}}, {"type": "node", "id": 12302172397, "lat": 36.4238104, "lon": 29.1433293, "tags": {"tourism": "camp_site", "water_source": "no"}}, {"type": "node", "id": 12452798652, "lat": 36.42381, "lon": 29.14323, "tags": {"tourism": "viewpoint"}}, {"type": "node", "id": 9231917242, "lat": 36.4217004, "lon": 29.1449714, "tags": {"information": "guidepost", "name": "Junction Sidyma or Yediburun", "tourism": "information"}}, {"type": "node", "id": 4818336058, "lat": 36.4286631, "lon": 29.1350883, "tags": {"information": "guidepost", "tourism": "information"}}, {"type": "node", "id": 6332898289, "lat": 36.4308893, "lon": 29.1336846, "tags": {"tourism": "viewpoint"}}, {"type": "node", "id": 12302172714, "lat": 36.4288731, "lon": 29.1348475, "tags": {"backcountry": "yes", "capacity:tents": "3", "description": "no water", "tourism": "camp_site"}}, {"type": "node", "id": 13250096901, "lat": 36.4287627, "lon": 29.1341506, "tags": {"description": "Место под одну палатку на пляже", "tourism": "camp_site"}}, {"type": "node", "id": 5723098524, "lat": 36.4350506, "lon": 29.1310716, "tags": {"backcountry": "yes", "capacity:tents": "1-2", "tourism": "camp_site"}}, {"type": "node", "id": 4818344864, "lat": 36.4309289, "lon": 29.1434271, "tags": {"description": "Воду фильтровать и кипятить обязательно. на поверхности мусор. ведра и веревки нет. Su filtrelenmeli ve kaynatılmalıdır. yüzeydeki döküntüler. kova veya ip yok. Water must be filtered and boiled. debris on the surface. no bucket or rope.", "man_made": "water_well", "name": "Cistern"}}, {"type": "node", "id": 7751919385, "lat": 36.4282829, "lon": 29.1385982, "tags": {"name": "Asaardi Yolu", "name:en": "Asarardi Junction", "tourism": "attraction"}}, {"type": "node", "id": 696035577, "lat": 36.4294119, "lon": 29.1460415, "tags": {"hiking": "yes", "information": "guidepost", "name": "Likya Yolu", "tourism": "information"}}, {"type": "node", "id": 6419550646, "lat": 36.4290602, "lon": 29.1500018, "tags": {"information": "former_guidepost_-_route_changed", "tourism": "information"}}, {"type": "node", "id": 7995293286, "lat": 36.4329819, "lon": 29.1465809, "tags": {"amenity": "cafe", "cuisine": "turkish", "name": "Ceti"}}, {"type": "node", "id": 8575820554, "lat": 36.4330108, "lon": 29.1465459, "tags": {"amenity": "drinking_water"}}, {"type": "node", "id": 11243376687, "lat": 36.4296493, "lon": 29.1454996, "tags": {"shop": "convenience", "toilets": "yes", "toilets:access": "customers"}}, {"type": "node", "id": 12302177614, "lat": 36.4299763, "lon": 29.1456377, "tags": {"amenity": "cafe", "description": "gözleme, kahve, mesrubaltar", "shower": "yes", "water_source": "yes"}}, {"type": "node", "id": 13130374004, "lat": 36.4326817, "lon": 29.1463183, "tags": {"charge": "150TRY/person", "fee": "yes", "tourism": "camp_site"}}, {"type": "node", "id": 13270280801, "lat": 36.4297239, "lon": 29.1457702, "tags": {"name": "Кемпинг (платный) / Camping (for a fee)", "tourism": "camp_site"}}, {"type": "node", "id": 5584289421, "lat": 36.4360289, "lon": 29.140129, "tags": {"amenity": "shelter", "description": "Arıcıların evi"}}, {"type": "node", "id": 6045625935, "lat": 36.4376941, "lon": 29.1416572, "tags": {"name": "Stone over the abyss", "name:ru": "Камень над пропастью", "tourism": "viewpoint"}}, {"type": "node", "id": 7741001386, "lat": 36.4365513, "lon": 29.141827, "tags": {"guest_house": "guest_house", "name": "Turkdomes Glamping", "name:en": "Turkdomes Glamping", "phone": "+90-533-590-8042", "tourism": "guest_house"}}, {"type": "node", "id": 8725120626, "lat": 36.4365451, "lon": 29.1417328, "tags": {"amenity": "cafe"}}, {"type": "node", "id": 8725120628, "lat": 36.4372611, "lon": 29.1415586, "tags": {"tourism": "viewpoint"}}, {"type": "node", "id": 10100740217, "lat": 36.4385117, "lon": 29.1459688, "tags": {"name:ru": "Вид на Paradise beach", "tourism": "viewpoint"}}, {"type": "node", "id": 12302183512, "lat": 36.4444221, "lon": 29.1303934, "tags": {"backcountry": "yes", "capacity": "2", "description": "place for 2 tents", "tourism": "camp_site"}}, {"type": "node", "id": 4729234899, "lat": 36.4429085, "lon": 29.133533, "tags": {"capacity:tents": "20-30", "description": "there's water free for visitors and other people for fee", "food": "tea, minicafe, hot&cold drinks", "name": "CennetCamp", "phone": "+905443528755", "tourism": "camp_site"}}, {"type": "node", "id": 8678373617, "lat": 36.4429975, "lon": 29.1334834, "tags": {"amenity": "drinking_water", "name:en": "Camp water spring", "name:it": "Acqua campeggio gratuita fonte"}}, {"type": "node", "id": 13233512801, "lat": 36.4415963, "lon": 29.132406, "tags": {"amenity": "drinking_water", "description": "Каверны с питьевой проточной водой"}}, {"type": "node", "id": 13271789301, "lat": 36.4419858, "lon": 29.1316349, "tags": {"backcountry": "yes", "capacity:tents": "4", "fee": "no", "tents": "yes", "tourism": "camp_site"}}, {"type": "node", "id": 3629393059, "lat": 36.453688, "lon": 29.1252823, "tags": {"information": "guidepost", "tourism": "information"}}, {"type": "node", "id": 7953582785, "lat": 36.4511603, "lon": 29.1251515, "tags": {"tourism": "viewpoint"}}, {"type": "node", "id": 10903014305, "lat": 36.4538207, "lon": 29.1254519, "tags": {"tourism": "viewpoint"}}, {"type": "node", "id": 13250096802, "lat": 36.4512154, "lon": 29.1251917, "tags": {"tourism": "camp_site"}}, {"type": "node", "id": 6045625936, "lat": 36.4480833, "lon": 29.1364194, "tags": {"tourism": "viewpoint"}}, {"type": "node", "id": 6045625937, "lat": 36.4485687, "lon": 29.1359194, "tags": {"natural": "spring"}}, {"type": "node", "id": 6881990386, "lat": 36.4439983, "lon": 29.1404004, "tags": {"tourism": "viewpoint"}}, {"type": "node", "id": 8068179369, "lat": 36.4449976, "lon": 29.1401527, "tags": {"information": "guidepost", "source": "survey", "tourism": "information"}}, {"type": "node", "id": 8666919525, "lat": 36.4462622, "lon": 29.1433127, "tags": {"amenity": "restaurant", "internet_access": "wlan", "name": "Likya restaurant & camping", "name:en": "Likya Restaurant & Camping", "website": "https://www.facebook.com/Likya-RestaurantMarket-101433391207552/"}}, {"type": "node", "id": 9110625218, "lat": 36.4440661, "lon": 29.1403282, "tags": {"note": "The area is passed without problems. If you are very, very afraid of heights, then you probably shouldn't go here. In rainy weather it is better on the road.", "note:ru": "Участок проходится без проблем. Если вы очень-очень боитесь высоты, то возможно не стоит идти тут. В дождливую погоду лучше по дороге.", "tourism": "information"}}, {"type": "node", "id": 9207309488, "lat": 36.4467813, "lon": 29.142425, "tags": {"amenity": "restaurant"}}, {"type": "node", "id": 9923698918, "lat": 36.4451427, "lon": 29.1398049, "tags": {"tourism": "viewpoint"}}, {"type": "node", "id": 11364305871, "lat": 36.4454356, "lon": 29.1414339, "tags": {"name:en": "great view, 1 tent", "tourism": "camp_site"}}, {"type": "node", "id": 11634072169, "lat": 36.4471965, "lon": 29.1394956, "tags": {"tourism": "viewpoint"}}, {"type": "node", "id": 13265588101, "lat": 36.4452223, "lon": 29.1408518, "tags": {"capacity:tents": "2", "tourism": "camp_site"}}, {"type": "node", "id": 696035579, "lat": 36.4432174, "lon": 29.1440365, "tags": {"man_made": "water_well"}}, {"type": "node", "id": 8647823917, "lat": 36.4439507, "lon": 29.147613, "tags": {"tourism": "camp_site"}}, {"type": "node", "id": 696035580, "lat": 36.448138, "lon": 29.1431423, "tags": {"hiking": "yes", "information": "guidepost", "name": "Likya Yolu", "tourism": "information"}}, {"type": "node", "id": 4576749889, "lat": 36.4481199, "lon": 29.1423802, "tags": {"addr:postcode": "48300", "addr:street": "Alınca", "internet_access": "wlan", "internet_access:fee": "no", "name": "Bayram’s Place", "opening_hours": "Mo-Su 06:00-22:00", "phone": "+90-252-679-1169/+90-535-473-4806", "tourism": "guest_house"}}, {"type": "node", "id": 8100306118, "lat": 36.449141, "lon": 29.142628, "tags": {"addr:city": "muğla", "addr:district": "fethiye", "addr:housenumber": "27", "addr:neighbourhood": "+90-538-685-35 87", "addr:street": "alınca", "backcountry": "no", "capacity:persons": "30", "email": "novasoulnow@gmail.com", "name": "Nova Soul", "name:en": "Nova Soul - Retreat Center", "name:tr": "Nova Soul - İnziva Merkezi", "operator": "Tekin", "phone": "+90-538-685-35 87", "tourism": "camp_site"}}, {"type": "node", "id": 8785489096, "lat": 36.4506145, "lon": 29.1433348, "tags": {"information": "yes", "name": "Good path start", "tourism": "information"}}, {"type": "node", "id": 9207309487, "lat": 36.4479116, "lon": 29.142576, "tags": {"shop": "convenience"}}, {"type": "node", "id": 9216102017, "lat": 36.447891, "lon": 29.1425017, "tags": {"amenity": "cafe", "name:en": "Hasan gozleme cay", "name:ru": "Hasan gozleme cay"}}, {"type": "node", "id": 10777524805, "lat": 36.4541939, "lon": 29.1416696, "tags": {"tourism": "camp_site"}}, {"type": "node", "id": 11811820870, "lat": 36.4510649, "lon": 29.1424283, "tags": {"drinking_water:signed": "no", "name:en": "Water tap", "natural": "spring"}}, {"type": "node", "id": 8329475921, "lat": 36.458188, "lon": 29.1241027, "tags": {"name:en": "Amazing cave under water. You can swim in an underwater tunnel 3m long.", "tourism": "attraction"}}, {"type": "node", "id": 702891806, "lat": 36.4674715, "lon": 29.1234183, "tags": {"email": "kabakmammashouse@gmail.com", "guest_house": "guest_house", "name": "Mamma's Kabak", "phone": "+90-555-604-3190", "tourism": "guest_house"}}, {"type": "node", "id": 702891842, "lat": 36.4662989, "lon": 29.1226547, "tags": {"guest_house": "pension", "internet_access": "yes", "internet_access:fee": "no", "name": "The Olive Garden", "operator": "Fatih Canözü", "phone": "+90-252-642-1083", "tourism": "guest_house", "website": "https://www.olivegardenkabak.com/"}}, {"type": "node", "id": 1817718209, "lat": 36.4675109, "lon": 29.124196, "tags": {"amenity": "cafe", "indoor_seating": "no", "name": "Deniz Restaurant", "outdoor_seating": "yes"}}, {"type": "node", "id": 3629427045, "lat": 36.4656275, "lon": 29.1216535, "tags": {"information": "guidepost", "tourism": "information"}}, {"type": "node", "id": 5365744821, "lat": 36.4651443, "lon": 29.1213108, "tags": {"addr:neighbourhood": "+90-530-946-8767", "name": "Kök kamping", "tourism": "camp_site"}}, {"type": "node", "id": 7928521485, "lat": 36.4656945, "lon": 29.1185918, "tags": {"addr:housenumber": "34", "addr:neighbourhood": "+90-532-553-0448", "addr:postcode": "48300", "addr:street": "Faralya mahallesi kabak caddesi no:34", "email": "bagcampkabak@gmail.com", "internet_access": "wlan", "name": "Bag Camp", "operator": "Osman", "phone": "+90-532-553-0448", "tourism": "camp_site"}}, {"type": "node", "id": 8581686717, "lat": 36.4657359, "lon": 29.1216215, "tags": {"email": "mandalakamp@gmail.com", "internet_access": "wlan", "name:en": "Mandala Camp Kabak", "phone": "+90-530-083-4800", "tourism": "guest_house"}}, {"type": "node", "id": 8666879201, "lat": 36.4661339, "lon": 29.1226601, "tags": {"amenity": "restaurant", "name": "Olive Garden Kabak", "website": "https://www.olivegardenkabak.com/"}}, {"type": "node", "id": 9225111817, "lat": 36.463404, "lon": 29.1226557, "tags": {"addr:neighbourhood": "+90-530-946-8767", "name:en": "Shambala", "tourism": "camp_site"}}, {"type": "node", "id": 10882904607, "lat": 36.4641489, "lon": 29.121488, "tags": {"addr:housenumber": "42/1", "addr:postcode": "48300", "addr:street": "Karapınar, Kabak", "email": "info@kabakutopya.com", "internet_access": "wlan", "name:en": "Kabak Utopya Suites", "opening_hours": "24/7", "phone": "+90533 658 96 48", "tourism": "hotel", "website": "https://kabakutopya.com/"}}, {"type": "node", "id": 11253200237, "lat": 36.4635701, "lon": 29.1203733, "tags": {"name:en": "Flavia Hotel", "tourism": "guest_house"}}, {"type": "node", "id": 11443714269, "lat": 36.4663317, "lon": 29.1226933, "tags": {"name": "Goat Bungalows", "tourism": "hotel"}}, {"type": "node", "id": 13264388401, "lat": 36.4655854, "lon": 29.1198932, "tags": {"name": "Kabak Armes Hotel", "tourism": "hotel", "website": "https://kabakarmesotel.com/"}}, {"type": "node", "id": 11634558269, "lat": 36.4724435, "lon": 29.1033764, "tags": {"name:en": "Beautiful rocks", "name:ru": "Выход на красивые скалы", "tourism": "attraction"}}, {"type": "node", "id": 8000879885, "lat": 36.4702248, "lon": 29.1046768, "tags": {"name:en": "Akburun", "tourism": "viewpoint"}}, {"type": "node", "id": 8000879985, "lat": 36.4695169, "lon": 29.108252, "tags": {"tourism": "viewpoint"}}, {"type": "node", "id": 8058619585, "lat": 36.4695978, "lon": 29.1082181, "tags": {"backcountry": "yes", "description:en": "Beautiful spot for camping(2р)", "tourism": "camp_site"}}, {"type": "node", "id": 2862553038, "lat": 36.4750516, "lon": 29.1032726, "tags": {"backcountry": "yes", "drinking_water": "no", "tents": "yes", "tourism": "camp_site"}}, {"type": "node", "id": 5953528585, "lat": 36.4762216, "lon": 29.1036375, "tags": {"contact:instagram": "rocas_roja", "email": "rocasrojascamping@gmail.com", "fee": "yes", "internet_access": "wlan", "name": "Rocas Roja", "name:es": "Rocas Rojas", "opening_hours": "24/7", "phone": "+90 549 749 57 48", "tents": "yes", "toilets": "yes", "tourism": "camp_site", "website": "http://www.rocasrojacamping.com"}}, {"type": "node", "id": 8675838759, "lat": 36.4805369, "lon": 29.1079878, "tags": {"addr:city": "Muğla", "addr:district": "Fethiye", "addr:neighbourhood": "Faralya, Kizilcakaya Mevkii No:171, 48300 Fethiye/Muğla", "addr:postcode": "48300", "addr:street": "Kizilcakaya Mevkii", "name": "Private beach, camping not allowed", "name:en": "Rups", "tourism": "attraction", "website": "https://rups.com.tr"}}, {"type": "node", "id": 8725171848, "lat": 36.4799581, "lon": 29.1081563, "tags": {"addr:city": "Muğla", "addr:district": "Fethiye", "addr:housenumber": "171", "addr:neighbourhood": "Uzunyurt, Kizilcakaya Mevkii No:171, 48300, Faralya", "addr:postcode": "48300", "addr:street": "Kızılcakaya", "amenity": "restaurant", "contact:instagram": "https://www.instagram.com/rupsbythesea/", "cuisine": "mediterranean", "name": "Rups By The Sea", "opening_hours": "Mo-Su 08:00-22:00", "phone": "+90 (544) 429 2740", "website": "https://rups.com.tr/"}}, {"type": "node", "id": 6480591095, "lat": 36.4698029, "lon": 29.1161136, "tags": {"natural": "spring"}}, {"type": "node", "id": 696012939, "lat": 36.4684008, "lon": 29.1234702, "tags": {"hiking": "yes", "information": "guidepost", "name": "Likya Yolu", "tourism": "information"}}, {"type": "node", "id": 4010210749, "lat": 36.4675991, "lon": 29.1238388, "tags": {"description": "dry (october 2021)\ndry (june 2023)", "drinking_water": "yes", "intermittent": "yes", "natural": "spring"}}, {"type": "node", "id": 8358150690, "lat": 36.4696518, "lon": 29.1238494, "tags": {"information": "guidepost", "tourism": "information"}}, {"type": "node", "id": 8729307663, "lat": 36.4676539, "lon": 29.1221944, "tags": {"name": "Toros", "name:en": "Toros", "name:ru": "Toros", "tourism": "camp_site"}}, {"type": "node", "id": 11342981969, "lat": 36.4801621, "lon": 29.1166411, "tags": {"fixme": "If the road is closed by the resort, this needs to be added as a barrier and access rules should be defined", "name": "yol kapalı", "name:en": "Road closed by Resort", "name:ru": "Дорога перекрыта резортом", "tourism": "information"}}, {"type": "node", "id": 11813628291, "lat": 36.4796331, "lon": 29.1126611, "tags": {"addr:city": "Muğla", "addr:district": "Fethiye", "addr:housenumber": "89", "addr:postcode": "48300", "addr:street": "Kızılcakaya Sokak", "amenity": "restaurant", "opening_hours": "Mo-Su 09:00-23:30", "phone": "+905320505494", "website": "https://taplink.cc/yigitoglurestaurant"}}, {"type": "node", "id": 11342884070, "lat": 36.4742889, "lon": 29.1224132, "tags": {"name:en": "Old wood", "name:ru": "Старое дерево", "tourism": "attraction"}}, {"type": "node", "id": 3629371721, "lat": 36.4607184, "lon": 29.1259621, "tags": {"information": "guidepost", "tourism": "information"}}, {"type": "node", "id": 10775586107, "lat": 36.4575735, "lon": 29.1253703, "tags": {"name:uk": "Місце для намету з гарним видом", "tourism": "camp_site"}}, {"type": "node", "id": 11909304270, "lat": 36.4584687, "lon": 29.1266146, "tags": {"description:ru": "Хороший спот рядом со скалой", "tourism": "camp_site"}}, {"type": "node", "id": 12237340001, "lat": 36.4571794, "lon": 29.1251306, "tags": {"name": "Place for one tent with view on a bay", "tourism": "camp_site"}}, {"type": "node", "id": 13363838787, "lat": 36.4607116, "lon": 29.1257908, "tags": {"information": "yes", "name:en": "it's forbidden to put tent, make fire, stay in forest at night by the laws", "name:ru": "Законодательством запрещено ставить палатку, разводить огонь, оставаться на ночь в лесу", "name:tr": "Orman bölgesinde çadır kurmak, ateş yakmak ve gecelemek yasaktır.", "tourism": "information"}}, {"type": "node", "id": 13363838788, "lat": 36.4606605, "lon": 29.1257908, "tags": {"name:en": "It is forbidden to put up a tent and make a bonfire on the beach", "name:ru": "Запрещено ставить палатку и разводить костёр на пляже", "name:tr": "Sahilde çadır kurmak ve ateş yakmak yasaktır", "tourism": "information"}}, {"type": "node", "id": 696012924, "lat": 36.4612503, "lon": 29.126779, "tags": {"amenity": "restaurant", "name": "Shanti Garden"}}, {"type": "node", "id": 1477840403, "lat": 36.4673847, "lon": 29.1244375, "tags": {"amenity": "cafe"}}, {"type": "node", "id": 1477840405, "lat": 36.4673609, "lon": 29.1270741, "tags": {"guest_house": "pension", "internet_access": "wlan", "internet_access:fee": "no", "name": "Fullmoon Village", "operator": "Metin Kocatepe", "phone": "+90-536-729-2238", "tourism": "guest_house", "website": "https://www.fullmooncamping.com/"}}, {"type": "node", "id": 2456089686, "lat": 36.4674133, "lon": 29.1243802, "tags": {"name": "Deniz Market", "shop": "convenience"}}, {"type": "node", "id": 2494714785, "lat": 36.461924, "lon": 29.1276569, "tags": {"addr:neighbourhood": "+90-534-323-8060", "name": "Secret Garden", "tourism": "camp_site"}}, {"type": "node", "id": 4010210748, "lat": 36.4656052, "lon": 29.1283013, "tags": {"drinking_water": "yes", "natural": "spring"}}, {"type": "node", "id": 5071072528, "lat": 36.4635335, "lon": 29.1274831, "tags": {"name": "Sultan Mini Market", "shop": "convenience"}}, {"type": "node", "id": 5584279326, "lat": 36.4632512, "lon": 29.1269514, "tags": {"shop": "convenience"}}, {"type": "node", "id": 5647446721, "lat": 36.4625026, "lon": 29.1295536, "tags": {"name:ru": "Указатель путей к водопаду", "tourism": "information"}}, {"type": "node", "id": 6051534785, "lat": 36.4635171, "lon": 29.1274451, "tags": {"amenity": "drinking_water"}}, {"type": "node", "id": 6616002759, "lat": 36.4620025, "lon": 29.1263101, "tags": {"name": "Chakra market", "opening_hours": "Season", "payment:cash": "yes", "payment:credit_cards": "yes", "shop": "supermarket"}}, {"type": "node", "id": 6852414385, "lat": 36.4610597, "lon": 29.1254036, "tags": {"name:ru": "Бухта Кабак", "tourism": "attraction"}}, {"type": "node", "id": 6964761552, "lat": 36.4631974, "lon": 29.1268466, "tags": {"access": "no", "addr:city": "Fethiye", "addr:district": "Faralya", "addr:neighbourhood": "Faralya Köyü Kabak Mah. Kabak Koyu Fethiye, Kabak,", "addr:postcode": "48300", "capacity": "50", "charge": "100.00 TRY", "fee": "yes", "internet_access": "yes", "internet_access:fee": "yes", "name": "Kabak Valley Kamp", "natural": "spring", "operator": "Kabak Valley Kamp", "payment:cash": "yes", "payment:credit_cards": "yes", "payment:maestro": "yes", "payment:visa": "yes", "tourism": "camp_site"}}, {"type": "node", "id": 8725199028, "lat": 36.4635917, "lon": 29.1284625, "tags": {"fee": "yes", "name": "Reflections camping", "tourism": "camp_site"}}, {"type": "node", "id": 9083184417, "lat": 36.4623637, "lon": 29.1287499, "tags": {"internet_access": "wlan", "name:en": "Famous Camping", "tourism": "camp_site"}}, {"type": "node", "id": 9399496517, "lat": 36.463619, "lon": 29.1264481, "tags": {"internet_access": "wlan", "name": "Lukka camp", "name:ru": "Кемпинг Лукка", "phone": "+90 535 357 21 15", "tourism": "camp_site"}}, {"type": "node", "id": 11391839369, "lat": 36.4623261, "lon": 29.1266647, "tags": {"name": "Natural Life kabak", "tourism": "camp_site"}}, {"type": "node", "id": 11897092069, "lat": 36.4620366, "lon": 29.1271544, "tags": {"addr:street": "Kabak", "internet_access": "wlan", "name:en": "Saucy Bites", "opening_hours": "24/7", "tourism": "camp_site"}}, {"type": "node", "id": 11904731769, "lat": 36.4647727, "lon": 29.1251052, "tags": {"tourism": "viewpoint"}}, {"type": "node", "id": 13184509954, "lat": 36.4622894, "lon": 29.1262235, "tags": {"name": "Lilith Pan Bungalows", "tourism": "hotel"}}, {"type": "node", "id": 13250096801, "lat": 36.463552, "lon": 29.1275439, "tags": {"amenity": "restaurant", "cuisine": "turkish", "outdoor_seating": "yes"}}, {"type": "node", "id": 13315867101, "lat": 36.4635075, "lon": 29.127463, "tags": {"addr:housenumber": "6/1", "addr:postcode": "48300", "addr:street": "Kabak", "internet_access": "wlan", "name:en": "Sultan Market", "name:tr": "Sultan Market", "opening_hours": "Su-Sa 09:00-00:00", "phone": "5303236719", "shop": "convenience"}}, {"type": "node", "id": 13315867102, "lat": 36.4612275, "lon": 29.1249718, "tags": {"addr:street": "Kabak", "name:en": "Boat taxi", "name:tr": "Tekne Turu Cennet Koyu", "opening_hours": "Su-Sa 09:00-16:00", "phone": "+905303097704", "tourism": "information"}}, {"type": "node", "id": 696012942, "lat": 36.4588705, "lon": 29.1436452, "tags": {"description": "bad water", "drinking_water:signed": "no", "man_made": "water_well", "name": "Cistern"}}, {"type": "node", "id": 8100306217, "lat": 36.4546105, "lon": 29.1420494, "tags": {"amenity": "cafe", "fixme": "What does self-service café mean? Is there an actual establishment here?", "indoor_seating": "no", "name": "Self service cafe", "name:en": "Self service cafe", "name:ru": "Кафе самообслуживания", "opening_hours": "24/7", "outdoor_seating": "yes"}}, {"type": "node", "id": 9442845654, "lat": 36.4546051, "lon": 29.1419546, "tags": {"amenity": "shelter", "shelter_type": "gazebo"}}, {"type": "node", "id": 11942239069, "lat": 36.4587488, "lon": 29.1437127, "tags": {"amenity": "cafe", "indoor_seating": "no", "name": "Self-service cafe", "opening_hours": "24/7", "outdoor_seating": "yes"}}, {"type": "node", "id": 696012944, "lat": 36.4632994, "lon": 29.1436682, "tags": {"tourism": "viewpoint", "water": "no"}}, {"type": "node", "id": 6533866087, "lat": 36.4668404, "lon": 29.1431496, "tags": {"tourism": "viewpoint"}}, {"type": "node", "id": 8750414917, "lat": 36.4661555, "lon": 29.1396614, "tags": {"name": "Kabak Valley viewpoint", "name:en": "Kabak Valley viewpoint", "name:ru": "Вид на море с выступом. Место привалов", "name:uk": "Вид на море з виступу. Місце привалів", "tourism": "viewpoint"}}, {"type": "node", "id": 10777408905, "lat": 36.4658258, "lon": 29.1436048, "tags": {"tents": "yes", "tourism": "camp_site"}}, {"type": "node", "id": 12478481331, "lat": 36.4658389, "lon": 29.1435878, "tags": {"amenity": "cafe", "name": "Self", "outdoor_seating": "yes"}}, {"type": "node", "id": 12522429525, "lat": 36.46329, "lon": 29.14383, "tags": {"tourism": "camp_site"}}, {"type": "node", "id": 1979812129, "lat": 36.466023, "lon": 29.1438955, "tags": {"description": "bad water", "man_made": "water_well", "name": "Cistern"}}, {"type": "node", "id": 1477832405, "lat": 36.4676996, "lon": 29.1251188, "tags": {"amenity": "parking"}}, {"type": "node", "id": 2456089684, "lat": 36.4689852, "lon": 29.1244678, "tags": {"drinking_water:signed": "no", "name": "Kabak camisi", "name:en": "Kabak mosque", "name:tr": "kabak koyu", "natural": "spring"}}, {"type": "node", "id": 6185867785, "lat": 36.4677729, "lon": 29.1262532, "tags": {"internet_access": "wlan", "name:en": "Christinas Tatoo House", "operator": "Bariş", "tourism": "guest_house"}}, {"type": "node", "id": 8701699517, "lat": 36.4680418, "lon": 29.1328897, "tags": {"tourism": "viewpoint"}}, {"type": "node", "id": 696012948, "lat": 36.4799762, "lon": 29.1299235, "tags": {"description": "almost dry (October 2021)", "intermittent": "yes", "natural": "spring"}}, {"type": "node", "id": 10775082505, "lat": 36.4782553, "lon": 29.1258355, "tags": {"tourism": "picnic_site"}}, {"type": "node", "id": 11906771770, "lat": 36.4778979, "lon": 29.1251148, "tags": {"amenity": "cafe"}}, {"type": "node", "id": 13259901702, "lat": 36.4782353, "lon": 29.1257441, "tags": {"backcountry": "yes", "description": "Multiple plateaus with flat green surface. ideal for couple tents. great sea and mountain view. directly next to track", "fee": "no", "tents": "yes", "tourism": "camp_site"}}, {"type": "node", "id": 5647433822, "lat": 36.4687595, "lon": 29.1433368, "tags": {"name": "Pointer to the descent to the waterfall", "name:en": "Pointer to the descent to the waterfall", "name:ru": "Указатель спуска к водопаду", "tourism": "information"}}, {"type": "node", "id": 6964543833, "lat": 36.4718863, "lon": 29.1420134, "tags": {"amenity": "drinking_water", "bottle": "no", "fixme": "If it's not providing drinking water, this node should be deleted.", "fountain": "drinking"}}, {"type": "node", "id": 12478481327, "lat": 36.4687992, "lon": 29.1424043, "tags": {"caravans": "no", "fee": "no", "static_caravans": "no", "tents": "yes", "tourism": "camp_site"}}, {"type": "node", "id": 8100306017, "lat": 36.4728104, "lon": 29.1452753, "tags": {"intermittent": "yes", "natural": "spring"}}, {"type": "node", "id": 8669292917, "lat": 36.4690354, "lon": 29.1460441, "tags": {"tourism": "viewpoint"}}, {"type": "node", "id": 8725488719, "lat": 36.4677594, "lon": 29.1456471, "tags": {"name:uk": "Вид на долину з виступу скелі", "tourism": "viewpoint"}}, {"type": "node", "id": 12294356609, "lat": 36.4701767, "lon": 29.1450643, "tags": {"intermittent": "yes", "natural": "spring"}}, {"type": "node", "id": 12452836432, "lat": 36.47143, "lon": 29.14448, "tags": {"tourism": "camp_site"}}, {"type": "node", "id": 9091688769, "lat": 36.4837321, "lon": 29.1099828, "tags": {"name": "Zakros Hotel Lykia", "tourism": "hotel"}}, {"type": "node", "id": 11059863449, "lat": 36.4815252, "lon": 29.1085717, "tags": {"addr:city": "Fethiye", "addr:neighbourhood": "Uzunyurt, Kizilcakaya Mevkii, D:87,", "addr:postcode": "48300", "air_conditioning": "yes", "bar": "yes", "email": "bilgi@perdue.com.tr", "internet_access": "yes", "internet_access:fee": "customers", "name": "Perdue Hotel", "phone": "+90 (252) 614 009", "rooms": "17", "tourism": "hotel", "website": "https://perdue.com.tr/"}}, {"type": "node", "id": 11059886516, "lat": 36.4808101, "lon": 29.1084321, "tags": {"addr:city": "Fethiye", "addr:neighbourhood": "Uzunyurt, Kizilcakaya Mevkii, D:88, 48300", "addr:postcode": "48300", "email": "bilgi@nautical.com.tr", "internet_access": "yes", "internet_access:fee": "customers", "name": "Nautical Hotel", "rooms": "19", "tourism": "hotel", "website": "https://nautical.com.tr/"}}, {"type": "node", "id": 12302175579, "lat": 36.4815273, "lon": 29.1096891, "tags": {"description": "there's not way", "name": "There wasn't", "tourism": "information"}}, {"type": "node", "id": 4176275417, "lat": 36.48293, "lon": 29.1129005, "tags": {"amenity": "drinking_water", "description": "there was not water, abondened"}}, {"type": "node", "id": 5650177421, "lat": 36.4819123, "lon": 29.114233, "tags": {"addr:housenumber": "95", "addr:postcode": "48000", "addr:street": "Kizilcikaya cad", "email": "mrtandempilot@gmail.com", "internet_access": "wlan", "name": "Jj nin yeri", "name:en": "Jj s place", "operator": "ceyhun", "phone": "05364616674", "tourism": "hostel"}}, {"type": "node", "id": 6045632698, "lat": 36.4810867, "lon": 29.1120472, "tags": {"natural": "spring"}}, {"type": "node", "id": 8806578417, "lat": 36.4822004, "lon": 29.1120877, "tags": {"backcountry": "yes", "tourism": "camp_site"}}, {"type": "node", "id": 9091702152, "lat": 36.4818739, "lon": 29.1126085, "tags": {"name": "Faralya Botanica", "tourism": "hotel"}}, {"type": "node", "id": 13286980001, "lat": 36.4816377, "lon": 29.1117084, "tags": {"tents": "yes", "tourism": "camp_site"}}, {"type": "node", "id": 1811756959, "lat": 36.4849694, "lon": 29.1205395, "tags": {"name": "Mandarin Boutique Hotel", "tourism": "hotel"}}, {"type": "node", "id": 1979812131, "lat": 36.4858841, "lon": 29.1209371, "tags": {"natural": "spring"}}, {"type": "node", "id": 1536425119, "lat": 36.4872774, "lon": 29.1221138, "tags": {"name": "Faralya Hotel", "tourism": "hotel"}}, {"type": "node", "id": 4010210750, "lat": 36.4935747, "lon": 29.1228932, "tags": {"drinking_water": "yes", "natural": "spring"}}, {"type": "node", "id": 8725156712, "lat": 36.4903808, "lon": 29.1233382, "tags": {"amenity": "drinking_water"}}, {"type": "node", "id": 9890134718, "lat": 36.4935745, "lon": 29.1229455, "tags": {"amenity": "drinking_water", "description": "dry, abandoned, there wasn't water in October 24"}}, {"type": "node", "id": 6533866086, "lat": 36.4945831, "lon": 29.1218512, "tags": {"name:en": "Viewpoint to Butterfly beach", "tourism": "viewpoint"}}, {"type": "node", "id": 8000879785, "lat": 36.4949684, "lon": 29.11959, "tags": {"name": "Villa Farfalla Faralya", "tourism": "chalet"}}, {"type": "node", "id": 11230611064, "lat": 36.4955239, "lon": 29.118936, "tags": {"direction": "60", "tourism": "viewpoint"}}, {"type": "node", "id": 10775082405, "lat": 36.4829169, "lon": 29.1287458, "tags": {"name:uk": "Гарний краєвид", "tourism": "viewpoint"}}, {"type": "node", "id": 3612997069, "lat": 36.4843916, "lon": 29.134406, "tags": {"information": "guidepost", "name": "Yellow guidepost", "tourism": "information"}}, {"type": "node", "id": 4818292820, "lat": 36.4909689, "lon": 29.1304306, "tags": {"impromptu": "yes", "tourism": "camp_site"}}, {"type": "node", "id": 10774919105, "lat": 36.4889214, "lon": 29.1302973, "tags": {"name:uk": "Кемпінг з видом на Бабадаг (1969)", "tourism": "camp_site"}}, {"type": "node", "id": 696012949, "lat": 36.4919041, "lon": 29.1337026, "tags": {"hiking": "yes", "information": "guidepost", "name": "Likya Yolu", "tourism": "information"}}, {"type": "node", "id": 1979812132, "lat": 36.4923702, "lon": 29.1319764, "tags": {"amenity": "drinking_water", "natural": "spring"}}, {"type": "node", "id": 1979812133, "lat": 36.493434, "lon": 29.1343755, "tags": {"drinking_water:signed": "no", "intermittent": "no", "natural": "spring"}}, {"type": "node", "id": 3612977964, "lat": 36.4879481, "lon": 29.1311042, "tags": {"description:ru": "Развилка дает возмлжность пойти ваерх по более сложной тропе, или внизу по простой дороге", "information": "guidepost", "name:ru": "Разветвление тропы", "tourism": "information"}}, {"type": "node", "id": 9220812217, "lat": 36.4924299, "lon": 29.13216, "tags": {"amenity": "cafe", "name:en": "Ottoman gozleme evi", "name:ru": "Ottoman вкусные лепешки и чай"}}, {"type": "node", "id": 10586944563, "lat": 36.4936858, "lon": 29.1354475, "tags": {"email": "faralyamisafirevi@gmail.com", "guest_house": "pension", "internet_access": "yes", "internet_access:fee": "no", "name": "Faralya Guest House", "operator": "Emre", "phone": "+90-553-434-0158", "tourism": "guest_house"}}, {"type": "node", "id": 4910639246, "lat": 36.4845201, "lon": 29.1436706, "tags": {"description": "Very big and good camping area in the forest.", "tourism": "camp_site"}}, {"type": "node", "id": 3614786646, "lat": 36.4848107, "lon": 29.1495337, "tags": {"intermittent": "yes", "name": "Yağullu çesmesi", "name:en": "Yağullu spring", "natural": "spring"}}, {"type": "node", "id": 3614786647, "lat": 36.4848245, "lon": 29.1496344, "tags": {"information": "guidepost", "tourism": "information"}}, {"type": "node", "id": 4910639487, "lat": 36.4845456, "lon": 29.1494535, "tags": {"description": "A lot of big turtles. Walk carefully", "name": "Turtles", "tourism": "attraction"}}, {"type": "node", "id": 4910639489, "lat": 36.4845964, "lon": 29.1444374, "tags": {"description": "Good spot for forest camp", "tourism": "camp_site"}}, {"type": "node", "id": 3612954456, "lat": 36.4914084, "lon": 29.1379554, "tags": {"name": "\"Oleander\" Spring", "name:de": "Oleander-Quelle", "natural": "spring"}}, {"type": "node", "id": 676515551, "lat": 36.4974686, "lon": 29.1271717, "tags": {"backcountry": "no", "camp_site": "reception", "caravans": "no", "charge": "50.00 TRY", "fee": "yes", "group_only": "yes", "name": "Kelebekler Vadisi", "name:en": "Butterfly Valley", "name:tr": "Kelebekler Vadisi", "openfire": "no", "tents": "yes", "tourism": "camp_site", "website": "https://www.geziyerler.com/kelebekler-vadisi", "wikidata": "Q6098733", "wikimedia_commons": "Category:Butterfly Valley (Muğla)", "wikipedia": "tr:Kelebekler Vadisi", "wikipedia:en": "Butterfly_Valley,_Fethiye", "wikipedia:tr": "Kelebekler_Vadisi"}}, {"type": "node", "id": 4910056831, "lat": 36.4957445, "lon": 29.1298189, "tags": {"backcountry": "yes", "fee": "no", "tourism": "camp_site"}}, {"type": "node", "id": 5140899921, "lat": 36.5002863, "lon": 29.12814, "tags": {"name:en": "Butterfly Valley Viewpoint", "tourism": "viewpoint"}}, {"type": "node", "id": 8002184385, "lat": 36.4954053, "lon": 29.1260189, "tags": {"tourism": "viewpoint"}}, {"type": "node", "id": 8043708085, "lat": 36.4951126, "lon": 29.1261081, "tags": {"backcountry": "yes", "tourism": "camp_site"}}, {"type": "node", "id": 8118456843, "lat": 36.4958923, "lon": 29.1296711, "tags": {"tourism": "viewpoint"}}, {"type": "node", "id": 8536826617, "lat": 36.4946437, "lon": 29.125162, "tags": {"backcountry": "yes", "tourism": "camp_site"}}, {"type": "node", "id": 8725167628, "lat": 36.4949387, "lon": 29.1271326, "tags": {"backcountry": "yes", "tourism": "camp_site"}}, {"type": "node", "id": 8804035221, "lat": 36.4950564, "lon": 29.1307252, "tags": {"backcountry": "yes", "tourism": "camp_site"}}, {"type": "node", "id": 9489766940, "lat": 36.4944853, "lon": 29.12433, "tags": {"backcountry": "yes", "tourism": "camp_site"}}, {"type": "node", "id": 10029214230, "lat": 36.4981208, "lon": 29.1272627, "tags": {"amenity": "cafe"}}, {"type": "node", "id": 13250096702, "lat": 36.4938487, "lon": 29.1270237, "tags": {"description": "Место под 2 палатки с хорошим видом", "tourism": "camp_site"}}, {"type": "node", "id": 684154443, "lat": 36.4939197, "lon": 29.1362588, "tags": {"guest_house": "pension", "name": "Onur Motel", "operator": "Bora Çakır", "phone": "+90-546-470-4477/+90-252-642-1162", "tourism": "guest_house", "website": "http://www.onurmotelfaralya.com/"}}, {"type": "node", "id": 769898452, "lat": 36.4956956, "lon": 29.134933, "tags": {"tourism": "viewpoint"}}, {"type": "node", "id": 2456031545, "lat": 36.4949725, "lon": 29.1361936, "tags": {"natural": "spring"}}, {"type": "node", "id": 3617166132, "lat": 36.4986862, "lon": 29.1363314, "tags": {"note": "Great view of the waterfall above Butterfly Valley", "tourism": "viewpoint"}}, {"type": "node", "id": 5140912023, "lat": 36.4955575, "lon": 29.1318226, "tags": {"tourism": "viewpoint"}}, {"type": "node", "id": 6018465087, "lat": 36.4939345, "lon": 29.1354765, "tags": {"amenity": "restaurant", "cuisine": "turkish", "name": "Zakkum"}}, {"type": "node", "id": 8329475920, "lat": 36.496183, "lon": 29.1371197, "tags": {"fee": "no", "tourism": "camp_site"}}, {"type": "node", "id": 8759566817, "lat": 36.4963295, "lon": 29.1371329, "tags": {"name": "Muğla Belediyesi Seyir Terası", "tourism": "viewpoint"}}, {"type": "node", "id": 8867619417, "lat": 36.4953995, "lon": 29.1366793, "tags": {"backcountry": "yes", "fee": "no", "tourism": "camp_site"}}, {"type": "node", "id": 9798192804, "lat": 36.4961641, "lon": 29.1372499, "tags": {"amenity": "parking", "capacity": "20", "fee": "no"}}, {"type": "node", "id": 10586944560, "lat": 36.4945602, "lon": 29.1358872, "tags": {"guest_house": "guest_house", "internet_access": "yes", "internet_access:fee": "no", "name": "Montenegro Motel", "operator": "Bayram", "phone": "+90-252-642-1177/+90-536-390-1297", "tourism": "guest_house", "website": "https://www.montenegromotel.com/"}}, {"type": "node", "id": 11342908569, "lat": 36.495974, "lon": 29.1343101, "tags": {"tourism": "viewpoint"}}, {"type": "node", "id": 11948610681, "lat": 36.4956596, "lon": 29.1330314, "tags": {"tourism": "viewpoint"}}, {"type": "node", "id": 13184499134, "lat": 36.4942473, "lon": 29.1362808, "tags": {"amenity": "bench", "backrest": "yes", "covered": "yes", "leisure": "picnic_table", "material": "wood", "seats": "30"}}, {"type": "node", "id": 1979812135, "lat": 36.5005565, "lon": 29.1282079, "tags": {"natural": "spring"}}, {"type": "node", "id": 9764146017, "lat": 36.5019667, "lon": 29.1251732, "tags": {"tourism": "viewpoint"}}, {"type": "node", "id": 519474670, "lat": 36.4967107, "lon": 29.1416815, "tags": {"addr:city": "Uzunyurt / Fethiye", "addr:housenumber": "4", "addr:postcode": "48300", "addr:street": "Hisar Mah.", "name": "Die Wassermühle", "name:en": "The Watermill", "operator": "Brigitte Özbali", "phone": "+90 (252) 642 12 45", "smoking": "outside", "tourism": "hotel", "website": "https://wassermuehle-hotel.com/"}}, {"type": "node", "id": 519474671, "lat": 36.4962859, "lon": 29.1399748, "tags": {"description": "Good and cheap restaurant for campers. Lovely peoples", "email": "semerci-87@hotmail.com", "guest_house": "pension", "name": "Gül Pension", "operator": "Işık / Necla", "phone": "+90-252-642-1145/+90-538-989-8410", "tourism": "guest_house", "website": "https://www.gulpensiyon.com/"}}, {"type": "node", "id": 695993681, "lat": 36.4964628, "lon": 29.1401943, "tags": {"hiking": "yes", "information": "guidepost", "name": "Likya Yolu", "tourism": "information"}}, {"type": "node", "id": 1979812134, "lat": 36.4961289, "lon": 29.139914, "tags": {"natural": "spring"}}, {"type": "node", "id": 2984790459, "lat": 36.495066, "lon": 29.1374854, "tags": {"amenity": "restaurant", "contact:facebook": "https://www.facebook.com/people/Kelebek-Restaurant/100032431401113/", "contact:mobile": "+90 536 427 00 45", "name": "Kelebek Restaurant"}}, {"type": "node", "id": 3613037495, "lat": 36.4970179, "lon": 29.1415461, "tags": {"amenity": "drinking_water", "natural": "spring"}}, {"type": "node", "id": 5159268117, "lat": 36.4961383, "lon": 29.138692, "tags": {"addr:city": "Faralya Fethiye Muğla", "addr:housenumber": "9", "addr:street": "Hisar Mah.", "email": "info@melisapension.com", "guest_house": "pension", "internet_access": "wlan", "internet_access:fee": "no", "name": "Melisa Pension", "operator": "Mehmet Kole", "phone": "+90-252-642-1012/+90-535-881-9051", "rooms": "6", "tourism": "guest_house", "website": "http://www.melisapension.com/"}}, {"type": "node", "id": 8096755517, "lat": 36.496186, "lon": 29.1398845, "tags": {"name": "Gül Market", "shop": "convenience"}}, {"type": "node", "id": 8666795683, "lat": 36.4950938, "lon": 29.1373648, "tags": {"email": "keyifmotel@gmail.com", "guest_house": "pension", "internet_access": "yes", "internet_access:fee": "no", "name": "Keyif Motel", "operator": "Recep", "phone": "+90-536-880-9903", "tourism": "guest_house"}}, {"type": "node", "id": 8914032576, "lat": 36.4967494, "lon": 29.139483, "tags": {"name": "Pure Life Villas", "phone": "+905302380148", "tourism": "hotel", "website": "https://www.purelifevillas.com/"}}, {"type": "node", "id": 9490219204, "lat": 36.4961997, "lon": 29.1375333, "tags": {"amenity": "drinking_water", "operator": "ask the owner"}}, {"type": "node", "id": 9798199133, "lat": 36.4962509, "lon": 29.1375715, "tags": {"amenity": "cafe"}}, {"type": "node", "id": 10219993017, "lat": 36.4954345, "lon": 29.1378089, "tags": {"amenity": "cafe", "internet_access": "wlan", "name:en": "Kelebek restaurant"}}, {"type": "node", "id": 11328454755, "lat": 36.4971414, "lon": 29.1394688, "tags": {"natural": "spring"}}, {"type": "node", "id": 11342905070, "lat": 36.4969431, "lon": 29.1387185, "tags": {"name:ru": "Терасса заброшенного дома для 3 палаток", "tourism": "camp_site"}}, {"type": "node", "id": 12544245401, "lat": 36.4977775, "lon": 29.1426312, "tags": {"backcountry": "yes", "name:ru": "1-2 палатки, с небольшим уклоном.", "tents": "yes", "tourism": "camp_site"}}, {"type": "node", "id": 13397473201, "lat": 36.4956945, "lon": 29.139053, "tags": {"amenity": "cafe", "cuisine": "turkish", "internet_access": "wlan", "name": "Hikersinn", "name:en": "Hikersinn", "outdoor_seating": "yes"}}, {"type": "node", "id": 13514189901, "lat": 36.4973187, "lon": 29.142063, "tags": {"name": "29jan 2026. impossible to walk through due to rapid stream", "tourism": "information"}}, {"type": "node", "id": 12452839043, "lat": 36.50064, "lon": 29.14209, "tags": {"tourism": "camp_site"}}, {"type": "node", "id": 8491063520, "lat": 36.505213, "lon": 29.1484749, "tags": {"backcountry": "yes", "tourism": "camp_site"}}, {"type": "node", "id": 11035469238, "lat": 36.5022445, "lon": 29.1439616, "tags": {"amenity": "drinking_water", "check_date": "2026-01", "fountain": "drinking"}}, {"type": "node", "id": 11328441525, "lat": 36.5047665, "lon": 29.1491338, "tags": {"drinking_water": "yes", "man_made": "water_tap", "natural": "spring"}}, {"type": "node", "id": 3278325296, "lat": 36.3336692, "lon": 29.2016109, "tags": {"name": "Karadere Park Orman", "opening_hours": "24/7", "operator": "Mehmet Batıbay/Meltem", "phone": "+90-532-324-5312", "tourism": "camp_site", "website": "https://www.facebook.com/karaderepark/"}}, {"type": "node", "id": 6906266403, "lat": 36.3340547, "lon": 29.2021231, "tags": {"name": "Karadere Park Orman", "opening_hours": "24/7", "phone": "+90 536 238 91 16", "tourism": "guest_house", "website": "https://www.facebook.com/karaderepark/"}}, {"type": "node", "id": 11909304369, "lat": 36.3450246, "lon": 29.1894588, "tags": {"name:en": "View", "name:ru": "Обзорная площадка", "tourism": "viewpoint"}}, {"type": "node", "id": 4818419780, "lat": 36.3406729, "lon": 29.1933136, "tags": {"content": "water", "description": "cistern", "man_made": "storage_tank", "material": "concrete", "name": "Bad water", "natural": "spring"}}, {"type": "node", "id": 5562043988, "lat": 36.3381066, "lon": 29.1951283, "tags": {"tourism": "viewpoint"}}, {"type": "node", "id": 8637284017, "lat": 36.3415636, "lon": 29.1930955, "tags": {"tourism": "picnic_site"}}, {"type": "node", "id": 10596467963, "lat": 36.3416165, "lon": 29.1929575, "tags": {"amenity": "shelter", "shelter": "no"}}, {"type": "node", "id": 10886331891, "lat": 36.3416282, "lon": 29.1931534, "tags": {"tourism": "camp_site"}}, {"type": "node", "id": 13266292701, "lat": 36.3403762, "lon": 29.1933815, "tags": {"backcountry": "yes", "capacity:tents": "2", "tents": "yes", "tourism": "camp_site"}}, {"type": "node", "id": 13266292702, "lat": 36.3402471, "lon": 29.19331, "tags": {"backcountry": "yes", "capacity:tents": "1", "tents": "yes", "tourism": "camp_site"}}, {"type": "node", "id": 13266295901, "lat": 36.3397411, "lon": 29.1928404, "tags": {"backcountry": "yes", "capacity:tents": "4", "tents": "yes", "tourism": "camp_site"}}, {"type": "node", "id": 2984797408, "lat": 36.3379059, "lon": 29.2006981, "tags": {"email": "buyukluoglu@hotmail.com", "name": "Candan's Garden", "phone": "+90 850 532 07 33", "tourism": "guest_house"}}, {"type": "node", "id": 12308985482, "lat": 36.3388364, "lon": 29.1997097, "tags": {"amenity": "cafe", "description": "free campsite, lunch, dinner, , hot&cold drinks, shower, wc", "name": "Zeynep", "phone": "+905438653574", "website": "zeyneperkan731"}}, {"type": "node", "id": 697076655, "lat": 36.3341391, "lon": 29.2035036, "tags": {"natural": "spring"}}, {"type": "node", "id": 4818431224, "lat": 36.330694, "lon": 29.2066724, "tags": {"amenity": "drinking_water", "description": "Fountain with water tap.", "name": "Старый (не работает)"}}, {"type": "node", "id": 6480590876, "lat": 36.3338186, "lon": 29.2066661, "tags": {"amenity": "shelter"}}, {"type": "node", "id": 7312267162, "lat": 36.3349098, "lon": 29.2045538, "tags": {"amenity": "drinking_water"}}, {"type": "node", "id": 8689600717, "lat": 36.3356833, "lon": 29.204085, "tags": {"amenity": "drinking_water", "man_made": "water_tap", "name:en": "Drinking water (outside culture (religious) place)", "name:it": "Acqua potabile (nel luogo di cultura)"}}, {"type": "node", "id": 8764958417, "lat": 36.3311013, "lon": 29.206044, "tags": {"tourism": "viewpoint"}}, {"type": "node", "id": 9590193417, "lat": 36.3347411, "lon": 29.2042748, "tags": {"addr:street": "Gavurağılı", "internet_access": "wlan", "name": "Likya Inn", "name:tr": "Likya Inn", "phone": "+905326165145", "tourism": "hotel", "website": "https://www.facebook.com/Likya-Inn-100953674644608/"}}, {"type": "node", "id": 10657501159, "lat": 36.335819, "lon": 29.2031045, "tags": {"leisure": "picnic_table"}}, {"type": "node", "id": 10657501163, "lat": 36.3353831, "lon": 29.2041382, "tags": {"amenity": "shelter", "shelter_type": "gazebo"}}, {"type": "node", "id": 10886227500, "lat": 36.3353875, "lon": 29.2041018, "tags": {"tourism": "picnic_site"}}, {"type": "node", "id": 11139482305, "lat": 36.3358311, "lon": 29.2086527, "tags": {"addr:city": "Muğla", "addr:district": "Seydikemer", "addr:housenumber": "35", "addr:neighbourhood": "Pydnai Village Karadere", "addr:postcode": "48360", "addr:street": "Pınarcık Caddesi", "air_conditioning": "yes", "contact:instagram": "pydnai_village", "name": "Pydnai Village", "name:ru": "Пиднаи эко бунгало", "operator": "Pydnai Village", "payment:cash": "yes", "payment:credit_cards": "yes", "payment:debit_cards": "yes", "payment:visa": "yes", "phone": "+90 0536 8986057", "reservation": "yes", "tourism": "chalet", "website:booking": "https://www.airbnb.com/rooms/962728071830710343"}}, {"type": "node", "id": 13267424355, "lat": 36.3355166, "lon": 29.2040823, "tags": {"hiking": "yes", "information": "guidepost", "tourism": "information"}}, {"type": "node", "id": 13324681501, "lat": 36.3330833, "lon": 29.2056549, "tags": {"amenity": "shelter"}}, {"type": "node", "id": 312381670, "lat": 36.3288246, "lon": 29.2276185, "tags": {"amenity": "parking"}}, {"type": "node", "id": 697076905, "lat": 36.3291735, "lon": 29.2271212, "tags": {"hiking": "yes", "information": "guidepost", "name": "Likya Yolu", "tourism": "information"}}, {"type": "node", "id": 8725157222, "lat": 36.3289992, "lon": 29.2269744, "tags": {"amenity": "restaurant", "cuisine": "turkish", "description": "Плохо, очень долго и дорого. Отвратительное место", "internet_access": "wlan", "name": "Patara Green Park", "name:ru": "Ресторан закрыт(туалет, вода, розетки - в свободном доступе)", "opening_hours": "Mo-Su 09:00-21:00", "website": "http://pataragreenpark.com"}}, {"type": "node", "id": 10657501165, "lat": 36.3298785, "lon": 29.2259581, "tags": {"backcountry": "yes", "name": "Стоянка на песке", "tourism": "camp_site"}}, {"type": "node", "id": 10755422705, "lat": 36.3289788, "lon": 29.2240287, "tags": {"name": "Не оставляйте вещи без присмотра", "name:en": "Don’t leave your stuff", "name:ru": "Чобаны", "tourism": "camp_site"}}, {"type": "node", "id": 13250096804, "lat": 36.3295512, "lon": 29.2271971, "tags": {"shop": "convenience"}}, {"type": "node", "id": 13655985404, "lat": 36.3282717, "lon": 29.2276634, "tags": {"tourism": "camp_site"}}, {"type": "node", "id": 5584279322, "lat": 36.3347496, "lon": 29.218573, "tags": {"name:ru": "Смотровая площадка", "tourism": "viewpoint"}}, {"type": "node", "id": 5948212531, "lat": 36.3356094, "lon": 29.2193792, "tags": {"tourism": "viewpoint"}}, {"type": "node", "id": 13264897902, "lat": 36.3320433, "lon": 29.2269348, "tags": {"fee": "yes", "internet_access": "wlan", "name": "Likya Garden Life", "phone": "+90-536-238-9116", "shower": "yes", "tents": "yes", "tourism": "camp_site", "washing_machine": "yes"}}, {"type": "node", "id": 697076700, "lat": 36.3365297, "lon": 29.2157805, "tags": {"intermittent": "yes", "natural": "spring"}}, {"type": "node", "id": 13655187901, "lat": 36.3368438, "lon": 29.217043, "tags": {"amenity": "drinking_water"}}, {"type": "node", "id": 697076867, "lat": 36.3341686, "lon": 29.2298458, "tags": {"hiking": "yes", "information": "guidepost", "name": "Likya Yolu", "tourism": "information"}}, {"type": "node", "id": 7637850785, "lat": 36.3347215, "lon": 29.2378742, "tags": {"description": "демократичные цены, с завтраком\n2023 - closed", "name": "Özlen pansiyon&camping closed", "phone": "+905422178400", "tourism": "guest_house"}}, {"type": "node", "id": 8689980717, "lat": 36.3349261, "lon": 29.244301, "tags": {"amenity": "drinking_water"}}, {"type": "node", "id": 6372834915, "lat": 36.3351966, "lon": 29.2513321, "tags": {"name:ru": "Питьевой фонтан (краны)", "natural": "spring"}}, {"type": "node", "id": 8689977318, "lat": 36.3345019, "lon": 29.2534115, "tags": {"amenity": "drinking_water"}}, {"type": "node", "id": 8785074571, "lat": 36.3346765, "lon": 29.2532502, "tags": {"amenity": "drinking_water"}}, {"type": "node", "id": 7322337787, "lat": 36.3366219, "lon": 29.2317388, "tags": {"tourism": "viewpoint"}}, {"type": "node", "id": 9392169914, "lat": 36.3703173, "lon": 29.171258, "tags": {"name": "Water oasis (spring)", "natural": "spring"}}, {"type": "node", "id": 12733998401, "lat": 36.3735328, "lon": 29.1731419, "tags": {"name": "Место под палатку, рядом колодец", "tourism": "camp_site"}}, {"type": "node", "id": 12733999201, "lat": 36.3735614, "lon": 29.172467, "tags": {"man_made": "water_well", "name": "Колодец с ведром"}}, {"type": "node", "id": 12733999301, "lat": 36.3718528, "lon": 29.1720931, "tags": {"name": "Место под палатку с видом на море, но утром могут пасти коз", "tourism": "camp_site"}}, {"type": "node", "id": 697076879, "lat": 36.3548044, "lon": 29.1857071, "tags": {"description": "cistern-not drinkable", "drinking_water": "no", "man_made": "water_well", "name": "Bad water", "note:ru": "Это цистерна, вода сомнительного качества"}}, {"type": "node", "id": 697076852, "lat": 36.3617681, "lon": 29.1827829, "tags": {"description": "cistern", "drinking_water:signed": "no", "man_made": "water_well"}}, {"type": "node", "id": 7312267165, "lat": 36.3624887, "lon": 29.18112, "tags": {"backcountry": "yes", "description": "shepherd can offer food/water if in residence", "tourism": "camp_site"}}, {"type": "node", "id": 8684909019, "lat": 36.362568, "lon": 29.1807535, "tags": {"amenity": "drinking_water", "price": "15 TL/litre"}}, {"type": "node", "id": 13250097001, "lat": 36.3623693, "lon": 29.1807507, "tags": {"amenity": "cafe", "cuisine": "turkish", "name": "Kadir’in Yeri", "outdoor_seating": "yes"}}, {"type": "node", "id": 13266673501, "lat": 36.362046, "lon": 29.1825371, "tags": {"backcountry": "yes", "capacity:tents": "8", "fee": "no", "tents": "yes", "tourism": "camp_site"}}, {"type": "node", "id": 13266681001, "lat": 36.3623069, "lon": 29.1819907, "tags": {"backcountry": "yes", "capacity:tents": "10", "fee": "no", "tents": "yes", "tourism": "camp_site"}}, {"type": "node", "id": 697076741, "lat": 36.3572202, "lon": 29.1864876, "tags": {"hiking": "yes", "information": "guidepost", "name": "Likya Yolu", "tourism": "information"}}, {"type": "node", "id": 4818413103, "lat": 36.3608763, "lon": 29.1847401, "tags": {"description:en": "Water from a cistern, filtering and boiling is a must.", "description:ru": "Вода из цистерны, фильтрация и кипячение обязательна.", "description:tr": "Sarnıçtan suyun süzülmesi ve kaynatılması şarttır.", "drinking_water": "no", "man_made": "water_well", "natural": "spring"}}, {"type": "node", "id": 11363585369, "lat": 36.3604126, "lon": 29.1850176, "tags": {"backcountry": "yes", "description": "fantastic view, water from cistern, need filter", "tourism": "camp_site"}}, {"type": "node", "id": 11907173769, "lat": 36.3570896, "lon": 29.1868837, "tags": {"backcountry": "yes", "fee": "no", "tents": "yes", "tourism": "camp_site"}}, {"type": "node", "id": 11949587124, "lat": 36.3603432, "lon": 29.1850843, "tags": {"tourism": "viewpoint"}}, {"type": "node", "id": 13266625501, "lat": 36.3601724, "lon": 29.1864809, "tags": {"backcountry": "yes", "tourism": "camp_site"}}, {"type": "node", "id": 13266625502, "lat": 36.3590803, "lon": 29.1865048, "tags": {"backcountry": "yes", "capacity:tents": "8", "fee": "no", "tents": "yes", "tourism": "camp_site"}}, {"type": "node", "id": 13266653701, "lat": 36.3602078, "lon": 29.1855615, "tags": {"backcountry": "yes", "capacity:tents": "1", "fee": "no", "tents": "yes", "tourism": "camp_site"}}, {"type": "node", "id": 13266653801, "lat": 36.3603872, "lon": 29.1854711, "tags": {"backcountry": "yes", "capacity:tents": "4", "fee": "no", "tents": "yes", "tourism": "camp_site"}}, {"type": "node", "id": 697076462, "lat": 36.362664, "lon": 29.1810638, "tags": {"hiking": "yes", "information": "guidepost", "name": "Likya Yolu", "tourism": "information"}}, {"type": "node", "id": 12308964726, "lat": 36.3640858, "lon": 29.1792568, "tags": {"description": "you must climbing, sharp slope", "tourism": "information"}}, {"type": "node", "id": 4818395902, "lat": 36.3817837, "lon": 29.1595553, "tags": {"description": "cistern", "drinking_water:signed": "no", "man_made": "water_well", "name": "Su kuyusu"}}, {"type": "node", "id": 13724173501, "lat": 36.381383, "lon": 29.1594191, "tags": {"name": "Место под палатку (LTE, рядом вода)", "tourism": "camp_site"}}, {"type": "node", "id": 4818398373, "lat": 36.3830319, "lon": 29.1578134, "tags": {"access": "private", "description": "cistern", "man_made": "water_well", "name": "Su kuyusu"}}, {"type": "node", "id": 12478481328, "lat": 36.3828172, "lon": 29.1580066, "tags": {"caravans": "no", "fee": "no", "static_caravans": "no", "tents": "yes", "tourism": "camp_site"}}, {"type": "node", "id": 13266978701, "lat": 36.3821766, "lon": 29.1672716, "tags": {"name": "Кемпинг (2 палатки)", "tourism": "camp_site"}}, {"type": "node", "id": 2456106431, "lat": 36.3821902, "lon": 29.1711767, "tags": {"amenity": "drinking_water", "natural": "spring"}}, {"type": "node", "id": 4818403864, "lat": 36.3773634, "lon": 29.1734395, "tags": {"description": "cistern", "man_made": "water_well"}}, {"type": "node", "id": 10886301647, "lat": 36.3821659, "lon": 29.1711396, "tags": {"tourism": "picnic_site"}}, {"type": "node", "id": 11949587123, "lat": 36.382078, "lon": 29.1709241, "tags": {"name": "Ramzan market", "shop": "convenience"}}, {"type": "node", "id": 10789915937, "lat": 36.382823, "lon": 29.1693078, "tags": {"addr:city": "muğla", "addr:district": "seydikemer", "addr:housenumber": "18/1", "addr:neighbourhood": "dodurga", "addr:postcode": "48360", "addr:street": "Bel caddesi", "air_conditioning": "yes", "amenity": "restaurant", "bar": "yes", "brewery": "yes;efes", "capacity": "30", "cuisine": "coffee_shop;regional;chicken;breakfast;turkish;salad;sandwich;mediterranean;barbecue;tea;diner;juice;middle_eastern", "description": "Caffeteria of Camp Nasuh serves delicious food and handmade coffee which you can't find anywhere else during your trail", "diet:halal": "yes", "diet:lactose_free": "yes", "diet:vegetarian": "yes", "internet_access": "wlan", "internet_access:fee": "no", "name": "Camp Nasuh Caffeteria", "opening_hours": "24/7", "organic": "only", "outdoor_seating": "yes", "payment:cash": "yes", "phone": "+90 545 215 7129", "reservation": "recommended", "smoking": "yes", "toilets": "yes", "website": "https://www.campnasuh.com/"}}, {"type": "node", "id": 10845768205, "lat": 36.3828942, "lon": 29.1692356, "tags": {"access": "yes", "addr:city": "muğla", "addr:district": "seydikemer", "addr:housenumber": "18/1", "addr:neighbourhood": "dodurga", "addr:postcode": "48360", "addr:street": "Bel caddesi", "camp_site": "serviced", "capacity:persons": "120", "capacity:tents": "40", "charge": "300 TL for tent", "drinking_water": "yes", "fee": "yes", "image": "https://maps.app.goo.gl/VrYyPoDLo75APhyE8", "internet_access": "wlan", "internet_access:fee": "no", "internet_access:ssid": "Camp Nasuh - Password: 11223344", "mobile": "+90 545 215 7129", "name": "Camp Nasuh", "name:en": "camp nasuh", "name:ru": "Кемп Насух", "name:tr": "Kamp Nasuh", "openfire": "yes", "opening_hours": "24/7", "operator": "Camp Nasuh", "payment:cash": "yes", "picnic_table": "yes", "power_supply": "yes", "reservation": "recommended", "short_name": "Nasuh's place - Nasuh'un yeri", "shower": "yes", "stars": "4", "static_caravans": "yes", "tents": "yes", "toilets": "yes", "tourism": "camp_site"}}, {"type": "node", "id": 697076919, "lat": 36.3827623, "lon": 29.1711902, "tags": {"hiking": "yes", "information": "guidepost", "name": "Likya Yolu", "tourism": "information"}}, {"type": "node", "id": 6180290490, "lat": 36.3838292, "lon": 29.172976, "tags": {"addr:street": "Muğla seydikemer dodurga bel", "email": "kilicguler931@gmail.com", "name:en": "KILIÇ Pansiyon", "opening_hours": "24/7", "operator": "05312476544", "phone": "05315926303", "tourism": "hostel"}}, {"type": "node", "id": 6372834914, "lat": 36.3977138, "lon": 29.1590685, "tags": {"name:ru": "Цистерна, даже 2 недалеко", "natural": "spring"}}, {"type": "node", "id": 10657477167, "lat": 36.3940646, "lon": 29.1734021, "tags": {"man_made": "water_well"}}, {"type": "node", "id": 10784427503, "lat": 36.3904382, "lon": 29.1944058, "tags": {"information": "tomb", "tourism": "information"}}, {"type": "node", "id": 9862276305, "lat": 36.3539312, "lon": 29.2483006, "tags": {"name": "Villa Payava Residence", "tourism": "chalet"}}, {"type": "node", "id": 9862219290, "lat": 36.3536036, "lon": 29.2495615, "tags": {"internet_access": "wlan", "name": "Patara Villaları", "tourism": "chalet"}}, {"type": "node", "id": 8074370617, "lat": 36.3079637, "lon": 29.272133, "tags": {"amenity": "drinking_water"}}, {"type": "node", "id": 8596045889, "lat": 36.3129338, "lon": 29.2776243, "tags": {"amenity": "drinking_water"}}, {"type": "node", "id": 13285767398, "lat": 36.3194456, "lon": 29.3072165, "tags": {"shop": "convenience"}}, {"type": "node", "id": 13363842164, "lat": 36.339126, "lon": 29.2623718, "tags": {"name": "A101", "shop": "supermarket"}}, {"type": "node", "id": 13363842165, "lat": 36.3405801, "lon": 29.263413, "tags": {"name": "BIM", "shop": "supermarket"}}, {"type": "node", "id": 6045624374, "lat": 36.3351952, "lon": 29.2934517, "tags": {"amenity": "drinking_water"}}, {"type": "node", "id": 6372837796, "lat": 36.3352515, "lon": 29.2933984, "tags": {"name:ru": "Питьевой фонтан (краны) охлаждённая", "natural": "spring"}}, {"type": "node", "id": 9448371069, "lat": 36.3304352, "lon": 29.2890447, "tags": {"tourism": "viewpoint"}}, {"type": "node", "id": 13285767397, "lat": 36.3330529, "lon": 29.2899085, "tags": {"amenity": "cafe"}}, {"type": "node", "id": 2456194089, "lat": 36.3360353, "lon": 29.3004107, "tags": {"brand": "A101", "brand:wikidata": "Q6034496", "brand:wikipedia": "tr:A101", "name": "A101", "opening_hours": "Mo-Su 09:00-21:30", "shop": "supermarket"}}, {"type": "node", "id": 6372834916, "lat": 36.3361569, "lon": 29.2985006, "tags": {"name:ru": "Питьевой фонтан (кран) охлажденная", "natural": "spring"}}, {"type": "node", "id": 9207378413, "lat": 36.3362499, "lon": 29.3019254, "tags": {"brand": "Şok", "brand:wikidata": "Q19613992", "brand:wikipedia": "tr:Şok (market)", "name": "Şok", "opening_hours": "Mo-Su 09:00-21:30", "shop": "supermarket"}}, {"type": "node", "id": 6045626768, "lat": 36.3377128, "lon": 29.2925316, "tags": {"amenity": "drinking_water"}}, {"type": "node", "id": 8114401218, "lat": 36.3376045, "lon": 29.2940101, "tags": {"shop": "bakery"}}, {"type": "node", "id": 8114401217, "lat": 36.3376467, "lon": 29.2949729, "tags": {"name": "Letoon market", "shop": "convenience"}}, {"type": "node", "id": 9151185341, "lat": 36.3424193, "lon": 29.2953857, "tags": {"amenity": "fuel"}}, {"type": "node", "id": 6372834917, "lat": 36.3366545, "lon": 29.3035787, "tags": {"name:ru": "Автомат холодной воды", "natural": "spring"}}, {"type": "node", "id": 7325193987, "lat": 36.3367952, "lon": 29.3043574, "tags": {"amenity": "pharmacy", "healthcare": "pharmacy", "name": "Letoon"}}, {"type": "node", "id": 9207378414, "lat": 36.336769, "lon": 29.3040413, "tags": {"amenity": "atm"}}, {"type": "node", "id": 9207378415, "lat": 36.3367977, "lon": 29.3042776, "tags": {"name": "Çılgın AVM", "shop": "convenience"}}, {"type": "node", "id": 9207402717, "lat": 36.3372899, "lon": 29.3069416, "tags": {"shop": "bakery"}}, {"type": "node", "id": 9207402718, "lat": 36.3373897, "lon": 29.3071292, "tags": {"brand": "BİM", "brand:wikidata": "Q1022075", "brand:wikipedia": "en:Bim (company)", "name": "BİM", "opening_hours": "Mo-Su 09:00-21:00", "shop": "supermarket"}}, {"type": "node", "id": 13238705549, "lat": 36.33671, "lon": 29.3046034, "tags": {"amenity": "atm", "brand": "Ziraat Bankası", "brand:wikidata": "Q696003", "operator": "Ziraat Bankası", "operator:wikidata": "Q696003"}}, {"type": "node", "id": 8785071785, "lat": 36.3012439, "lon": 29.3268158, "tags": {"name": "Ozm", "shop": "convenience"}}, {"type": "node", "id": 13411419301, "lat": 36.3006814, "lon": 29.3268028, "tags": {"name": "Very basic", "shop": "bicycle"}}, {"type": "node", "id": 4818504632, "lat": 36.3071904, "lon": 29.3296375, "tags": {"amenity": "atm", "name": "DenizBank"}}, {"type": "node", "id": 12623850301, "lat": 36.3076178, "lon": 29.3283818, "tags": {"amenity": "restaurant", "name": "Lokantasi"}}, {"type": "node", "id": 8724377761, "lat": 36.3166073, "lon": 29.3301104, "tags": {"brand": "A101", "brand:wikidata": "Q6034496", "brand:wikipedia": "tr:A101", "name": "A101", "opening_hours": "Mo-Su 09:00-21:30", "shop": "supermarket"}}, {"type": "node", "id": 9295570096, "lat": 36.3107128, "lon": 29.33032, "tags": {"amenity": "fuel", "brand": "Petrol Ofisi", "brand:wikidata": "Q1278087", "level": "1", "name": "Petrol Ofisi"}}, {"type": "node", "id": 10678143819, "lat": 36.3110125, "lon": 29.3304837, "tags": {"amenity": "atm", "brand": "Ziraat Bankası", "brand:wikidata": "Q696003", "operator": "Ziraat Bankası", "operator:wikidata": "Q696003"}}, {"type": "node", "id": 9151183919, "lat": 36.3171517, "lon": 29.3300345, "tags": {"amenity": "fuel", "brand": "Alpet", "brand:wikidata": "Q62131561", "compressed_air": "yes", "level": "1", "name": "Shell"}}, {"type": "node", "id": 1537279181, "lat": 36.3240581, "lon": 29.3299446, "tags": {"name": "Genpa", "shop": "supermarket"}}, {"type": "node", "id": 6411685468, "lat": 36.3237996, "lon": 29.3300778, "tags": {"brand": "Migros", "brand:wikidata": "Q1754510", "brand:wikipedia": "en:Migros", "name": "Migros", "shop": "supermarket"}}, {"type": "node", "id": 6411685930, "lat": 36.3240972, "lon": 29.3304143, "tags": {"brand": "Şok", "brand:wikidata": "Q19613992", "brand:wikipedia": "tr:Şok (market)", "name": "Şok", "shop": "supermarket"}}, {"type": "node", "id": 10971385005, "lat": 36.3289808, "lon": 29.3333022, "tags": {"amenity": "cafe", "name": "GIRGIR Cafe & Restaurant"}}, {"type": "node", "id": 6393616985, "lat": 36.3320695, "lon": 29.3269269, "tags": {"phone": "05362967575", "shop": "bicycle"}}, {"type": "node", "id": 6480589125, "lat": 36.348763, "lon": 29.3210187, "tags": {"brand": "A101", "brand:wikidata": "Q6034496", "brand:wikipedia": "tr:A101", "name": "A101", "opening_hours": "Mo-Su 09:00-21:30", "shop": "supermarket"}}, {"type": "node", "id": 6480591097, "lat": 36.3489643, "lon": 29.321344, "tags": {"brand": "BİM", "brand:wikidata": "Q1022075", "brand:wikipedia": "en:Bim (company)", "name": "BİM", "opening_hours": "Mo-Su 09:00-21:00", "shop": "supermarket"}}, {"type": "node", "id": 9808344684, "lat": 36.3591983, "lon": 29.2975917, "tags": {"description": "dirty, water only during wet months", "natural": "spring"}}, {"type": "node", "id": 9207425661, "lat": 36.3559734, "lon": 29.3140888, "tags": {"amenity": "fast_food"}}, {"type": "node", "id": 9643677317, "lat": 36.355853, "lon": 29.3141407, "tags": {"amenity": "cafe", "name:en": "Eltim doner"}}, {"type": "node", "id": 697076653, "lat": 36.3559856, "lon": 29.3167746, "tags": {"tourism": "viewpoint"}}, {"type": "node", "id": 697076765, "lat": 36.3558712, "lon": 29.3144459, "tags": {"hiking": "yes", "information": "guidepost", "name": "Likya Yolu", "tourism": "information"}}, {"type": "node", "id": 4818500687, "lat": 36.351398, "lon": 29.3199868, "tags": {"amenity": "atm", "brand": "Denizbank", "brand:wikidata": "Q1115064", "brand:wikipedia": "en:DenizBank", "check_date": "2022-12-25", "name": "Denizbank", "operator": "Denizbank", "operator:wikidata": "Q1115064", "operator:wikipedia": "en:DenizBank"}}, {"type": "node", "id": 6372837798, "lat": 36.3542954, "lon": 29.3149558, "tags": {"amenity": "drinking_water"}}, {"type": "node", "id": 6473781433, "lat": 36.3518956, "lon": 29.3193696, "tags": {"description": "У мечети", "leisure": "picnic_table"}}, {"type": "node", "id": 6906199981, "lat": 36.3520392, "lon": 29.3195995, "tags": {"historic": "memorial", "memorial": "statue"}}, {"type": "node", "id": 8575633719, "lat": 36.3517502, "lon": 29.3187463, "tags": {"shop": "bakery"}}, {"type": "node", "id": 8656095018, "lat": 36.3544456, "lon": 29.3183907, "tags": {"name:ru": "Нет сквозного прохода, тупик", "tourism": "information"}}, {"type": "node", "id": 8785058613, "lat": 36.3510489, "lon": 29.3200956, "tags": {"shop": "convenience"}}, {"type": "node", "id": 9151185336, "lat": 36.3504356, "lon": 29.3207003, "tags": {"amenity": "fuel", "level": "1"}}, {"type": "node", "id": 9207425666, "lat": 36.3527547, "lon": 29.319364, "tags": {"shop": "convenience"}}, {"type": "node", "id": 9207425668, "lat": 36.3520891, "lon": 29.3198745, "tags": {"air_conditioning": "yes", "amenity": "fast_food", "cuisine": "kebab", "indoor_seating": "yes", "name": "Sefa döner", "outdoor_seating": "no"}}, {"type": "node", "id": 9207425669, "lat": 36.3523901, "lon": 29.3199548, "tags": {"shop": "convenience"}}, {"type": "node", "id": 9448431590, "lat": 36.3555653, "lon": 29.3178409, "tags": {"tourism": "viewpoint"}}, {"type": "node", "id": 10285792625, "lat": 36.3514961, "lon": 29.3196334, "tags": {"amenity": "fast_food", "check_date": "2022-12-25", "cuisine": "kebab;turkish", "level": "1", "wheelchair": "yes"}}, {"type": "node", "id": 9151185350, "lat": 36.3566078, "lon": 29.3134484, "tags": {"amenity": "fuel"}}, {"type": "node", "id": 9808344682, "lat": 36.3585326, "lon": 29.3104466, "tags": {"amenity": "drinking_water"}}, {"type": "node", "id": 10657501172, "lat": 36.3602353, "lon": 29.3174852, "tags": {"tourism": "viewpoint"}}, {"type": "node", "id": 10799795608, "lat": 36.3535947, "lon": 29.3233883, "tags": {"amenity": "drinking_water"}}, {"type": "node", "id": 10801084105, "lat": 36.35777, "lon": 29.3244183, "tags": {"name": "Camp, good place for tent and Hamak", "name:en": "Camp, good trees for Hamak", "name:ru": "Много мест под палатку среди заброшенных гробниц", "tourism": "camp_site"}}, {"type": "node", "id": 11348616269, "lat": 36.359565, "lon": 29.3234438, "tags": {"name:en": "Good place for tents with big pine", "name:ru": "Места под палатки под большой сосной", "tourism": "camp_site"}}, {"type": "node", "id": 2456185100, "lat": 36.3586019, "lon": 29.342217, "tags": {"name": "Market", "shop": "convenience"}}, {"type": "node", "id": 8041663086, "lat": 36.3581567, "lon": 29.3443246, "tags": {"amenity": "restaurant", "name": "Likya Restaurant"}}, {"type": "node", "id": 8074370717, "lat": 36.358768, "lon": 29.3415373, "tags": {"amenity": "restaurant", "name": "Adams"}}, {"type": "node", "id": 12438651601, "lat": 36.3531462, "lon": 29.3599959, "tags": {"amenity": "restaurant", "indoor_seating": "yes", "name": "Umut ET", "outdoor_seating": "yes"}}, {"type": "node", "id": 10596134031, "lat": 36.3616296, "lon": 29.3514236, "tags": {"brand": "Şok", "brand:wikidata": "Q19613992", "name": "Şok", "shop": "supermarket"}}, {"type": "node", "id": 2456204457, "lat": 36.3621268, "lon": 29.3554578, "tags": {"amenity": "drinking_water", "check_date": "2025-10-15", "man_made": "water_tap"}}, {"type": "node", "id": 8656098818, "lat": 36.3568436, "lon": 29.3589132, "tags": {"amenity": "drinking_water", "name:ru": "Несколько вилл, возле каждой есть кран с водой, в некоторых есть вода"}}, {"type": "node", "id": 1537279140, "lat": 36.3651817, "lon": 29.3525858, "tags": {"name": "Akfa", "shop": "supermarket"}}, {"type": "node", "id": 1537282104, "lat": 36.3679124, "lon": 29.352824, "tags": {"description": "A101 market", "name": "A 101", "shop": "convenience"}}, {"type": "node", "id": 2456202862, "lat": 36.3632327, "lon": 29.3531056, "tags": {"information": "guidepost", "name": "Likya Yolu", "tourism": "information"}}, {"type": "node", "id": 9207425697, "lat": 36.3638352, "lon": 29.3525778, "tags": {"name": "Nergiz Market", "shop": "convenience"}}, {"type": "node", "id": 13234204480, "lat": 36.3657414, "lon": 29.3534209, "tags": {"amenity": "shelter", "shelter_type": "picnic_shelter"}}, {"type": "node", "id": 13234207598, "lat": 36.3638142, "lon": 29.3529551, "tags": {"brand": "Migros Jet", "brand:wikidata": "Q1754510", "name": "Migros Jet", "shop": "convenience"}}, {"type": "node", "id": 1537282129, "lat": 36.3800626, "lon": 29.350729, "tags": {"tourism": "picnic_site"}}, {"type": "node", "id": 1537282141, "lat": 36.3802153, "lon": 29.3506982, "tags": {"amenity": "drinking_water"}}, {"type": "node", "id": 6906242777, "lat": 36.4280115, "lon": 29.1637498, "tags": {"amenity": "drinking_water"}}, {"type": "node", "id": 11942239269, "lat": 36.4259391, "lon": 29.164136, "tags": {"name": "The path here is overgrown, follow the road (May 2024)", "tourism": "information"}}, {"type": "node", "id": 2894545633, "lat": 36.4091721, "lon": 29.1857295, "tags": {"historic": "archaeological_site", "name": "Sidyma", "source": "http://wikimapia.org/15424783/"}}, {"type": "node", "id": 6897341185, "lat": 36.4145415, "lon": 29.1876269, "tags": {"natural": "spring"}}, {"type": "node", "id": 7274807085, "lat": 36.4093056, "lon": 29.1892726, "tags": {"guest_house": "bed_and_breakfast", "name:en": "Sidyma Homes - Fatma Mete", "phone": "+90 252 678 11 08", "tourism": "guest_house"}}, {"type": "node", "id": 9392171236, "lat": 36.4105578, "lon": 29.184162, "tags": {"historic": "castle", "name": "Sidyma Acropolis"}}, {"type": "node", "id": 10258999343, "lat": 36.4139908, "lon": 29.1860576, "tags": {"historic": "archaeological_site"}}, {"type": "node", "id": 11237619621, "lat": 36.414889, "lon": 29.1856417, "tags": {"natural": "spring"}}, {"type": "node", "id": 4176292074, "lat": 36.4070626, "lon": 29.1931661, "tags": {"amenity": "drinking_water"}}, {"type": "node", "id": 6055592585, "lat": 36.4082963, "lon": 29.190382, "tags": {"natural": "spring"}}, {"type": "node", "id": 9920839225, "lat": 36.4082444, "lon": 29.1906109, "tags": {"leisure": "picnic_table", "material": "wood"}}, {"type": "node", "id": 5236004822, "lat": 36.4100962, "lon": 29.195083, "tags": {"archaeological_site": "necropolis", "historic": "archaeological_site"}}, {"type": "node", "id": 6964560714, "lat": 36.4122915, "lon": 29.1905294, "tags": {"natural": "spring"}}, {"type": "node", "id": 8647779917, "lat": 36.4134391, "lon": 29.1968284, "tags": {"tourism": "viewpoint"}}, {"type": "node", "id": 11174230037, "lat": 36.4196864, "lon": 29.1794578, "tags": {"man_made": "water_well"}}, {"type": "node", "id": 4176282225, "lat": 36.4198465, "lon": 29.1852648, "tags": {"natural": "spring"}}, {"type": "node", "id": 11311407369, "lat": 36.4189844, "lon": 29.1852847, "tags": {"tourism": "picnic_site"}}, {"type": "node", "id": 11949587122, "lat": 36.4189455, "lon": 29.1853295, "tags": {"tourism": "camp_site"}}, {"type": "node", "id": 12264265253, "lat": 36.4245395, "lon": 29.1818428, "tags": {"amenity": "drinking_water"}}, {"type": "node", "id": 12264342225, "lat": 36.4245271, "lon": 29.1818435, "tags": {"shop": "convenience"}}, {"type": "node", "id": 12328574901, "lat": 36.4245738, "lon": 29.1819245, "tags": {"name": "Convenience Store", "shop": "convenience"}}, {"type": "node", "id": 12330300501, "lat": 36.424551, "lon": 29.1819486, "tags": {"shop": "convenience"}}, {"type": "node", "id": 13582542756, "lat": 36.4246172, "lon": 29.1769351, "tags": {"addr:city": "muğla", "addr:district": "seydikemer", "addr:neighbourhood": "boğaziçi mahallesi", "addr:street": "orta sokak", "amenity": "cafe", "cuisine": "regional", "internet_access": "yes", "internet_access:fee": "no", "name": "boğaziçi cafe camping", "opening_hours": "24/7", "outdoor_seating": "yes", "phone": "5378295605", "website": "https://www.instagram.com/e_dnzhn"}}, {"type": "node", "id": 4176285333, "lat": 36.4233295, "lon": 29.1839843, "tags": {"shop": "convenience"}}, {"type": "node", "id": 6548006085, "lat": 36.4563676, "lon": 29.1549883, "tags": {"amenity": "drinking_water"}}, {"type": "node", "id": 8575954542, "lat": 36.4593821, "lon": 29.157101, "tags": {"amenity": "drinking_water"}}, {"type": "node", "id": 8575956959, "lat": 36.4593733, "lon": 29.1570849, "tags": {"amenity": "shelter"}}, {"type": "node", "id": 4911215442, "lat": 36.4613728, "lon": 29.1586507, "tags": {"description": "Drinkable water", "name": "İçilebilir su (drinkable water source)", "natural": "spring"}}, {"type": "node", "id": 6547993590, "lat": 36.4612314, "lon": 29.1588746, "tags": {"amenity": "drinking_water"}}, {"type": "node", "id": 8913815835, "lat": 36.4661863, "lon": 29.1596795, "tags": {"name": "Black Tree Cottages", "phone": "+902526170045", "tourism": "chalet", "website": "http://www.blacktree.net/"}}, {"type": "node", "id": 7600040818, "lat": 36.4781976, "lon": 29.1624948, "tags": {"fixme": "Not sure whether this is Cennet Campi̇ng Fethi̇ye. Please check.", "name": "Cennet Camping Fethiye", "phone": "+905443528755", "tourism": "camp_site", "website": "https://fethiyecennetkamp.weebly.com/"}}, {"type": "node", "id": 9234920167, "lat": 36.4843267, "lon": 29.156494, "tags": {"natural": "spring"}}, {"type": "node", "id": 9764145917, "lat": 36.4930689, "lon": 29.1715924, "tags": {"tourism": "viewpoint"}}, {"type": "node", "id": 3614782775, "lat": 36.4975998, "lon": 29.1584141, "tags": {"intermittent": "yes", "natural": "spring"}}, {"type": "node", "id": 3614782776, "lat": 36.4975751, "lon": 29.158413, "tags": {"information": "guidepost", "tourism": "information"}}, {"type": "node", "id": 8575788673, "lat": 36.4998962, "lon": 29.173491, "tags": {"amenity": "shelter"}}, {"type": "node", "id": 8575799110, "lat": 36.4999008, "lon": 29.1735001, "tags": {"amenity": "drinking_water"}}, {"type": "node", "id": 8575846253, "lat": 36.4998754, "lon": 29.173514, "tags": {"leisure": "picnic_table"}}, {"type": "node", "id": 11017699164, "lat": 36.5020467, "lon": 29.164681, "tags": {"tourism": "viewpoint"}}, {"type": "node", "id": 12264338125, "lat": 36.5014521, "lon": 29.1635559, "tags": {"amenity": "drinking_water"}}, {"type": "node", "id": 8075466163, "lat": 36.4929861, "lon": 29.2100519, "tags": {"amenity": "drinking_water"}}, {"type": "node", "id": 12317724176, "lat": 36.4888532, "lon": 29.2547947, "tags": {"historic": "archaeological_site", "name": "Akropol"}}, {"type": "node", "id": 12328574802, "lat": 36.4231471, "lon": 29.2580804, "tags": {"amenity": "cafe", "name:en": "Cafe (no food)"}}, {"type": "node", "id": 12328575001, "lat": 36.4232105, "lon": 29.2580504, "tags": {"shop": "convenience"}}, {"type": "node", "id": 7992226387, "lat": 36.4156428, "lon": 29.2685212, "tags": {"amenity": "fuel", "brand": "Alpet", "brand:wikidata": "Q62131561", "name": "Alpet"}}, {"type": "node", "id": 10125562569, "lat": 36.4538014, "lon": 29.2810431, "tags": {"brand": "A101", "brand:wikidata": "Q6034496", "name": "A101", "opening_hours": "Mo-Su 09:00-21:30", "shop": "supermarket"}}, {"type": "node", "id": 9285775795, "lat": 36.4540723, "lon": 29.2894248, "tags": {"amenity": "fuel", "brand": "BP", "brand:wikidata": "Q152057", "brand:wikipedia": "en:BP", "fixme": "check brand, BP in Turkey is acquired by Petrol Ofisi. Don't delete fixme if still BP please.", "level": "1", "name": "BP"}}, {"type": "node", "id": 8575820553, "lat": 36.452301, "lon": 29.3558998, "tags": {"amenity": "drinking_water"}}, {"type": "node", "id": 9285775796, "lat": 36.4743619, "lon": 29.300121, "tags": {"amenity": "fuel", "brand": "Petrol Ofisi", "brand:wikidata": "Q1278087", "brand:wikipedia": "en:Petrol Ofisi", "compressed_air": "yes", "level": "1", "name": "Petrol Ofisi"}}, {"type": "node", "id": 10860795325, "lat": 36.4891912, "lon": 29.2583194, "tags": {"information": "board", "tourism": "information"}}, {"type": "node", "id": 10860795326, "lat": 36.4893267, "lon": 29.258553, "tags": {"tourism": "picnic_site"}}, {"type": "node", "id": 10860795333, "lat": 36.4912809, "lon": 29.2694179, "tags": {"leisure": "picnic_table"}}, {"type": "node", "id": 9947716341, "lat": 36.1568479, "lon": 29.5024933, "tags": {"historic": "archaeological_site", "historic:civilization": "ancient_greek", "image": "https://www.kastra.eu/pics/ro.jpg", "name": "Φρούριο νήσου Ρω", "name:el": "Φρούριο νήσου Ρω", "name:en": "Fort of Ro island", "name:es": "Antiguo Fuerte de Ro", "source": "https://www.kastra.eu/castlegr.php?kastro=ro"}}, {"type": "node", "id": 11464791374, "lat": 36.2337392, "lon": 29.3601781, "tags": {"backcountry": "yes", "tourism": "camp_site"}}, {"type": "node", "id": 11464791471, "lat": 36.2364874, "lon": 29.3661559, "tags": {"amenity": "shelter"}}, {"type": "node", "id": 5009364321, "lat": 36.24459, "lon": 29.37009, "tags": {"addr:street": "Guesthouse Camelion car road", "amenity": "cafe", "cuisine": "regional;grill;fish_and_chips;chicken;friture", "name": "Pinarkürü Restorant", "name:en": "Pinarkuru Restorant", "name:tr": "Pinarkürü Restorant", "opening_hours": "Mo-Su 09:00-20:00", "phone": "+905352876998"}}, {"type": "node", "id": 11464791584, "lat": 36.2400727, "lon": 29.3682254, "tags": {"backcountry": "yes", "tents": "yes", "tourism": "camp_site"}}, {"type": "node", "id": 11464791772, "lat": 36.2390651, "lon": 29.3683662, "tags": {"backcountry": "yes", "tents": "yes", "tourism": "camp_site"}}, {"type": "node", "id": 9688782159, "lat": 36.2335904, "lon": 29.4155709, "tags": {"man_made": "water_well"}}, {"type": "node", "id": 3065393194, "lat": 36.235055, "lon": 29.4247753, "tags": {"amenity": "restaurant", "cuisine": "regional"}}, {"type": "node", "id": 5068871664, "lat": 36.2412944, "lon": 29.4273208, "tags": {"amenity": "cafe"}}, {"type": "node", "id": 5118066922, "lat": 36.2410903, "lon": 29.4278158, "tags": {"addr:postcode": "07960", "internet_access": "wlan", "name": "kalkan Kamping", "name:en": "Kalkan camping", "name:ru": "Калкан кемпинг", "opening_hours": "24/7", "phone": "+905353718226", "tourism": "camp_site"}}, {"type": "node", "id": 8785031182, "lat": 36.2414561, "lon": 29.4273205, "tags": {"name": "Ulugöl market", "shop": "convenience"}}, {"type": "node", "id": 8785078347, "lat": 36.2437351, "lon": 29.4278612, "tags": {"name": "Migros jet", "opening_hours": "Mo-Su 08:30-22:00", "shop": "convenience"}},