{"id": "35--84", "latMin": 35, "lonMin": -84, "latMax": 36, "lonMax": -83, "generated": "2026-04-16T18:39:07.315Z", "count": 12, "pois": [{"type": "node", "id": 2593330732, "lat": 35.754741, "lon": -83.965265, "tags": {"amenity": "charging_station", "name": "EV Charging Station", "_source": "worldwide"}}, {"type": "node", "id": 6973606155, "lat": 35.310613, "lon": -83.185015, "tags": {"amenity": "charging_station", "name": "EV Charging Station", "_source": "worldwide"}}, {"type": "node", "id": 10140230628, "lat": 35.733205, "lon": -83.995526, "tags": {"amenity": "charging_station", "fee": "no", "access": "yes", "operator": "Chic-fil-A", "name": "Chick-fil-A EV Charger", "socket:type1": "1", "capacity": "1", "_source": "worldwide"}}, {"type": "node", "id": 10140245893, "lat": 35.736642, "lon": -83.993298, "tags": {"amenity": "charging_station", "fee": "yes", "network": "ChargePoint", "operator": "Food City", "name": "Food City", "socket:type1": "2", "capacity": "2", "_source": "worldwide"}}, {"type": "node", "id": 10721570801, "lat": 35.593961, "lon": -83.0088, "tags": {"amenity": "charging_station", "brand": "ChargePoint", "operator": "ChargePoint", "name": "ChargePoint", "_source": "worldwide"}}, {"type": "node", "id": 11908123225, "lat": 35.1639, "lon": -83.39294, "tags": {"amenity": "charging_station", "fee": "yes", "access": "yes", "opening_hours": "24/7", "brand": "Tesla Supercharger", "network": "Supercharger", "operator": "Tesla, Inc.", "name": "Tesla Supercharger", "addr:street": "Franklin Plaza", "addr:housenumber": "273", "addr:postcode": "28734", "addr:city": "Franklin", "addr:country": "US", "capacity": "12", "_source": "worldwide"}}, {"type": "node", "id": 11929450072, "lat": 35.806413, "lon": -83.572673, "tags": {"amenity": "charging_station", "fee": "yes", "access": "yes", "opening_hours": "24/7", "brand": "Tesla Supercharger", "network": "Supercharger", "operator": "Tesla", "name": "Pigeon Forge Supercharger", "addr:street": "Teaster Lane", "addr:housenumber": "2655", "addr:postcode": "37863", "addr:city": "Pigeon Forge", "addr:country": "US", "capacity": "12", "_source": "worldwide"}}, {"type": "node", "id": 12944744062, "lat": 35.98229, "lon": -83.604918, "tags": {"amenity": "charging_station", "fee": "yes", "access": "yes", "opening_hours": "24/7", "brand": "Tesla Supercharger", "network": "Supercharger", "operator": "Tesla", "name": "Sevierville Supercharger", "addr:street": "Buc-ee's Boulevard", "addr:housenumber": "170", "addr:postcode": "37764", "addr:city": "Kodak", "addr:country": "US", "capacity": "24", "_source": "worldwide"}}, {"type": "node", "id": 12944744310, "lat": 35.37312, "lon": -83.21071, "tags": {"amenity": "charging_station", "fee": "yes", "access": "yes", "opening_hours": "24/7", "brand": "Tesla Supercharger", "network": "Supercharger", "operator": "Tesla, Inc.", "name": "Sylva Supercharger", "addr:street": "East Main Street", "addr:housenumber": "200", "addr:postcode": "28779", "addr:city": "Sylva", "addr:country": "US", "capacity": "8", "_source": "worldwide"}}, {"type": "node", "id": 13186657360, "lat": 35.752195, "lon": -83.992088, "tags": {"amenity": "charging_station", "fee": "yes", "access": "yes", "opening_hours": "24/7", "brand": "Tesla Supercharger", "network": "Supercharger", "operator": "Tesla", "name": "Maryville Supercharger", "_source": "worldwide"}}, {"type": "node", "id": 13667900403, "lat": 35.726766, "lon": -83.479497, "tags": {"amenity": "charging_station", "fee": "yes", "access": "yes", "opening_hours": "24/7", "brand": "Tesla Supercharger", "network": "Supercharger", "operator": "Tesla", "name": "Gatlinburg Supercharger", "addr:street": "East Parkway", "addr:housenumber": "1219", "addr:postcode": "37738", "addr:city": "Gatlinburg", "addr:country": "US", "capacity": "8", "_source": "worldwide"}}, {"type": "node", "id": 13667903302, "lat": 35.971028, "lon": -83.245972, "tags": {"amenity": "charging_station", "fee": "yes", "access": "yes", "opening_hours": "24/7", "brand": "Tesla Supercharger", "network": "Supercharger", "operator": "Tesla", "name": "Newport Supercharger", "_source": "worldwide"}}]}