{"id": "38-128", "latMin": 38, "lonMin": 128, "latMax": 39, "lonMax": 129, "generated": "2026-04-16T18:39:07.698Z", "count": 22, "pois": [{"type": "node", "id": 9119117921, "lat": 38.180358, "lon": 128.612516, "tags": {"amenity": "charging_station", "fee": "yes", "access": "yes", "opening_hours": "24/7", "brand": "Tesla Supercharger", "operator": "Tesla", "name": "속초 테슬라 슈퍼차저", "capacity": "4", "_source": "worldwide"}}, {"type": "node", "id": 10688691657, "lat": 38.191902, "lon": 128.538286, "tags": {"amenity": "charging_station", "opening_hours": "Mo-Su 00:00-24:00", "name": "EV Charging Station", "socket:chademo": "1", "capacity": "3", "_source": "worldwide"}}, {"type": "node", "id": 10688691658, "lat": 38.165638, "lon": 128.557238, "tags": {"amenity": "charging_station", "opening_hours": "Mo-Fr 00:00-24:00", "operator": "대포동주민센터", "name": "대포동주민센터", "addr:street": "설악산로", "addr:housenumber": "466", "socket:type1": "2", "capacity": "2", "_source": "worldwide"}}, {"type": "node", "id": 10688691659, "lat": 38.187511, "lon": 128.59062, "tags": {"amenity": "charging_station", "opening_hours": "Mo-Fr 09:00-18:00", "operator": "조양동주민센터", "name": "조양동주민센터", "addr:street": "선사로1길", "addr:housenumber": "16", "socket:type1": "2", "capacity": "2", "_source": "worldwide"}}, {"type": "node", "id": 10688691660, "lat": 38.197977, "lon": 128.595695, "tags": {"amenity": "charging_station", "opening_hours": "Mo-Fr 09:00-18:00", "operator": "청호동주민센터", "name": "청호동주민센터", "addr:street": "청호로", "addr:housenumber": "93", "socket:type1": "2", "capacity": "2", "_source": "worldwide"}}, {"type": "node", "id": 10688691661, "lat": 38.20256, "lon": 128.582874, "tags": {"amenity": "charging_station", "opening_hours": "Mo-Fr 09:00-18:00", "operator": "교동주민센터", "name": "교동주민센터", "addr:street": "청학로", "addr:housenumber": "51", "socket:type1": "2", "capacity": "2", "_source": "worldwide"}}, {"type": "node", "id": 10688691662, "lat": 38.206687, "lon": 128.588278, "tags": {"amenity": "charging_station", "opening_hours": "Mo-Su 00:00-24:00", "operator": "금호동주민센터", "name": "금호동주민센터", "addr:street": "중앙시장로", "addr:housenumber": "43", "socket:type1": "2", "capacity": "2", "_source": "worldwide"}}, {"type": "node", "id": 10688691663, "lat": 38.223642, "lon": 128.588414, "tags": {"amenity": "charging_station", "opening_hours": "Mo-Fr 09:00-18:00", "operator": "영랑동주민센터", "name": "영랑동주민센터", "addr:street": "중앙로", "addr:housenumber": "403", "socket:type1": "2", "capacity": "2", "_source": "worldwide"}}, {"type": "node", "id": 10688691664, "lat": 38.196405, "lon": 128.576499, "tags": {"amenity": "charging_station", "opening_hours": "Mo-Su 00:00-24:00", "operator": "노학동주민센터", "name": "노학동주민센터", "addr:street": "동해대로", "addr:housenumber": "4245", "socket:chademo": "1", "capacity": "3", "_source": "worldwide"}}, {"type": "node", "id": 10688691665, "lat": 38.201494, "lon": 128.590017, "tags": {"amenity": "charging_station", "opening_hours": "Mo-Su 00:00-24:00", "name": "EV Charging Station", "socket:chademo": "1", "capacity": "3", "_source": "worldwide"}}, {"type": "node", "id": 10688691666, "lat": 38.204732, "lon": 128.587607, "tags": {"amenity": "charging_station", "opening_hours": "Mo-Su 00:00-24:00", "operator": "속초관광수산시장", "name": "속초관광수산시장", "addr:street": "수복로", "addr:housenumber": "191", "socket:chademo": "1", "capacity": "3", "_source": "worldwide"}}, {"type": "node", "id": 10688691667, "lat": 38.191161, "lon": 128.602243, "tags": {"amenity": "charging_station", "opening_hours": "Mo-Su 00:00-24:00", "name": "EV Charging Station", "socket:chademo": "1", "capacity": "3", "_source": "worldwide"}}, {"type": "node", "id": 10688691668, "lat": 38.206542, "lon": 128.592849, "tags": {"amenity": "charging_station", "opening_hours": "Mo-Su 00:00-24:00", "operator": "속초시청", "name": "속초시청", "socket:chademo": "1", "capacity": "3", "_source": "worldwide"}}, {"type": "node", "id": 10860412918, "lat": 38.210322, "lon": 128.489805, "tags": {"amenity": "charging_station", "name": "EV Charging Station", "_source": "worldwide"}}, {"type": "node", "id": 10860412919, "lat": 38.210403, "lon": 128.492414, "tags": {"amenity": "charging_station", "name": "EV Charging Station", "_source": "worldwide"}}, {"type": "node", "id": 10860412991, "lat": 38.209159, "lon": 128.496775, "tags": {"amenity": "charging_station", "name": "EV Charging Station", "_source": "worldwide"}}, {"type": "node", "id": 12020136697, "lat": 38.119991, "lon": 128.631499, "tags": {"amenity": "charging_station", "name": "EV Charging Station", "_source": "worldwide"}}, {"type": "node", "id": 13688625605, "lat": 38.054282, "lon": 128.660629, "tags": {"amenity": "charging_station", "fee": "yes", "access": "yes", "opening_hours": "24/7", "name": "EV Charging Station", "_source": "worldwide"}}, {"type": "node", "id": 13688625607, "lat": 38.191375, "lon": 128.591222, "tags": {"amenity": "charging_station", "fee": "yes", "access": "yes", "opening_hours": "24/7", "name": "EV Charging Station", "_source": "worldwide"}}, {"type": "node", "id": 13688625608, "lat": 38.315934, "lon": 128.531251, "tags": {"amenity": "charging_station", "fee": "yes", "access": "yes", "opening_hours": "24/7", "name": "EV Charging Station", "_source": "worldwide"}}, {"type": "node", "id": 13688627002, "lat": 38.005359, "lon": 128.288956, "tags": {"amenity": "charging_station", "fee": "yes", "access": "yes", "opening_hours": "24/7", "name": "EV Charging Station", "_source": "worldwide"}}, {"type": "node", "id": 13688629604, "lat": 38.208368, "lon": 128.526473, "tags": {"amenity": "charging_station", "fee": "yes", "access": "yes", "opening_hours": "24/7", "name": "EV Charging Station", "_source": "worldwide"}}]}