{"id": "59-10", "latMin": 59, "lonMin": 10, "latMax": 60, "lonMax": 11, "generated": "2026-04-16T18:39:08.779Z", "count": 605, "pois": [{"type": "node", "id": 767201756, "lat": 59.911396, "lon": 10.727117, "tags": {"amenity": "charging_station", "addr:country": "NO", "_source": "worldwide"}}, {"type": "node", "id": 1770689864, "lat": 59.910389, "lon": 10.724111, "tags": {"amenity": "charging_station", "access": "yes", "opening_hours": "24/7", "operator": "EuroPark AS", "name": "Aker Brygge p-hus", "addr:country": "NO", "socket:type2": "8", "socket:type2:output": "22.0 kW", "charging_station:output": "22.0 kW", "capacity": "8", "_source": "worldwide"}}, {"type": "node", "id": 1770694020, "lat": 59.913902, "lon": 10.728914, "tags": {"amenity": "charging_station", "access": "yes", "opening_hours": "24/7", "operator": "EuroPark AS", "name": "Vestre Vika p-hus", "addr:country": "NO", "socket:type2": "6", "socket:type2:output": "22.0 kW", "charging_station:output": "22.0 kW", "capacity": "6", "_source": "worldwide"}}, {"type": "node", "id": 11169096543, "lat": 59.912935, "lon": 10.732175, "tags": {"amenity": "charging_station", "access": "yes", "brand": "Eviny", "operator": "STELLA ENERGY NORWAY AS", "name": "Stella Olav Vs Gate", "addr:country": "NO", "socket:type2_combo": "4", "socket:type2_combo:output": "300.0 kW", "charging_station:output": "300.0 kW", "capacity": "4", "_source": "worldwide"}}, {"type": "node", "id": 1648779832, "lat": 59.910784, "lon": 10.705012, "tags": {"amenity": "charging_station", "access": "yes", "opening_hours": "24/7", "operator": "Oslo kommune", "name": "Kongens p-plass Frognerkilen", "addr:country": "NO", "socket:type2": "8", "socket:type2:output": "3.6 kW", "charging_station:output": "3.6 kW", "capacity": "8", "_source": "worldwide"}}, {"type": "node", "id": 1768125168, "lat": 59.975886, "lon": 10.656474, "tags": {"amenity": "charging_station", "access": "customers", "opening_hours": "24/7", "operator": "Soria Moria Hotell og Konferansesenter", "name": "Soria Moria hotell og Konferansesenter", "addr:country": "NO", "socket:type2": "2", "socket:type2:output": "7.4 kW", "charging_station:output": "7.4 kW", "capacity": "2", "_source": "worldwide"}}, {"type": "node", "id": 1770689866, "lat": 59.920977, "lon": 10.746512, "tags": {"amenity": "charging_station", "access": "yes", "opening_hours": "24/7", "operator": "Oslo kommune", "name": "Akersveien", "addr:country": "NO", "socket:type2": "4", "socket:type2:output": "3.6 kW", "charging_station:output": "3.6 kW", "capacity": "4", "_source": "worldwide"}}, {"type": "node", "id": 1770689934, "lat": 59.924802, "lon": 10.744671, "tags": {"amenity": "charging_station", "access": "yes", "opening_hours": "24/7", "operator": "Oslo kommune", "name": "Bjerregaardsgate", "addr:country": "NO", "socket:type2": "4", "socket:type2:output": "3.6 kW", "charging_station:output": "3.6 kW", "capacity": "4", "_source": "worldwide"}}, {"type": "node", "id": 1770692356, "lat": 59.919479, "lon": 10.749456, "tags": {"amenity": "charging_station", "access": "yes", "opening_hours": "24/7", "operator": "Oslo kommune", "name": "Rosteds gate", "addr:country": "NO", "socket:type2": "2", "socket:type2:output": "3.6 kW", "charging_station:output": "3.6 kW", "capacity": "2", "_source": "worldwide"}}, {"type": "node", "id": 6018875317, "lat": 59.923313, "lon": 10.751707, "tags": {"amenity": "charging_station", "access": "yes", "brand": "Recharge", "opening_hours": "24/7", "name": "Recharge Vulkan p-hus", "addr:country": "NO", "socket:type2": "95", "socket:type2:output": "11.0 kW", "socket:type2_combo": "8", "socket:type2_combo:output": "150.0 kW", "socket:chademo": "2", "socket:chademo:output": "50.0 kW", "charging_station:output": "150.0 kW", "capacity": "103", "_source": "worldwide"}}, {"type": "node", "id": 12798595874, "lat": 59.92226, "lon": 10.750342, "tags": {"amenity": "charging_station", "access": "yes", "brand": "Recharge", "name": "Recharge Maridalsveien", "addr:country": "NO", "socket:type2_combo": "6", "socket:type2_combo:output": "200.0 kW", "socket:chademo": "2", "socket:chademo:output": "50.0 kW", "charging_station:output": "200.0 kW", "capacity": "6", "_source": "worldwide"}}, {"type": "node", "id": 1770689867, "lat": 59.927595, "lon": 10.750989, "tags": {"amenity": "charging_station", "access": "yes", "opening_hours": "24/7", "operator": "Oslo kommune", "name": "Maridalsveien", "addr:country": "NO", "socket:type2": "4", "socket:type2:output": "3.6 kW", "charging_station:output": "3.6 kW", "capacity": "4", "_source": "worldwide"}}, {"type": "node", "id": 1770690464, "lat": 59.928676, "lon": 10.748017, "tags": {"amenity": "charging_station", "access": "yes", "opening_hours": "24/7", "operator": "Oslo kommune", "name": "Fougstads gate", "addr:country": "NO", "socket:type2": "8", "socket:type2:output": "3.6 kW", "charging_station:output": "3.6 kW", "capacity": "8", "_source": "worldwide"}}, {"type": "node", "id": 6997232317, "lat": 59.928878, "lon": 10.750602, "tags": {"amenity": "charging_station", "access": "yes", "brand": "Circle K", "name": "Circle K Kiellands plass", "addr:country": "NO", "socket:type2_combo": "10", "socket:type2_combo:output": "400.0 kW", "socket:chademo": "2", "socket:chademo:output": "62.0 kW", "charging_station:output": "400.0 kW", "capacity": "10", "_source": "worldwide"}}, {"type": "node", "id": 1770689870, "lat": 59.927027, "lon": 10.848507, "tags": {"amenity": "charging_station", "access": "yes", "opening_hours": "24/7", "operator": "Alna senter", "name": "Alna senter", "addr:country": "NO", "socket:type2": "8", "socket:type2:output": "3.6 kW", "charging_station:output": "3.6 kW", "capacity": "8", "_source": "worldwide"}}, {"type": "node", "id": 6018872181, "lat": 59.92588, "lon": 10.84818, "tags": {"amenity": "charging_station", "access": "yes", "brand": "Mer", "opening_hours": "24/7", "name": "Mer Alna senter", "addr:country": "NO", "socket:type2_combo": "3", "socket:type2_combo:output": "50.0 kW", "socket:chademo": "3", "socket:chademo:output": "50.0 kW", "charging_station:output": "50.0 kW", "capacity": "3", "_source": "worldwide"}}, {"type": "node", "id": 6018875342, "lat": 59.928336, "lon": 10.851668, "tags": {"amenity": "charging_station", "access": "customers", "opening_hours": "24/7", "name": "Tesla Service Center", "addr:country": "NO", "socket:type2": "1", "socket:type2:output": "7.4 kW", "socket:cee_blue": "1", "socket:cee_blue:output": "7.4 kW", "charging_station:output": "7.4 kW", "capacity": "2", "_source": "worldwide"}}, {"type": "node", "id": 11169096537, "lat": 59.926579, "lon": 10.849317, "tags": {"amenity": "charging_station", "access": "yes", "brand": "Eviny", "name": "Eviny Alna senter", "addr:country": "NO", "socket:type2": "8", "socket:type2:output": "22.0 kW", "socket:type2_combo": "6", "socket:type2_combo:output": "200.0 kW", "socket:chademo": "3", "socket:chademo:output": "62.0 kW", "charging_station:output": "200.0 kW", "capacity": "14", "_source": "worldwide"}}, {"type": "node", "id": 11172579971, "lat": 59.925068, "lon": 10.845467, "tags": {"amenity": "charging_station", "access": "yes", "brand": "Recharge", "name": "Recharge Esso Alna E6", "addr:country": "NO", "socket:type2_combo": "8", "socket:type2_combo:output": "200.0 kW", "socket:chademo": "4", "socket:chademo:output": "62.0 kW", "charging_station:output": "200.0 kW", "capacity": "8", "_source": "worldwide"}}, {"type": "node", "id": 11172579972, "lat": 59.925207, "lon": 10.844261, "tags": {"amenity": "charging_station", "access": "yes", "brand": "Recharge", "name": "Recharge Esso Alna", "addr:country": "NO", "socket:type2_combo": "6", "socket:type2_combo:output": "300.0 kW", "socket:chademo": "1", "socket:chademo:output": "50.0 kW", "charging_station:output": "300.0 kW", "capacity": "6", "_source": "worldwide"}}, {"type": "node", "id": 1770689879, "lat": 59.212748, "lon": 10.944717, "tags": {"amenity": "charging_station", "access": "yes", "opening_hours": "24/7", "operator": "Fredrikstad kommune", "name": "Apenesfjellet p-hus", "addr:country": "NO", "socket:type2": "15", "socket:type2:output": "7.4 kW", "charging_station:output": "7.4 kW", "capacity": "15", "_source": "worldwide"}}, {"type": "node", "id": 1770689883, "lat": 59.907515, "lon": 10.768389, "tags": {"amenity": "charging_station", "access": "yes", "opening_hours": "24/7", "operator": "Oslo kommune", "name": "Arups gate", "addr:country": "NO", "socket:type2": "4", "socket:type2:output": "3.6 kW", "charging_station:output": "3.6 kW", "capacity": "4", "_source": "worldwide"}}, {"type": "node", "id": 1770689908, "lat": 59.919074, "lon": 10.711197, "tags": {"amenity": "charging_station", "access": "yes", "opening_hours": "24/7", "operator": "Oslo kommune", "name": "Baldersgate", "addr:country": "NO", "socket:type2": "4", "socket:type2:output": "3.6 kW", "charging_station:output": "3.6 kW", "capacity": "4", "_source": "worldwide"}}, {"type": "node", "id": 6018875327, "lat": 59.915531, "lon": 10.710246, "tags": {"amenity": "charging_station", "access": "yes", "opening_hours": "24/7", "operator": "Oslo kommune", "name": "Gabels gate", "addr:country": "NO", "socket:type2": "10", "socket:type2:output": "3.6 kW", "charging_station:output": "3.6 kW", "capacity": "10", "_source": "worldwide"}}, {"type": "node", "id": 1770689921, "lat": 59.943806, "lon": 10.759964, "tags": {"amenity": "charging_station", "access": "yes", "brand": "Recharge", "opening_hours": "24/7", "name": "Recharge Bjølsen Øst", "addr:country": "NO", "socket:type2_combo": "11", "socket:type2_combo:output": "200.0 kW", "socket:chademo": "3", "socket:chademo:output": "62.0 kW", "charging_station:output": "200.0 kW", "capacity": "11", "_source": "worldwide"}}, {"type": "node", "id": 5808132175, "lat": 59.942435, "lon": 10.761568, "tags": {"amenity": "charging_station", "access": "yes", "opening_hours": "24/7", "operator": "Oslo kommune", "name": "Holmestrandgata", "addr:country": "NO", "socket:type2": "6", "socket:type2:output": "3.6 kW", "charging_station:output": "3.6 kW", "capacity": "6", "_source": "worldwide"}}, {"type": "node", "id": 5808132262, "lat": 59.945561, "lon": 10.760822, "tags": {"amenity": "charging_station", "access": "yes", "opening_hours": "24/7", "operator": "Oslo kommune", "name": "Badebakken", "addr:country": "NO", "socket:type2": "6", "socket:type2:output": "3.6 kW", "charging_station:output": "3.6 kW", "capacity": "6", "_source": "worldwide"}}, {"type": "node", "id": 12810007061, "lat": 59.94402, "lon": 10.75903, "tags": {"amenity": "charging_station", "access": "yes", "brand": "Recharge", "name": "Recharge Bjølsen Vest", "addr:country": "NO", "socket:type2": "2", "socket:type2:output": "11.0 kW", "socket:type2_combo": "6", "socket:type2_combo:output": "150.0 kW", "socket:chademo": "3", "socket:chademo:output": "50.0 kW", "charging_station:output": "150.0 kW", "capacity": "8", "_source": "worldwide"}}, {"type": "node", "id": 1770689924, "lat": 59.914924, "lon": 10.753613, "tags": {"amenity": "charging_station", "access": "yes", "opening_hours": "24/7", "operator": "Oslo kommune", "name": "Bernt Ankers gate", "addr:country": "NO", "socket:type2": "4", "socket:type2:output": "3.6 kW", "charging_station:output": "3.6 kW", "capacity": "4", "_source": "worldwide"}}, {"type": "node", "id": 1770690665, "lat": 59.916744, "lon": 10.747969, "tags": {"amenity": "charging_station", "access": "yes", "opening_hours": "24/7", "operator": "Oslo kommune", "name": "Hammersborg torg", "addr:country": "NO", "socket:type2": "16", "socket:type2:output": "7.4 kW", "charging_station:output": "7.4 kW", "capacity": "16", "_source": "worldwide"}}, {"type": "node", "id": 12944179607, "lat": 59.916713, "lon": 10.749113, "tags": {"amenity": "charging_station", "access": "permit", "name": "LADESTASJON FOR TAXI", "addr:country": "NO", "_source": "worldwide"}}, {"type": "node", "id": 1770689927, "lat": 59.720812, "lon": 10.793539, "tags": {"amenity": "charging_station", "access": "yes", "fee": "yes", "brand": "Recharge", "opening_hours": "24/7", "operator": "Recharge", "name": "Recharge Birger N Haug Ski", "addr:country": "NO", "socket:chademo": "1", "socket:chademo:output": "50.0 kW", "charging_station:output": "50.0 kW", "capacity": "1", "_source": "worldwide"}}, {"type": "node", "id": 6762237243, "lat": 59.718572, "lon": 10.798485, "tags": {"amenity": "charging_station", "addr:country": "NO", "_source": "worldwide"}}, {"type": "node", "id": 1770689928, "lat": 59.907651, "lon": 10.493002, "tags": {"amenity": "charging_station", "access": "yes", "fee": "yes", "brand": "Recharge", "opening_hours": "24/7", "operator": "Recharge", "name": "Recharge Birger N Haug Rud", "addr:country": "NO", "socket:chademo": "1", "socket:chademo:output": "35.0 kW", "charging_station:output": "35.0 kW", "capacity": "1", "_source": "worldwide"}}, {"type": "node", "id": 1770689929, "lat": 59.930259, "lon": 10.825317, "tags": {"amenity": "charging_station", "access": "yes", "fee": "yes", "brand": "Recharge", "opening_hours": "24/7", "operator": "Recharge/Birger N. Haug", "name": "Recharge Birger N Haug Oslo", "addr:country": "NO", "socket:chademo": "1", "socket:chademo:output": "50.0 kW", "charging_station:output": "50.0 kW", "capacity": "1", "_source": "worldwide"}}, {"type": "node", "id": 1770689961, "lat": 59.903653, "lon": 10.82166, "tags": {"amenity": "charging_station", "access": "yes", "brand": "Recharge", "opening_hours": "24/7", "name": "Recharge Bryn senter", "addr:country": "NO", "socket:type2": "2", "socket:type2:output": "11.0 kW", "socket:type2_combo": "3", "socket:type2_combo:output": "50.0 kW", "socket:chademo": "3", "socket:chademo:output": "50.0 kW", "charging_station:output": "50.0 kW", "capacity": "5", "_source": "worldwide"}}, {"type": "node", "id": 1770689981, "lat": 59.916914, "lon": 10.637136, "tags": {"amenity": "charging_station", "access": "customers", "opening_hours": "24/7", "operator": "CC Vest", "name": "CC Vest, p-hus vest", "addr:country": "NO", "socket:type2": "5", "socket:type2:output": "22.0 kW", "charging_station:output": "22.0 kW", "capacity": "5", "_source": "worldwide"}}, {"type": "node", "id": 6018872093, "lat": 59.918691, "lon": 10.635079, "tags": {"amenity": "charging_station", "name": "CC Vest p-hus nord", "addr:country": "NO", "capacity": "6", "_source": "worldwide"}}, {"type": "node", "id": 6018872094, "lat": 59.916923, "lon": 10.635615, "tags": {"amenity": "charging_station", "name": "CC Vest p-hus vest", "addr:country": "NO", "capacity": "3", "_source": "worldwide"}}, {"type": "node", "id": 1770690069, "lat": 59.920087, "lon": 10.701078, "tags": {"amenity": "charging_station", "access": "yes", "opening_hours": "24/7", "operator": "Oslo kommune", "name": "Eckersbergs gate", "addr:country": "NO", "socket:type2": "4", "socket:type2:output": "3.6 kW", "charging_station:output": "3.6 kW", "capacity": "4", "_source": "worldwide"}}, {"type": "node", "id": 1770691203, "lat": 59.921769, "lon": 10.704065, "tags": {"amenity": "charging_station", "access": "yes", "opening_hours": "24/7", "operator": "Oslo kommune", "name": "Lindemansgate", "addr:country": "NO", "socket:type2": "2", "socket:type2:output": "3.6 kW", "charging_station:output": "3.6 kW", "capacity": "2", "_source": "worldwide"}}, {"type": "node", "id": 6018872130, "lat": 59.923517, "lon": 10.701469, "tags": {"amenity": "charging_station", "access": "yes", "opening_hours": "24/7", "operator": "Oslo kommune", "name": "Vigelandsmuseet p-plass", "addr:country": "NO", "socket:type2": "10", "socket:type2:output": "3.6 kW", "charging_station:output": "3.6 kW", "capacity": "10", "_source": "worldwide"}}, {"type": "node", "id": 6018875321, "lat": 59.92008, "lon": 10.70661, "tags": {"amenity": "charging_station", "access": "yes", "opening_hours": "24/7", "operator": "Oslo kommune", "name": "Eckersbergs gate/Frognerveien", "addr:country": "NO", "socket:type2": "4", "socket:type2:output": "3.6 kW", "charging_station:output": "3.6 kW", "capacity": "4", "_source": "worldwide"}}, {"type": "node", "id": 1770690109, "lat": 59.924506, "lon": 10.72309, "tags": {"amenity": "charging_station", "access": "yes", "opening_hours": "24/7", "operator": "Oslo kommune", "name": "Eilert Sundts gate", "addr:country": "NO", "socket:type2": "4", "socket:type2:output": "3.6 kW", "charging_station:output": "3.6 kW", "capacity": "4", "_source": "worldwide"}}, {"type": "node", "id": 1770691233, "lat": 59.921071, "lon": 10.730805, "tags": {"amenity": "charging_station", "access": "yes", "opening_hours": "24/7", "operator": "Oslo kommune", "name": "Mauritz Hansens gate", "addr:country": "NO", "socket:type2": "8", "socket:type2:output": "7.4 kW", "charging_station:output": "7.4 kW", "capacity": "8", "_source": "worldwide"}}, {"type": "node", "id": 1770691648, "lat": 59.921388, "lon": 10.72521, "tags": {"amenity": "charging_station", "access": "yes", "opening_hours": "24/7", "operator": "Oslo kommune", "name": "Oscars gate", "addr:country": "NO", "socket:type2": "4", "socket:type2:output": "3.6 kW", "charging_station:output": "3.6 kW", "capacity": "4", "_source": "worldwide"}}, {"type": "node", "id": 6018875298, "lat": 59.924508, "lon": 10.72465, "tags": {"amenity": "charging_station", "access": "yes", "opening_hours": "24/7", "operator": "Oslo kommune", "name": "Bogstadsveien", "addr:country": "NO", "socket:type2": "2", "socket:type2:output": "3.6 kW", "charging_station:output": "3.6 kW", "capacity": "2", "_source": "worldwide"}}, {"type": "node", "id": 12840612438, "lat": 59.924147, "lon": 10.726168, "tags": {"amenity": "charging_station", "access": "yes", "fee": "yes", "brand": "Tesla", "opening_hours": "24/7", "operator": "Tesla", "name": "Tesla Bogstadveien Supercharger", "addr:country": "NO", "socket:type2_combo": "16", "socket:type2_combo:output": "250.0 kW", "charging_station:output": "250.0 kW", "capacity": "16", "_source": "worldwide"}}, {"type": "node", "id": 1770690158, "lat": 59.935343, "lon": 10.936934, "tags": {"amenity": "charging_station", "access": "customers", "opening_hours": "24/7", "operator": "Elkjøp Norge AS", "name": "Elkjøp Megastore", "addr:country": "NO", "socket:type2": "2", "socket:type2:output": "11.0 kW", "charging_station:output": "11.0 kW", "capacity": "2", "_source": "worldwide"}}, {"type": "node", "id": 1770690357, "lat": 59.928283, "lon": 10.763843, "tags": {"amenity": "charging_station", "access": "yes", "opening_hours": "24/7", "operator": "Oslo kommune", "name": "Romsdalsgata", "addr:country": "NO", "socket:type2": "4", "socket:type2:output": "3.6 kW", "charging_station:output": "3.6 kW", "capacity": "4", "_source": "worldwide"}}, {"type": "node", "id": 1770693297, "lat": 59.926557, "lon": 10.756015, "tags": {"amenity": "charging_station", "access": "yes", "opening_hours": "24/7", "operator": "Oslo kommune", "name": "Steenstrups gate", "addr:country": "NO", "socket:type2": "4", "socket:type2:output": "3.6 kW", "charging_station:output": "3.6 kW", "capacity": "4", "_source": "worldwide"}}, {"type": "node", "id": 6018872103, "lat": 59.92894, "lon": 10.75717, "tags": {"amenity": "charging_station", "access": "yes", "brand": "Ragde Charge", "name": "Ragde Charge Thorvald Meyers gate", "addr:country": "NO", "socket:type2_combo": "9", "socket:type2_combo:output": "225.0 kW", "socket:chademo": "1", "socket:chademo:output": "100.0 kW", "charging_station:output": "225.0 kW", "capacity": "9", "_source": "worldwide"}}, {"type": "node", "id": 1770690667, "lat": 59.913412, "lon": 10.722203, "tags": {"amenity": "charging_station", "access": "yes", "opening_hours": "24/7", "operator": "Oslo kommune", "name": "Hansteens gate", "addr:country": "NO", "socket:type2": "6", "socket:type2:output": "3.6 kW", "charging_station:output": "3.6 kW", "capacity": "6", "_source": "worldwide"}}, {"type": "node", "id": 4554153690, "lat": 59.911485, "lon": 10.71221, "tags": {"amenity": "charging_station", "operator": "osiedlowa 6kW darmowa 1 miejsce", "name": "Ladestation osiedlowa 6kW darmowa 1 miejsce", "addr:country": "NO", "_source": "worldwide"}}, {"type": "node", "id": 11172579973, "lat": 59.910122, "lon": 10.721082, "tags": {"amenity": "charging_station", "access": "yes", "brand": "Recharge", "name": "Recharge Filipstad", "addr:country": "NO", "socket:type2_combo": "8", "socket:type2_combo:output": "150.0 kW", "socket:chademo": "8", "socket:chademo:output": "62.0 kW", "charging_station:output": "150.0 kW", "capacity": "8", "_source": "worldwide"}}, {"type": "node", "id": 11190912521, "lat": 59.909706, "lon": 10.718723, "tags": {"amenity": "charging_station", "access": "yes", "brand": "Kople", "name": "Kople DB Schenker Filipstad", "addr:country": "NO", "socket:type2_combo": "2", "socket:type2_combo:output": "180.0 kW", "charging_station:output": "180.0 kW", "capacity": "2", "_source": "worldwide"}}, {"type": "node", "id": 11190912522, "lat": 59.909489, "lon": 10.717595, "tags": {"amenity": "charging_station", "access": "yes", "brand": "Kople", "name": "Kople DHL Filipstad", "addr:country": "NO", "socket:type2_combo": "2", "socket:type2_combo:output": "180.0 kW", "charging_station:output": "180.0 kW", "capacity": "2", "_source": "worldwide"}}, {"type": "node", "id": 11190912523, "lat": 59.909234, "lon": 10.716434, "tags": {"amenity": "charging_station", "access": "yes", "brand": "Kople", "name": "Kople Posten Filipstad", "addr:country": "NO", "socket:type2_combo": "2", "socket:type2_combo:output": "180.0 kW", "charging_station:output": "180.0 kW", "capacity": "2", "_source": "worldwide"}}, {"type": "node", "id": 1770690551, "lat": 59.913072, "lon": 10.796234, "tags": {"amenity": "charging_station", "access": "yes", "opening_hours": "24/7", "operator": "Oslo kommune", "name": "Fyrstikktorget Helsfyr", "addr:country": "NO", "socket:type2": "10", "socket:type2:output": "3.6 kW", "charging_station:output": "3.6 kW", "capacity": "10", "_source": "worldwide"}}, {"type": "node", "id": 6018872180, "lat": 59.912965, "lon": 10.788893, "tags": {"amenity": "charging_station", "access": "yes", "opening_hours": "24/7", "operator": "Oslo kommune", "name": "Rolf Hofmos gate", "addr:country": "NO", "socket:type2": "10", "socket:type2:output": "3.6 kW", "charging_station:output": "3.6 kW", "capacity": "10", "_source": "worldwide"}}, {"type": "node", "id": 11172579969, "lat": 59.910473, "lon": 10.791564, "tags": {"amenity": "charging_station", "access": "yes", "brand": "Recharge", "name": "Recharge St1 Etterstad", "addr:country": "NO", "socket:type2_combo": "6", "socket:type2_combo:output": "225.0 kW", "socket:chademo": "1", "socket:chademo:output": "62.0 kW", "charging_station:output": "225.0 kW", "capacity": "6", "_source": "worldwide"}}, {"type": "node", "id": 1770690679, "lat": 59.48873, "lon": 10.86661, "tags": {"amenity": "charging_station", "access": "yes", "opening_hours": "24/7", "operator": "Kople", "name": "Kople Kjosveien 1", "addr:country": "NO", "socket:type2": "6", "socket:type2:output": "22 kW", "charging_station:output": "22 kW", "capacity": "6", "_source": "worldwide"}}, {"type": "node", "id": 1770690777, "lat": 59.36717, "lon": 10.442113, "tags": {"amenity": "charging_station", "access": "yes", "opening_hours": "24/7", "operator": "Høgskolen i Vestfold", "name": "Høgskolen i Vestfold", "addr:country": "NO", "socket:type2": "8", "socket:type2:output": "3.6 kW", "charging_station:output": "3.6 kW", "capacity": "8", "_source": "worldwide"}}, {"type": "node", "id": 6763239313, "lat": 59.36932, "lon": 10.441238, "tags": {"amenity": "charging_station", "brand": "Recharge", "name": "Recharge Campus Vestfold Adalstjern", "addr:country": "NO", "socket:type2": "8", "socket:type2:output": "7.4 kW", "charging_station:output": "7.4 kW", "capacity": "8", "_source": "worldwide"}}, {"type": "node", "id": 1770690811, "lat": 59.933918, "lon": 10.871624, "tags": {"amenity": "charging_station", "access": "customers", "opening_hours": "24/7", "operator": "IKEA", "name": "IKEA Furuset", "addr:country": "NO", "socket:type2": "8", "socket:type2:output": "11.0 kW", "charging_station:output": "11.0 kW", "capacity": "8", "_source": "worldwide"}}, {"type": "node", "id": 6018872128, "lat": 59.931051, "lon": 10.868879, "tags": {"amenity": "charging_station", "access": "yes", "brand": "Recharge", "name": "Recharge McDonald's Furuset", "addr:country": "NO", "socket:type2_combo": "6", "socket:type2_combo:output": "100.0 kW", "socket:chademo": "3", "socket:chademo:output": "50.0 kW", "charging_station:output": "100.0 kW", "capacity": "6", "_source": "worldwide"}}, {"type": "node", "id": 6018875330, "lat": 59.93364, "lon": 10.873396, "tags": {"amenity": "charging_station", "access": "yes", "brand": "Recharge", "opening_hours": "24/7", "name": "Recharge IKEA Furuset", "addr:country": "NO", "socket:type2": "8", "socket:type2:output": "11.0 kW", "socket:type2_combo": "4", "socket:type2_combo:output": "50.0 kW", "socket:chademo": "4", "socket:chademo:output": "50.0 kW", "charging_station:output": "50.0 kW", "capacity": "12", "_source": "worldwide"}}, {"type": "node", "id": 6997232316, "lat": 59.930451, "lon": 10.867239, "tags": {"amenity": "charging_station", "access": "yes", "brand": "Circle K", "name": "Circle K E6 Furuset", "addr:country": "NO", "socket:type2_combo": "28", "socket:type2_combo:output": "400.0 kW", "socket:chademo": "8", "socket:chademo:output": "62.0 kW", "charging_station:output": "400.0 kW", "capacity": "28", "_source": "worldwide"}}, {"type": "node", "id": 1770690815, "lat": 59.874258, "lon": 10.499122, "tags": {"amenity": "charging_station", "access": "yes", "brand": "Recharge", "name": "Recharge IKEA Slependen", "addr:country": "NO", "socket:type2": "44", "socket:type2:output": "11.0 kW", "socket:type2_combo": "26", "socket:type2_combo:output": "200.0 kW", "socket:chademo": "4", "socket:chademo:output": "62.0 kW", "charging_station:output": "200.0 kW", "capacity": "70", "_source": "worldwide"}}, {"type": "node", "id": 1770693064, "lat": 59.87373, "lon": 10.502627, "tags": {"amenity": "charging_station", "access": "customers", "opening_hours": "24/7", "operator": "Lade i Norge", "name": "Slependen senter", "addr:country": "NO", "socket:type2": "8", "socket:type2:output": "22.0 kW", "socket:type1": "8", "socket:type1:output": "3.6 kW", "charging_station:output": "22.0 kW", "capacity": "16", "_source": "worldwide"}}, {"type": "node", "id": 6019570836, "lat": 59.87343, "lon": 10.49689, "tags": {"amenity": "charging_station", "access": "yes", "fee": "yes", "brand": "Recharge", "opening_hours": "24/7", "operator": "Recharge", "name": "Recharge IKEA Slependen p-kjeller", "addr:country": "NO", "socket:type2": "4", "socket:type2:output": "3.6 kW", "charging_station:output": "3.6 kW", "capacity": "4", "_source": "worldwide"}}, {"type": "node", "id": 1770690834, "lat": 59.894924, "lon": 10.626544, "tags": {"amenity": "charging_station", "access": "yes", "brand": "Circle K", "name": "Circle K Fornebu", "addr:country": "NO", "socket:type2_combo": "4", "socket:type2_combo:output": "300.0 kW", "socket:chademo": "2", "socket:chademo:output": "62.0 kW", "charging_station:output": "300.0 kW", "capacity": "4", "_source": "worldwide"}}, {"type": "node", "id": 1770690857, "lat": 59.908165, "lon": 10.779955, "tags": {"amenity": "charging_station", "access": "yes", "fee": "yes", "opening_hours": "24/7", "operator": "Oslo kommune", "name": "Jordalgata", "addr:country": "NO", "socket:type2": "4", "socket:type2:output": "3.6 kW", "charging_station:output": "3.6 kW", "capacity": "4", "_source": "worldwide"}}, {"type": "node", "id": 4568615016, "lat": 59.907338, "lon": 10.782899, "tags": {"amenity": "charging_station", "access": "yes", "opening_hours": "24/7", "operator": "Oslo kommune", "name": "Vålerenggata", "addr:country": "NO", "socket:type2": "4", "socket:type2:output": "3.6 kW", "charging_station:output": "3.6 kW", "capacity": "4", "_source": "worldwide"}}, {"type": "node", "id": 1770690867, "lat": 59.923233, "lon": 10.783148, "tags": {"amenity": "charging_station", "access": "yes", "opening_hours": "24/7", "operator": "Oslo kommune", "name": "Bergljots vei", "addr:country": "NO", "socket:type2": "12", "socket:type2:output": "3.6 kW", "charging_station:output": "3.6 kW", "capacity": "12", "_source": "worldwide"}}, {"type": "node", "id": 6018875316, "lat": 59.920323, "lon": 10.784784, "tags": {"amenity": "charging_station", "access": "yes", "opening_hours": "24/7", "operator": "Oslo kommune", "name": "Kaare Røddes plass", "addr:country": "NO", "socket:type2": "6", "socket:type2:output": "3.6 kW", "charging_station:output": "3.6 kW", "capacity": "6", "_source": "worldwide"}}, {"type": "node", "id": 1770690888, "lat": 59.921831, "lon": 10.763865, "tags": {"amenity": "charging_station", "access": "yes", "opening_hours": "24/7", "operator": "Oslo kommune", "name": "Kirkegårdsgata", "addr:country": "NO", "socket:type2": "4", "socket:type2:output": "3.6 kW", "charging_station:output": "3.6 kW", "capacity": "4", "_source": "worldwide"}}, {"type": "node", "id": 1770693078, "lat": 59.922357, "lon": 10.760129, "tags": {"amenity": "charging_station", "access": "yes", "opening_hours": "24/7", "operator": "Oslo kommune", "name": "Sofienberggata", "addr:country": "NO", "socket:type2": "4", "socket:type2:output": "3.6 kW", "charging_station:output": "3.6 kW", "capacity": "4", "_source": "worldwide"}}, {"type": "node", "id": 6018872165, "lat": 59.924152, "lon": 10.756279, "tags": {"amenity": "charging_station", "access": "yes", "opening_hours": "24/7", "operator": "Oslo kommune", "name": "Steenstrups gate", "addr:country": "NO", "socket:type2": "4", "socket:type2:output": "3.6 kW", "charging_station:output": "3.6 kW", "capacity": "4", "_source": "worldwide"}}, {"type": "node", "id": 1770691229, "lat": 59.73437, "lon": 10.20456, "tags": {"amenity": "charging_station", "access": "yes", "brand": "Mer", "opening_hours": "24/7", "name": "Mer Drammen Marienlyst", "addr:country": "NO", "socket:type2_combo": "2", "socket:type2_combo:output": "43.0 kW", "socket:chademo": "2", "socket:chademo:output": "43.0 kW", "charging_station:output": "43.0 kW", "capacity": "2", "_source": "worldwide"}}, {"type": "node", "id": 2882186756, "lat": 59.737792, "lon": 10.202446, "tags": {"amenity": "charging_station", "access": "yes", "opening_hours": "24/7", "operator": "Drammen Parkering KF", "name": "Blichs gate p-hus", "addr:country": "NO", "socket:type2": "21", "socket:type2:output": "22.0 kW", "charging_station:output": "22.0 kW", "capacity": "21", "_source": "worldwide"}}, {"type": "node", "id": 1770691237, "lat": 59.72575, "lon": 10.783636, "tags": {"amenity": "charging_station", "access": "yes", "brand": "Recharge", "name": "Recharge McDonald's Nygårdskrysset", "addr:country": "NO", "socket:type2_combo": "4", "socket:type2_combo:output": "225.0 kW", "socket:chademo": "1", "socket:chademo:output": "50.0 kW", "charging_station:output": "225.0 kW", "capacity": "4", "_source": "worldwide"}}, {"type": "node", "id": 6019568968, "lat": 59.724837, "lon": 10.783448, "tags": {"amenity": "charging_station", "access": "yes", "brand": "Recharge", "opening_hours": "24/7", "name": "Recharge YX 7-Eleven Nygårdskrysset", "addr:country": "NO", "socket:type2": "1", "socket:type2:output": "11.0 kW", "socket:type2_combo": "3", "socket:type2_combo:output": "175.0 kW", "socket:chademo": "3", "socket:chademo:output": "62.0 kW", "charging_station:output": "175.0 kW", "capacity": "4", "_source": "worldwide"}}, {"type": "node", "id": 1770691253, "lat": 59.90899, "lon": 10.735975, "tags": {"amenity": "charging_station", "access": "yes", "opening_hours": "24/7", "operator": "Oslo kommune", "name": "Akershus festning", "addr:country": "NO", "socket:type2": "86", "socket:type2:output": "3.6 kW", "charging_station:output": "3.6 kW", "capacity": "86", "_source": "worldwide"}}, {"type": "node", "id": 6018872141, "lat": 59.909052, "lon": 10.740169, "tags": {"amenity": "charging_station", "access": "yes", "opening_hours": "24/7", "operator": "Oslo kommune", "name": "Revierstredet", "addr:country": "NO", "socket:type2": "6", "socket:type2:output": "3.6 kW", "charging_station:output": "3.6 kW", "capacity": "6", "_source": "worldwide"}}, {"type": "node", "id": 1770691255, "lat": 59.744966, "lon": 10.016305, "tags": {"amenity": "charging_station", "access": "yes", "brand": "Kople", "name": "Kople Mjøndalshallen", "addr:country": "NO", "socket:type2_combo": "4", "socket:type2_combo:output": "43.0 kW", "charging_station:output": "43.0 kW", "capacity": "4", "_source": "worldwide"}}, {"type": "node", "id": 1770691294, "lat": 59.433701, "lon": 10.66145, "tags": {"amenity": "charging_station", "access": "yes", "fee": "yes", "brand": "Recharge", "opening_hours": "24/7", "operator": "Recharge", "name": "Recharge Skoggata 52", "addr:country": "NO", "socket:type2": "4", "socket:type2:output": "7.2 kW", "charging_station:output": "7.2 kW", "capacity": "4", "_source": "worldwide"}}, {"type": "node", "id": 6017211512, "lat": 59.434403, "lon": 10.661139, "tags": {"amenity": "charging_station", "access": "yes", "brand": "Recharge", "opening_hours": "24/7", "name": "Recharge Ladetorget Moss", "addr:country": "NO", "socket:type2": "11", "socket:type2:output": "11.0 kW", "socket:type2_combo": "2", "socket:type2_combo:output": "50.0 kW", "socket:chademo": "2", "socket:chademo:output": "50.0 kW", "charging_station:output": "50.0 kW", "capacity": "13", "_source": "worldwide"}}, {"type": "node", "id": 6017211522, "lat": 59.43542, "lon": 10.66682, "tags": {"amenity": "charging_station", "access": "yes", "fee": "yes", "brand": "Recharge", "opening_hours": "24/7", "operator": "Recharge", "name": "Recharge Sparebank1 Moss", "addr:country": "NO", "socket:type2": "4", "socket:type2:output": "7.2 kW", "charging_station:output": "7.2 kW", "capacity": "4", "_source": "worldwide"}}, {"type": "node", "id": 6121252962, "lat": 59.433981, "lon": 10.662514, "tags": {"amenity": "charging_station", "addr:country": "NO", "_source": "worldwide"}}, {"type": "node", "id": 1770691364, "lat": 59.919002, "lon": 10.718352, "tags": {"amenity": "charging_station", "access": "yes", "opening_hours": "24/7", "operator": "Oslo kommune", "name": "Niels Juels gate 47-51", "addr:country": "NO", "socket:type2": "8", "socket:type2:output": "7.4 kW", "charging_station:output": "7.4 kW", "capacity": "8", "_source": "worldwide"}}, {"type": "node", "id": 5210385479, "lat": 59.918677, "lon": 10.714857, "tags": {"amenity": "charging_station", "access": "yes", "opening_hours": "24/7", "operator": "Oslo kommune", "name": "Gyldenløves gate", "addr:country": "NO", "socket:type2": "4", "socket:type2:output": "3.6 kW", "charging_station:output": "3.6 kW", "capacity": "4", "_source": "worldwide"}}, {"type": "node", "id": 6018872108, "lat": 59.914343, "lon": 10.719424, "tags": {"amenity": "charging_station", "access": "yes", "brand": "Recharge", "operator": "Recharge", "name": "Recharge Solli p-hus", "addr:country": "NO", "socket:type2": "36", "socket:type2:output": "22.0 kW", "charging_station:output": "22.0 kW", "capacity": "36", "_source": "worldwide"}}, {"type": "node", "id": 6018872164, "lat": 59.915567, "lon": 10.713436, "tags": {"amenity": "charging_station", "access": "yes", "opening_hours": "24/7", "operator": "Oslo kommune", "name": "Nils Juels gate", "addr:country": "NO", "socket:type2": "4", "socket:type2:output": "3.6 kW", "charging_station:output": "3.6 kW", "capacity": "4", "_source": "worldwide"}}, {"type": "node", "id": 1770691378, "lat": 59.914121, "lon": 10.761296, "tags": {"amenity": "charging_station", "access": "yes", "fee": "yes", "brand": "Recharge", "opening_hours": "24/7", "operator": "Recharge", "name": "Recharge Nordbygata p-hus Grønland", "addr:country": "NO", "socket:type2": "22", "socket:type2:output": "3.6 kW", "charging_station:output": "3.6 kW", "capacity": "22", "_source": "worldwide"}}, {"type": "node", "id": 6018872153, "lat": 59.919172, "lon": 10.757917, "tags": {"amenity": "charging_station", "access": "yes", "opening_hours": "24/7", "operator": "Oslo kommune", "name": "Leirfallsgata", "addr:country": "NO", "socket:type2": "4", "socket:type2:output": "3.6 kW", "charging_station:output": "3.6 kW", "capacity": "4", "_source": "worldwide"}}, {"type": "node", "id": 1770691404, "lat": 59.41667, "lon": 10.47999, "tags": {"amenity": "charging_station", "access": "yes", "opening_hours": "24/7", "operator": "Horten", "name": "C. Andersens gate 5", "addr:country": "NO", "socket:type2": "6", "socket:type2:output": "7.4 kW", "charging_station:output": "7.4 kW", "capacity": "6", "_source": "worldwide"}}, {"type": "node", "id": 6017151391, "lat": 59.41492, "lon": 10.48047, "tags": {"amenity": "charging_station", "access": "yes", "opening_hours": "24/7", "operator": "Horten kommune", "name": "Skolegata", "addr:country": "NO", "socket:type2": "4", "socket:type2:output": "7.4 kW", "charging_station:output": "7.4 kW", "capacity": "4", "_source": "worldwide"}}, {"type": "node", "id": 1770691443, "lat": 59.966098, "lon": 10.781488, "tags": {"amenity": "charging_station", "access": "yes", "opening_hours": "24/7", "operator": "Oslo kommune", "name": "Teknisk Museum", "addr:country": "NO", "socket:type2": "4", "socket:type2:output": "3.6 kW", "charging_station:output": "3.6 kW", "capacity": "4", "_source": "worldwide"}}, {"type": "node", "id": 1770691542, "lat": 59.929468, "lon": 10.717995, "tags": {"amenity": "charging_station", "access": "yes", "opening_hours": "24/7", "operator": "Oslo kommune", "name": "Ole Vigs gate", "addr:country": "NO", "socket:type2": "4", "socket:type2:output": "3.6 kW", "charging_station:output": "3.6 kW", "capacity": "4", "_source": "worldwide"}}, {"type": "node", "id": 6018875308, "lat": 59.925803, "lon": 10.714883, "tags": {"amenity": "charging_station", "access": "yes", "brand": "Recharge", "name": "Recharge Frogner", "addr:country": "NO", "socket:type2": "16", "socket:type2:output": "11.0 kW", "socket:type2_combo": "10", "socket:type2_combo:output": "225.0 kW", "socket:chademo": "4", "socket:chademo:output": "50.0 kW", "charging_station:output": "225.0 kW", "capacity": "26", "_source": "worldwide"}}, {"type": "node", "id": 1770691659, "lat": 59.26451, "lon": 10.407808, "tags": {"amenity": "charging_station", "access": "yes", "opening_hours": "24/7", "operator": "Parkeringsselskapet AS", "name": "Oseberg p-hus", "addr:country": "NO", "socket:type2": "2", "socket:type2:output": "7.4 kW", "charging_station:output": "7.4 kW", "capacity": "2", "_source": "worldwide"}}, {"type": "node", "id": 1770693337, "lat": 59.26436, "lon": 10.41421, "tags": {"amenity": "charging_station", "access": "yes", "opening_hours": "24/7", "operator": "Tønsberg Parkering", "name": "Zeiner", "addr:country": "NO", "socket:type2": "12", "socket:type2:output": "3.6 kW", "charging_station:output": "3.6 kW", "capacity": "12", "_source": "worldwide"}}, {"type": "node", "id": 1770691728, "lat": 59.909372, "lon": 10.754102, "tags": {"amenity": "charging_station", "access": "yes", "fee": "yes", "brand": "Recharge", "opening_hours": "24/7", "operator": "Recharge", "name": "Recharge OnePark Oslo S", "addr:country": "NO", "socket:type2": "8", "socket:type2:output": "22.0 kW", "charging_station:output": "22.0 kW", "capacity": "8", "_source": "worldwide"}}, {"type": "node", "id": 6018872105, "lat": 59.912091, "lon": 10.755085, "tags": {"amenity": "charging_station", "access": "yes", "opening_hours": "24/7", "operator": "Europark/Galleriet Parkering AS", "name": "Galleriet Vest/Schweigaardsgate 4", "addr:country": "NO", "socket:type2": "5", "socket:type2:output": "3.6 kW", "charging_station:output": "3.6 kW", "capacity": "5", "_source": "worldwide"}}, {"type": "node", "id": 1770691940, "lat": 59.93714, "lon": 10.768534, "tags": {"amenity": "charging_station", "access": "yes", "opening_hours": "24/7", "operator": "Oslo kommune", "name": "Per Kvibergs gate", "addr:country": "NO", "socket:type2": "4", "socket:type2:output": "3.6 kW", "charging_station:output": "3.6 kW", "capacity": "4", "_source": "worldwide"}}, {"type": "node", "id": 6018875336, "lat": 59.939051, "lon": 10.777464, "tags": {"amenity": "charging_station", "access": "yes", "opening_hours": "24/7", "operator": "Oslo kommune", "name": "Hans Nielsens Hauges gate 44", "addr:country": "NO", "socket:type2": "12", "socket:type2:output": "3.6 kW", "charging_station:output": "3.6 kW", "capacity": "12", "_source": "worldwide"}}, {"type": "node", "id": 9775169923, "lat": 59.939193, "lon": 10.773449, "tags": {"amenity": "charging_station", "operator": "Schneider Electric", "name": "Ladestation Schneider Electric", "addr:country": "NO", "capacity": "6", "_source": "worldwide"}}, {"type": "node", "id": 12751888001, "lat": 59.936495, "lon": 10.767501, "tags": {"amenity": "charging_station", "opening_hours": "24/7", "operator": "Oslo kommune", "name": "Agathe Grøndahls gate", "addr:country": "NO", "_source": "worldwide"}}, {"type": "node", "id": 1770692868, "lat": 59.916014, "lon": 10.741638, "tags": {"amenity": "charging_station", "access": "yes", "fee": "yes", "brand": "Tesla Supercharger", "opening_hours": "24/7", "operator": "Tesla", "name": "Tesla Oslo Sentrum p-hus Supercharger", "addr:country": "NO", "socket:type2_combo": "18", "socket:type2_combo:output": "250.0 kW", "charging_station:output": "250.0 kW", "capacity": "18", "_source": "worldwide"}}, {"type": "node", "id": 6018875288, "lat": 59.918183, "lon": 10.735901, "tags": {"amenity": "charging_station", "access": "yes", "opening_hours": "24/7", "operator": "Q-Park", "name": "St. Olavs Gate 27", "addr:country": "NO", "socket:type2": "4", "socket:type2:output": "3.6 kW", "charging_station:output": "3.6 kW", "capacity": "4", "_source": "worldwide"}}, {"type": "node", "id": 1770693017, "lat": 59.716044, "lon": 10.837169, "tags": {"amenity": "charging_station", "access": "yes", "brand": "Recharge", "opening_hours": "24/7", "operator": "Recharge", "name": "Recharge Ski storsenter", "addr:country": "NO", "socket:type2": "10", "socket:type2:output": "22.0 kW", "charging_station:output": "22.0 kW", "capacity": "10", "_source": "worldwide"}}, {"type": "node", "id": 11173760393, "lat": 59.715728, "lon": 10.838737, "tags": {"amenity": "charging_station", "access": "yes", "brand": "Circle K", "name": "Circle K Ski", "addr:country": "NO", "socket:type2_combo": "4", "socket:type2_combo:output": "150.0 kW", "charging_station:output": "150.0 kW", "capacity": "4", "_source": "worldwide"}}, {"type": "node", "id": 1770693364, "lat": 59.947194, "lon": 10.773648, "tags": {"amenity": "charging_station", "access": "yes", "brand": "Recharge", "opening_hours": "24/7", "operator": "Time Park AS / Recharge", "name": "Recharge Storo storsenter", "addr:country": "NO", "socket:type2": "5", "socket:type2:output": "3.6 kW", "charging_station:output": "3.6 kW", "capacity": "5", "_source": "worldwide"}}, {"type": "node", "id": 6772591666, "lat": 59.9481, "lon": 10.77176, "tags": {"amenity": "charging_station", "access": "yes", "brand": "Mer", "name": "Mer Storotunet", "addr:country": "NO", "socket:type2": "11", "socket:type2:output": "11.0 kW", "socket:type2_combo": "4", "socket:type2_combo:output": "50.0 kW", "socket:chademo": "4", "socket:chademo:output": "50.0 kW", "charging_station:output": "50.0 kW", "capacity": "15", "_source": "worldwide"}}, {"type": "node", "id": 1770693477, "lat": 59.911382, "lon": 10.776637, "tags": {"amenity": "charging_station", "access": "yes", "opening_hours": "24/7", "operator": "Oslo kommune", "name": "Sverresgate", "addr:country": "NO", "socket:type2": "2", "socket:type2:output": "3.6 kW", "charging_station:output": "3.6 kW", "capacity": "2", "_source": "worldwide"}}, {"type": "node", "id": 6018875326, "lat": 59.912088, "lon": 10.770408, "tags": {"amenity": "charging_station", "access": "yes", "opening_hours": "24/7", "operator": "Oslo kommune", "name": "Borggata", "addr:country": "NO", "socket:type2": "4", "socket:type2:output": "3.6 kW", "charging_station:output": "3.6 kW", "capacity": "4", "_source": "worldwide"}}, {"type": "node", "id": 1770693696, "lat": 59.746035, "lon": 10.203381, "tags": {"amenity": "charging_station", "access": "yes", "opening_hours": "24/7", "operator": "Drammen kommune", "name": "Thamsgate p-hus", "addr:country": "NO", "socket:type2": "2", "socket:type2:output": "3.6 kW", "charging_station:output": "3.6 kW", "capacity": "2", "_source": "worldwide"}}, {"type": "node", "id": 11172579980, "lat": 59.746904, "lon": 10.195376, "tags": {"amenity": "charging_station", "access": "yes", "brand": "Recharge", "name": "Recharge Esso Park", "addr:country": "NO", "socket:type2_combo": "6", "socket:type2_combo:output": "200.0 kW", "socket:chademo": "2", "socket:chademo:output": "62.0 kW", "charging_station:output": "200.0 kW", "capacity": "6", "_source": "worldwide"}}, {"type": "node", "id": 13119066145, "lat": 59.747238, "lon": 10.198037, "tags": {"amenity": "charging_station", "access": "yes", "fee": "yes", "operator": "D-park", "name": "Ladestation D-park", "addr:country": "NO", "capacity": "4", "_source": "worldwide"}}, {"type": "node", "id": 13252270476, "lat": 59.744343, "lon": 10.202794, "tags": {"amenity": "charging_station", "access": "yes", "fee": "yes", "operator": "OnePark", "name": "Ladestation OnePark", "addr:country": "NO", "capacity": "26", "_source": "worldwide"}}, {"type": "node", "id": 1770693737, "lat": 59.931129, "lon": 10.734427, "tags": {"amenity": "charging_station", "access": "yes", "opening_hours": "24/7", "operator": "Oslo kommune", "name": "Brageveien 2", "addr:country": "NO", "socket:type2": "4", "socket:type2:output": "3.6 kW", "charging_station:output": "3.6 kW", "capacity": "4", "_source": "worldwide"}}, {"type": "node", "id": 1770693912, "lat": 59.836735, "lon": 10.433236, "tags": {"amenity": "charging_station", "access": "yes", "brand": "Eviny", "name": "Eviny Trekanten senter", "addr:country": "NO", "socket:type2": "9", "socket:type2:output": "22.0 kW", "charging_station:output": "22.0 kW", "capacity": "9", "_source": "worldwide"}}, {"type": "node", "id": 11190932867, "lat": 59.835459, "lon": 10.429958, "tags": {"amenity": "charging_station", "access": "yes", "brand": "Kople", "name": "Kople Asker Skiklubb", "addr:country": "NO", "socket:type2_combo": "7", "socket:type2_combo:output": "180.0 kW", "socket:chademo": "1", "socket:chademo:output": "62.0 kW", "charging_station:output": "180.0 kW", "capacity": "7", "_source": "worldwide"}}, {"type": "node", "id": 1770693960, "lat": 59.914558, "lon": 10.841471, "tags": {"amenity": "charging_station", "access": "yes", "brand": "Mer", "opening_hours": "24/7", "name": "Mer Tveita senter bakside", "addr:country": "NO", "socket:type2": "2", "socket:type2:output": "3.6 kW", "charging_station:output": "3.6 kW", "capacity": "2", "_source": "worldwide"}}, {"type": "node", "id": 6018872168, "lat": 59.917794, "lon": 10.837169, "tags": {"amenity": "charging_station", "access": "yes", "opening_hours": "24/7", "operator": "Oslo kommune", "name": "Sigrid Undsets vei", "addr:country": "NO", "socket:type2": "10", "socket:type2:output": "3.6 kW", "charging_station:output": "3.6 kW", "capacity": "10", "_source": "worldwide"}}, {"type": "node", "id": 1770694027, "lat": 59.739818, "lon": 10.770901, "tags": {"amenity": "charging_station", "access": "yes", "opening_hours": "24/7", "operator": "Steen og Strøm", "name": "Vinterbro senter", "addr:country": "NO", "socket:type2": "10", "socket:type2:output": "3.6 kW", "charging_station:output": "3.6 kW", "capacity": "10", "_source": "worldwide"}}, {"type": "node", "id": 6019568923, "lat": 59.738754, "lon": 10.768965, "tags": {"amenity": "charging_station", "addr:country": "NO", "capacity": "6", "_source": "worldwide"}}, {"type": "node", "id": 12776962039, "lat": 59.739586, "lon": 10.768572, "tags": {"amenity": "charging_station", "access": "yes", "brand": "Eviny", "name": "Eviny Alti Vinterbro", "addr:country": "NO", "socket:type2_combo": "16", "socket:type2_combo:output": "500.0 kW", "socket:chademo": "2", "socket:chademo:output": "62.0 kW", "charging_station:output": "500.0 kW", "capacity": "16", "_source": "worldwide"}}, {"type": "node", "id": 1770694056, "lat": 59.250467, "lon": 10.992449, "tags": {"amenity": "charging_station", "access": "yes", "brand": "Mer", "opening_hours": "24/7", "name": "Mer Østfoldhallene", "addr:country": "NO", "socket:type2": "8", "socket:type2:output": "22.0 kW", "socket:type2_combo": "3", "socket:type2_combo:output": "50.0 kW", "socket:chademo": "3", "socket:chademo:output": "50.0 kW", "charging_station:output": "50.0 kW", "capacity": "11", "_source": "worldwide"}}, {"type": "node", "id": 11172579939, "lat": 59.253413, "lon": 10.994573, "tags": {"amenity": "charging_station", "access": "yes", "brand": "Recharge", "name": "Recharge Esso Rolvsøy", "addr:country": "NO", "socket:type2_combo": "6", "socket:type2_combo:output": "400.0 kW", "socket:chademo": "2", "socket:chademo:output": "50.0 kW", "charging_station:output": "400.0 kW", "capacity": "6", "_source": "worldwide"}}, {"type": "node", "id": 2456686560, "lat": 59.732595, "lon": 10.20955, "tags": {"amenity": "charging_station", "access": "yes", "opening_hours": "24/7", "operator": "Automobil-Kompaniet AS", "name": "Automobil-Kompaniet", "addr:country": "NO", "socket:chademo": "1", "socket:chademo:output": "50.0 kW", "charging_station:output": "50.0 kW", "capacity": "1", "_source": "worldwide"}}, {"type": "node", "id": 11188000594, "lat": 59.731716, "lon": 10.212493, "tags": {"amenity": "charging_station", "access": "yes", "brand": "Kople", "name": "Kople Strømsø senter Drammen", "addr:country": "NO", "socket:type2_combo": "8", "socket:type2_combo:output": "180.0 kW", "charging_station:output": "180.0 kW", "capacity": "8", "_source": "worldwide"}}, {"type": "node", "id": 2661870317, "lat": 59.906798, "lon": 10.738438, "tags": {"amenity": "charging_station", "operator": "Oslo Kommune", "name": "Ladestation Oslo Kommune", "addr:country": "NO", "capacity": "12", "_source": "worldwide"}}, {"type": "node", "id": 6018875309, "lat": 59.907404, "lon": 10.743926, "tags": {"amenity": "charging_station", "access": "yes", "opening_hours": "24/7", "operator": "Oslo kommune", "name": "Myntgata", "addr:country": "NO", "socket:type2": "6", "socket:type2:output": "3.6 kW", "charging_station:output": "3.6 kW", "capacity": "6", "_source": "worldwide"}}, {"type": "node", "id": 2810352537, "lat": 59.850412, "lon": 10.833807, "tags": {"amenity": "charging_station", "access": "yes", "brand": "Recharge", "opening_hours": "24/7", "name": "Recharge St1 Mortensrud", "addr:country": "NO", "socket:type2_combo": "10", "socket:type2_combo:output": "150.0 kW", "socket:chademo": "5", "socket:chademo:output": "62.0 kW", "charging_station:output": "150.0 kW", "capacity": "10", "_source": "worldwide"}}, {"type": "node", "id": 5001701847, "lat": 59.770791, "lon": 10.261895, "tags": {"amenity": "charging_station", "access": "yes", "brand": "Mer", "name": "Mer Max Hamburger Lier", "addr:country": "NO", "socket:type2_combo": "2", "socket:type2_combo:output": "150.0 kW", "socket:chademo": "2", "socket:chademo:output": "62.0 kW", "charging_station:output": "150.0 kW", "capacity": "2", "_source": "worldwide"}}, {"type": "node", "id": 3002125370, "lat": 59.766317, "lon": 10.257975, "tags": {"amenity": "charging_station", "access": "yes", "fee": "yes", "brand": "Tesla Supercharger", "opening_hours": "24/7", "operator": "Tesla", "name": "Tesla Lier sør Supercharger", "addr:country": "NO", "socket:type2_combo": "8", "socket:type2_combo:output": "150.0 kW", "socket:tesla_supercharger": "8", "socket:tesla_supercharger:output": "150.0 kW", "charging_station:output": "150.0 kW", "capacity": "8", "_source": "worldwide"}}, {"type": "node", "id": 6024217346, "lat": 59.768332, "lon": 10.259327, "tags": {"amenity": "charging_station", "access": "yes", "brand": "Recharge", "opening_hours": "24/7", "name": "Recharge Buskerud Bilsenter", "addr:country": "NO", "socket:type2_combo": "2", "socket:type2_combo:output": "50.0 kW", "socket:chademo": "2", "socket:chademo:output": "50.0 kW", "charging_station:output": "50.0 kW", "capacity": "2", "_source": "worldwide"}}, {"type": "node", "id": 3065074543, "lat": 59.930714, "lon": 10.752947, "tags": {"amenity": "charging_station", "access": "yes", "opening_hours": "24/7", "operator": "Oslo kommune", "name": "Vøyensvingen", "addr:country": "NO", "socket:type2": "8", "socket:type2:output": "7.4 kW", "charging_station:output": "7.4 kW", "capacity": "8", "_source": "worldwide"}}, {"type": "node", "id": 3161021910, "lat": 59.708323, "lon": 10.840427, "tags": {"amenity": "charging_station", "addr:country": "NO", "_source": "worldwide"}}, {"type": "node", "id": 3295111991, "lat": 59.834695, "lon": 10.774923, "tags": {"amenity": "charging_station", "access": "yes", "opening_hours": "24/7", "operator": "Oslo kommune", "name": "Hvervenbukta", "addr:country": "NO", "socket:type2": "5", "socket:type2:output": "3.6 kW", "charging_station:output": "3.6 kW", "capacity": "5", "_source": "worldwide"}}, {"type": "node", "id": 3473706169, "lat": 59.914586, "lon": 10.634162, "tags": {"amenity": "charging_station", "access": "employees", "name": "Statkraft, Lilleakerveien", "addr:country": "NO", "capacity": "6", "_source": "worldwide"}}, {"type": "node", "id": 6018875351, "lat": 59.919329, "lon": 10.632604, "tags": {"amenity": "charging_station", "access": "yes", "opening_hours": "24/7", "operator": "Lade i Norge", "name": "Møller Bil Oslo Vest", "addr:country": "NO", "socket:type2": "1", "socket:type2:output": "22.0 kW", "socket:type2_combo": "1", "socket:type2_combo:output": "50.0 kW", "charging_station:output": "50.0 kW", "capacity": "2", "_source": "worldwide"}}, {"type": "node", "id": 12776962040, "lat": 59.918097, "lon": 10.634531, "tags": {"amenity": "charging_station", "access": "yes", "brand": "Eviny", "name": "Eviny CC Vest", "addr:country": "NO", "socket:type2_combo": "16", "socket:type2_combo:output": "400.0 kW", "socket:chademo": "4", "socket:chademo:output": "50.0 kW", "charging_station:output": "400.0 kW", "capacity": "16", "_source": "worldwide"}}, {"type": "node", "id": 3606945730, "lat": 59.936638, "lon": 10.754904, "tags": {"amenity": "charging_station", "access": "yes", "opening_hours": "24/7", "operator": "Oslo kommune", "name": "Dannevigsveien", "addr:country": "NO", "socket:type2": "3", "socket:type2:output": "3.6 kW", "charging_station:output": "3.6 kW", "capacity": "3", "_source": "worldwide"}}, {"type": "node", "id": 3609141950, "lat": 59.236958, "lon": 10.9663, "tags": {"amenity": "charging_station", "access": "yes", "brand": "Recharge", "name": "Recharge McDonald's Råbekken", "addr:country": "NO", "socket:type2_combo": "4", "socket:type2_combo:output": "225.0 kW", "socket:chademo": "2", "socket:chademo:output": "62.0 kW", "charging_station:output": "225.0 kW", "capacity": "4", "_source": "worldwide"}}, {"type": "node", "id": 11169095634, "lat": 59.237861, "lon": 10.965815, "tags": {"amenity": "charging_station", "access": "yes", "brand": "Eviny", "name": "Eviny Coop Extra Stabburveien", "addr:country": "NO", "socket:type2_combo": "6", "socket:type2_combo:output": "350.0 kW", "socket:chademo": "2", "socket:chademo:output": "50.0 kW", "charging_station:output": "350.0 kW", "capacity": "6", "_source": "worldwide"}}, {"type": "node", "id": 3717623281, "lat": 59.142918, "lon": 10.199702, "tags": {"amenity": "charging_station", "access": "yes", "brand": "Recharge", "opening_hours": "24/7", "name": "Recharge Kiwi Moveien", "addr:country": "NO", "socket:type2": "2", "socket:type2:output": "22.0 kW", "socket:type2_combo": "2", "socket:type2_combo:output": "50.0 kW", "socket:chademo": "1", "socket:chademo:output": "50.0 kW", "charging_station:output": "50.0 kW", "capacity": "4", "_source": "worldwide"}}, {"type": "node", "id": 3798199144, "lat": 59.896091, "lon": 10.846082, "tags": {"amenity": "charging_station", "access": "yes", "opening_hours": "24/7", "operator": "Oslo kommune", "name": "Kampheimveien", "addr:country": "NO", "socket:type2": "4", "socket:type2:output": "3.6 kW", "charging_station:output": "3.6 kW", "capacity": "4", "_source": "worldwide"}}, {"type": "node", "id": 4200371987, "lat": 59.959126, "lon": 10.804234, "tags": {"amenity": "charging_station", "addr:country": "NO", "_source": "worldwide"}}, {"type": "node", "id": 4318636502, "lat": 59.05195, "lon": 10.025399, "tags": {"amenity": "charging_station", "access": "yes", "opening_hours": "24/7", "operator": "Larvik kommune", "name": "Bøkkerfjellet", "addr:country": "NO", "socket:type2": "2", "socket:type2:output": "22.0 kW", "charging_station:output": "22.0 kW", "capacity": "2", "_source": "worldwide"}}, {"type": "node", "id": 4318640423, "lat": 59.05226, "lon": 10.02948, "tags": {"amenity": "charging_station", "access": "yes", "opening_hours": "24/7", "operator": "Larvik kommune", "name": "Prinsegata Parkeringshus", "addr:country": "NO", "socket:type2": "2", "socket:type2:output": "11.0 kW", "charging_station:output": "11.0 kW", "capacity": "2", "_source": "worldwide"}}, {"type": "node", "id": 6017151403, "lat": 59.05433, "lon": 10.02745, "tags": {"amenity": "charging_station", "access": "yes", "fee": "yes", "brand": "Recharge", "opening_hours": "24/7", "operator": "Recharge", "name": "Recharge Lilletorget", "addr:country": "NO", "socket:type2": "2", "socket:type2:output": "22.0 kW", "charging_station:output": "22.0 kW", "capacity": "2", "_source": "worldwide"}}, {"type": "node", "id": 12798481433, "lat": 59.051837, "lon": 10.021842, "tags": {"amenity": "charging_station", "access": "yes", "brand": "Recharge", "name": "Recharge Kiwi Hammerdalen", "addr:country": "NO", "socket:type2_combo": "6", "socket:type2_combo:output": "400.0 kW", "socket:chademo": "2", "socket:chademo:output": "50.0 kW", "charging_station:output": "400.0 kW", "capacity": "6", "_source": "worldwide"}}, {"type": "node", "id": 4318638817, "lat": 59.056655, "lon": 10.032474, "tags": {"amenity": "charging_station", "access": "yes", "opening_hours": "24/7", "operator": "Larvik kommune", "name": "Larvik Bibliotek", "addr:country": "NO", "socket:type2": "2", "socket:type2:output": "22.0 kW", "charging_station:output": "22.0 kW", "capacity": "2", "_source": "worldwide"}}, {"type": "node", "id": 12776842333, "lat": 59.056684, "lon": 10.033369, "tags": {"amenity": "charging_station", "access": "yes", "brand": "Circle K", "name": "Circle K Nansetgata", "addr:country": "NO", "socket:type2_combo": "4", "socket:type2_combo:output": "400.0 kW", "charging_station:output": "400.0 kW", "capacity": "4", "_source": "worldwide"}}, {"type": "node", "id": 4344535848, "lat": 59.942621, "lon": 10.774916, "tags": {"amenity": "charging_station", "access": "yes", "opening_hours": "24/7", "operator": "Oslo kommune", "name": "Frederik Glads gate", "addr:country": "NO", "socket:type2": "4", "socket:type2:output": "3.6 kW", "charging_station:output": "3.6 kW", "capacity": "4", "_source": "worldwide"}}, {"type": "node", "id": 6018872167, "lat": 59.943785, "lon": 10.770707, "tags": {"amenity": "charging_station", "access": "yes", "opening_hours": "24/7", "operator": "Q-Park", "name": "Sandakerveien 78", "addr:country": "NO", "socket:type2": "3", "socket:type2:output": "3.6 kW", "charging_station:output": "3.6 kW", "capacity": "3", "_source": "worldwide"}}, {"type": "node", "id": 9045470252, "lat": 59.943881, "lon": 10.772367, "tags": {"amenity": "charging_station", "access": "yes", "fee": "yes", "operator": "Oslo kommune", "name": "Birch-Reichenwalds gate", "addr:country": "NO", "socket:type2": "8", "socket:type2:output": "22.0 kW", "charging_station:output": "22.0 kW", "capacity": "8", "_source": "worldwide"}}, {"type": "node", "id": 12776837873, "lat": 59.946006, "lon": 10.777227, "tags": {"amenity": "charging_station", "access": "yes", "brand": "Circle K", "name": "Circle K Storo", "addr:country": "NO", "socket:type2_combo": "4", "socket:type2_combo:output": "300.0 kW", "socket:chademo": "1", "socket:chademo:output": "62.0 kW", "charging_station:output": "300.0 kW", "capacity": "4", "_source": "worldwide"}}, {"type": "node", "id": 4518762982, "lat": 59.056826, "lon": 10.123501, "tags": {"amenity": "charging_station", "access": "yes", "opening_hours": "24/7", "operator": "Larvik kommune", "name": "Tjølling sykehjem", "addr:country": "NO", "socket:type2": "2", "socket:type2:output": "22.0 kW", "charging_station:output": "22.0 kW", "capacity": "2", "_source": "worldwide"}}, {"type": "node", "id": 4548956889, "lat": 59.948338, "lon": 10.901332, "tags": {"amenity": "charging_station", "access": "yes", "opening_hours": "24/7", "operator": "Oslo kommune", "name": "Vestre Haugen p-plass", "addr:country": "NO", "socket:type2": "6", "socket:type2:output": "3.6 kW", "charging_station:output": "3.6 kW", "capacity": "6", "_source": "worldwide"}}, {"type": "node", "id": 4554566590, "lat": 59.921739, "lon": 10.676566, "tags": {"amenity": "charging_station", "access": "yes", "brand": "Recharge", "opening_hours": "24/7", "name": "Recharge Skøyen", "addr:country": "NO", "socket:type2_combo": "9", "socket:type2_combo:output": "300.0 kW", "socket:chademo": "2", "socket:chademo:output": "100.0 kW", "charging_station:output": "300.0 kW", "capacity": "9", "_source": "worldwide"}}, {"type": "node", "id": 6018872095, "lat": 59.921911, "lon": 10.675644, "tags": {"amenity": "charging_station", "access": "yes", "brand": "Circle K", "name": "Circle K Skøyen", "addr:country": "NO", "socket:type2_combo": "10", "socket:type2_combo:output": "400.0 kW", "charging_station:output": "400.0 kW", "capacity": "10", "_source": "worldwide"}}, {"type": "node", "id": 6018875334, "lat": 59.921088, "lon": 10.676743, "tags": {"amenity": "charging_station", "access": "yes", "opening_hours": "24/7", "operator": "Lade i Norge", "name": "PowerPark, Skøyen i", "addr:country": "NO", "socket:type2": "7", "socket:type2:output": "22.0 kW", "charging_station:output": "22.0 kW", "capacity": "7", "_source": "worldwide"}}, {"type": "node", "id": 12786901430, "lat": 59.92223, "lon": 10.67823, "tags": {"amenity": "charging_station", "access": "yes", "brand": "Mer", "name": "Mer Skøyen drosjeholdeplass", "addr:country": "NO", "socket:type2_combo": "10", "socket:type2_combo:output": "150.0 kW", "socket:chademo": "2", "socket:chademo:output": "50.0 kW", "charging_station:output": "150.0 kW", "capacity": "10", "_source": "worldwide"}}, {"type": "node", "id": 4610626843, "lat": 59.487752, "lon": 10.319799, "tags": {"amenity": "charging_station", "access": "yes", "opening_hours": "24/7", "operator": "Lade i Norge", "name": "Havnegaten Holmestrand", "addr:country": "NO", "socket:type2": "4", "socket:type2:output": "22.0 kW", "charging_station:output": "22.0 kW", "capacity": "4", "_source": "worldwide"}}, {"type": "node", "id": 4613767597, "lat": 59.11244, "lon": 10.111228, "tags": {"amenity": "charging_station", "access": "yes", "brand": "Circle K", "name": "Circle K E18 Larvik", "addr:country": "NO", "socket:type2_combo": "10", "socket:type2_combo:output": "300.0 kW", "socket:chademo": "5", "socket:chademo:output": "62.0 kW", "charging_station:output": "300.0 kW", "capacity": "10", "_source": "worldwide"}}, {"type": "node", "id": 5376089261, "lat": 59.112085, "lon": 10.10827, "tags": {"amenity": "charging_station", "access": "yes", "fee": "yes", "brand": "Tesla Supercharger", "opening_hours": "24/7", "operator": "Tesla", "name": "Tesla Ringdalskogen Supercharger", "addr:country": "NO", "socket:type2_combo": "20", "socket:type2_combo:output": "150.0 kW", "socket:tesla_supercharger": "20", "socket:tesla_supercharger:output": "150.0 kW", "charging_station:output": "150.0 kW", "capacity": "20", "_source": "worldwide"}}, {"type": "node", "id": 12812194509, "lat": 59.112439, "lon": 10.109786, "tags": {"amenity": "charging_station", "access": "yes", "brand": "Circle K", "name": "Circle K E18 Larvik Trucks", "addr:country": "NO", "socket:type2_combo": "3", "socket:type2_combo:output": "400.0 kW", "charging_station:output": "400.0 kW", "capacity": "3", "_source": "worldwide"}}, {"type": "node", "id": 4701323577, "lat": 59.247632, "lon": 10.98857, "tags": {"amenity": "charging_station", "access": "customers", "opening_hours": "24/7", "operator": "Elektroimportøren AS", "name": "Elektroimportøren", "addr:country": "NO", "socket:type2": "6", "socket:type2:output": "7.4 kW", "charging_station:output": "7.4 kW", "capacity": "6", "_source": "worldwide"}}, {"type": "node", "id": 4760520482, "lat": 59.909216, "lon": 10.803726, "tags": {"amenity": "charging_station", "access": "yes", "opening_hours": "24/7", "operator": "Oslo kommune", "name": "Etterstadsletta", "addr:country": "NO", "socket:type2": "4", "socket:type2:output": "3.6 kW", "charging_station:output": "3.6 kW", "capacity": "4", "_source": "worldwide"}}, {"type": "node", "id": 5027780783, "lat": 59.623546, "lon": 10.737872, "tags": {"amenity": "charging_station", "access": "yes", "brand": "Circle K", "name": "Circle K E6 Vestby", "addr:country": "NO", "socket:type2_combo": "1", "socket:type2_combo:output": "50.0 kW", "socket:chademo": "1", "socket:chademo:output": "50.0 kW", "charging_station:output": "50.0 kW", "capacity": "1", "_source": "worldwide"}}, {"type": "node", "id": 11169095635, "lat": 59.623196, "lon": 10.741763, "tags": {"amenity": "charging_station", "access": "yes", "brand": "Eviny", "name": "Eviny Oslo Fashion Outlet", "addr:country": "NO", "socket:type2": "25", "socket:type2:output": "22.0 kW", "socket:type2_combo": "16", "socket:type2_combo:output": "350.0 kW", "socket:chademo": "4", "socket:chademo:output": "50.0 kW", "charging_station:output": "350.0 kW", "capacity": "41", "_source": "worldwide"}}, {"type": "node", "id": 5153951642, "lat": 59.660997, "lon": 10.628068, "tags": {"amenity": "charging_station", "name": "Sjøtorget Parkering", "addr:country": "NO", "capacity": "4", "_source": "worldwide"}}, {"type": "node", "id": 5305521974, "lat": 59.058886, "lon": 10.02813, "tags": {"amenity": "charging_station", "access": "yes", "fee": "yes", "brand": "Recharge", "opening_hours": "24/7", "operator": "Recharge", "name": "Recharge Lovisenlund idrettsplass", "addr:country": "NO", "socket:type2": "4", "socket:type2:output": "22.0 kW", "charging_station:output": "22.0 kW", "capacity": "4", "_source": "worldwide"}}, {"type": "node", "id": 5338572178, "lat": 59.279254, "lon": 10.400937, "tags": {"amenity": "charging_station", "access": "yes", "brand": "Recharge", "opening_hours": "24/7", "name": "Recharge Shell Kjelleveien", "addr:country": "NO", "socket:type2": "2", "socket:type2:output": "11.0 kW", "socket:type2_combo": "9", "socket:type2_combo:output": "225.0 kW", "socket:chademo": "3", "socket:chademo:output": "50.0 kW", "charging_station:output": "225.0 kW", "capacity": "11", "_source": "worldwide"}}, {"type": "node", "id": 5376898535, "lat": 59.040254, "lon": 10.048294, "tags": {"amenity": "charging_station", "fee": "no", "name": "Color Line", "addr:country": "NO", "socket:type2": "2", "socket:type2:output": "22 kW", "charging_station:output": "22 kW", "capacity": "2", "authentication:none": "yes", "_source": "worldwide"}}, {"type": "node", "id": 5477876645, "lat": 59.929164, "lon": 10.467102, "tags": {"amenity": "charging_station", "access": "yes", "brand": "Mer", "opening_hours": "24/7", "name": "Mer Extra Rykkinn", "addr:country": "NO", "socket:type2": "2", "socket:type2:output": "22.0 kW", "socket:type2_combo": "1", "socket:type2_combo:output": "50.0 kW", "socket:chademo": "1", "socket:chademo:output": "50.0 kW", "charging_station:output": "50.0 kW", "capacity": "3", "_source": "worldwide"}}, {"type": "node", "id": 5669974338, "lat": 59.93869, "lon": 10.823465, "tags": {"amenity": "charging_station", "operator": "ladeinorge.no", "name": "Ladestation ladeinorge.no", "addr:country": "NO", "capacity": "2", "_source": "worldwide"}}, {"type": "node", "id": 5669974341, "lat": 59.938023, "lon": 10.823963, "tags": {"amenity": "charging_station", "operator": "ladeinorge.no", "name": "Ladestation ladeinorge.no", "addr:country": "NO", "capacity": "2", "_source": "worldwide"}}, {"type": "node", "id": 6018872150, "lat": 59.93942, "lon": 10.829672, "tags": {"amenity": "charging_station", "access": "yes", "opening_hours": "24/7", "operator": "Thon Hotel Linne", "name": "Thon hotel Linne", "addr:country": "NO", "socket:type2": "2", "socket:type2:output": "22.0 kW", "socket:type1": "2", "socket:type1:output": "3.6 kW", "charging_station:output": "22.0 kW", "capacity": "4", "_source": "worldwide"}}, {"type": "node", "id": 6018872182, "lat": 59.939779, "lon": 10.828226, "tags": {"amenity": "charging_station", "access": "yes", "opening_hours": "24/7", "operator": "Oslo kommune", "name": "Statsråd Mathiesens vei/Brobekkveien", "addr:country": "NO", "socket:type2": "4", "socket:type2:output": "3.6 kW", "charging_station:output": "3.6 kW", "capacity": "4", "_source": "worldwide"}}, {"type": "node", "id": 5790853320, "lat": 59.386994, "lon": 10.751884, "tags": {"amenity": "charging_station", "access": "yes", "brand": "Circle K", "name": "Circle K E6 Rygge", "addr:country": "NO", "socket:type2_combo": "10", "socket:type2_combo:output": "300.0 kW", "socket:chademo": "5", "socket:chademo:output": "62.0 kW", "charging_station:output": "300.0 kW", "capacity": "10", "_source": "worldwide"}}, {"type": "node", "id": 6017211524, "lat": 59.387927, "lon": 10.751487, "tags": {"amenity": "charging_station", "access": "yes", "fee": "yes", "brand": "Tesla Supercharger", "opening_hours": "24/7", "operator": "Tesla", "name": "Tesla Supercharger", "addr:country": "NO", "socket:type2": "42", "socket:type2:output": "150.0 kW", "socket:type2_combo": "42", "socket:type2_combo:output": "150.0 kW", "charging_station:output": "150.0 kW", "capacity": "42", "_source": "worldwide"}}, {"type": "node", "id": 6762237234, "lat": 59.387477, "lon": 10.750007, "tags": {"amenity": "charging_station", "brand": "Recharge", "operator": "Recharge", "name": "Recharge McDonalds Rygge", "addr:country": "NO", "socket:type2_combo": "2", "socket:type2_combo:output": "150.0 kW", "socket:chademo": "2", "socket:chademo:output": "62.5 kW", "charging_station:output": "150.0 kW", "capacity": "3", "_source": "worldwide"}}, {"type": "node", "id": 5818184550, "lat": 59.210025, "lon": 10.942195, "tags": {"amenity": "charging_station", "fee": "yes", "opening_hours": "24/7", "operator": "Fredrikstad Kommune", "name": "Lykkeberg parkering", "addr:country": "NO", "socket:type2": "8", "socket:type2:output": "11.0 kW", "charging_station:output": "11.0 kW", "capacity": "8", "_source": "worldwide"}}, {"type": "node", "id": 10197236141, "lat": 59.206851, "lon": 10.935946, "tags": {"amenity": "charging_station", "addr:country": "NO", "capacity": "2", "_source": "worldwide"}}, {"type": "node", "id": 5819431742, "lat": 59.222551, "lon": 10.952108, "tags": {"amenity": "charging_station", "opening_hours": "24/7", "addr:country": "NO", "socket:schuko": "4", "socket:schuko:output": "3.6 kW", "charging_station:output": "3.6 kW", "capacity": "5", "authentication:none": "yes", "_source": "worldwide"}}, {"type": "node", "id": 5870796286, "lat": 59.201712, "lon": 10.961146, "tags": {"amenity": "charging_station", "fee": "yes", "opening_hours": "24/7", "operator": "Fredrikstad kommune", "name": "Heibergkrysset", "addr:country": "NO", "socket:type2": "4", "socket:type2:output": "22 kW", "charging_station:output": "22 kW", "capacity": "4", "_source": "worldwide"}}, {"type": "node", "id": 5870802083, "lat": 59.199896, "lon": 10.959231, "tags": {"amenity": "charging_station", "access": "yes", "opening_hours": "24/7", "operator": "Fredrikstad kommune", "name": "Kongstenhallen", "addr:country": "NO", "socket:type2": "6", "socket:type2:output": "3.6 kW", "charging_station:output": "3.6 kW", "capacity": "6", "_source": "worldwide"}}, {"type": "node", "id": 5874286141, "lat": 59.933745, "lon": 10.986372, "tags": {"amenity": "charging_station", "access": "yes", "brand": "Circle K", "name": "Circle K Fjellhamar E", "addr:country": "NO", "socket:type2_combo": "3", "socket:type2_combo:output": "50.0 kW", "socket:chademo": "3", "socket:chademo:output": "50.0 kW", "charging_station:output": "50.0 kW", "capacity": "3", "_source": "worldwide"}}, {"type": "node", "id": 5874315036, "lat": 59.943175, "lon": 10.955061, "tags": {"amenity": "charging_station", "addr:country": "NO", "_source": "worldwide"}}, {"type": "node", "id": 5884498108, "lat": 59.951088, "lon": 10.889375, "tags": {"amenity": "charging_station", "access": "yes", "opening_hours": "24/7", "operator": "Oslo kommune", "name": "Stjerneblokkveien", "addr:country": "NO", "socket:type2": "4", "socket:type2:output": "3.6 kW", "charging_station:output": "3.6 kW", "capacity": "4", "_source": "worldwide"}}, {"type": "node", "id": 6018872106, "lat": 59.950078, "lon": 10.896917, "tags": {"amenity": "charging_station", "access": "yes", "opening_hours": "24/7", "operator": "Oslo kommune", "name": "Vestre Haugen", "addr:country": "NO", "socket:type2": "12", "socket:type2:output": "3.6 kW", "charging_station:output": "3.6 kW", "capacity": "12", "_source": "worldwide"}}, {"type": "node", "id": 5911473188, "lat": 59.049932, "lon": 10.027256, "tags": {"amenity": "charging_station", "access": "yes", "name": "Larvik Indre Havn", "addr:country": "NO", "socket:type2": "4", "socket:type2:output": "22 kW", "charging_station:output": "22 kW", "capacity": "4", "_source": "worldwide"}}, {"type": "node", "id": 6017151422, "lat": 59.050692, "lon": 10.028971, "tags": {"amenity": "charging_station", "access": "yes", "brand": "Recharge", "opening_hours": "24/7", "name": "Recharge Kulturhusbryggen", "addr:country": "NO", "socket:type2": "4", "socket:type2:output": "7.4 kW", "charging_station:output": "7.4 kW", "capacity": "4", "_source": "worldwide"}}, {"type": "node", "id": 6017151432, "lat": 59.04978, "lon": 10.0203, "tags": {"amenity": "charging_station", "access": "customers", "opening_hours": "24/7", "operator": "Farris Bad", "name": "Farris Bad", "addr:country": "NO", "socket:type2": "2", "socket:type2:output": "11.0 kW", "charging_station:output": "11.0 kW", "capacity": "2", "_source": "worldwide"}}, {"type": "node", "id": 5923882753, "lat": 59.490221, "lon": 10.294776, "tags": {"amenity": "charging_station", "access": "yes", "fee": "yes", "brand": "Tesla Supercharger", "opening_hours": "24/7", "operator": "Tesla", "name": "Tesla Holmestrand Supercharger", "addr:country": "NO", "socket:type2_combo": "16", "socket:type2_combo:output": "150.0 kW", "socket:tesla_supercharger": "16", "socket:tesla_supercharger:output": "150.0 kW", "charging_station:output": "150.0 kW", "capacity": "16", "_source": "worldwide"}}, {"type": "node", "id": 6017151386, "lat": 59.12738, "lon": 10.2344, "tags": {"amenity": "charging_station", "access": "yes", "opening_hours": "24/7", "operator": "Q-Park", "name": "Kilen Brygge", "addr:country": "NO", "socket:type2": "1", "socket:type2:output": "3.6 kW", "charging_station:output": "3.6 kW", "capacity": "1", "_source": "worldwide"}}, {"type": "node", "id": 6017151387, "lat": 59.37225, "lon": 10.26368, "tags": {"amenity": "charging_station", "access": "customers", "opening_hours": "24/7", "operator": "Meny Revetal, Re", "name": "Meny Revetal, Re", "addr:country": "NO", "socket:type2": "1", "socket:type2:output": "22.0 kW", "charging_station:output": "22.0 kW", "capacity": "1", "_source": "worldwide"}}, {"type": "node", "id": 6017151405, "lat": 59.37105, "lon": 10.26755, "tags": {"amenity": "charging_station", "access": "yes", "opening_hours": "24/7", "operator": "Lade i Norge", "name": "Revetal", "addr:country": "NO", "socket:type2": "5", "socket:type2:output": "22.0 kW", "charging_station:output": "22.0 kW", "capacity": "5", "_source": "worldwide"}}, {"type": "node", "id": 6970808030, "lat": 59.370298, "lon": 10.264825, "tags": {"amenity": "charging_station", "access": "yes", "brand": "Recharge", "name": "Recharge Re-torvet", "addr:country": "NO", "socket:type2_combo": "4", "socket:type2_combo:output": "250.0 kW", "socket:chademo": "2", "socket:chademo:output": "50.0 kW", "charging_station:output": "250.0 kW", "capacity": "4", "_source": "worldwide"}}, {"type": "node", "id": 12776842332, "lat": 59.370431, "lon": 10.26272, "tags": {"amenity": "charging_station", "access": "yes", "brand": "Circle K", "name": "Circle K Revetal", "addr:country": "NO", "socket:type2_combo": "4", "socket:type2_combo:output": "400.0 kW", "charging_station:output": "400.0 kW", "capacity": "4", "_source": "worldwide"}}, {"type": "node", "id": 6017151388, "lat": 59.17881, "lon": 10.20902, "tags": {"amenity": "charging_station", "access": "yes", "brand": "Mer", "name": "Mer Obs Sandefjord", "addr:country": "NO", "socket:type2_combo": "12", "socket:type2_combo:output": "300.0 kW", "socket:chademo": "6", "socket:chademo:output": "50.0 kW", "charging_station:output": "300.0 kW", "capacity": "12", "_source": "worldwide"}}, {"type": "node", "id": 9464242261, "lat": 59.17952, "lon": 10.209233, "tags": {"amenity": "charging_station", "access": "yes", "fee": "yes", "brand": "Tesla Supercharger", "opening_hours": "24/7", "operator": "Tesla", "name": "Tesla Fokserød Supercharger", "addr:country": "NO", "socket:type2_combo": "24", "socket:type2_combo:output": "250.0 kW", "charging_station:output": "250.0 kW", "capacity": "24", "_source": "worldwide"}}, {"type": "node", "id": 11172579987, "lat": 59.178395, "lon": 10.208371, "tags": {"amenity": "charging_station", "access": "yes", "brand": "Recharge", "name": "Recharge Fokserød", "addr:country": "NO", "socket:type2_combo": "16", "socket:type2_combo:output": "200.0 kW", "socket:chademo": "4", "socket:chademo:output": "62.0 kW", "charging_station:output": "200.0 kW", "capacity": "16", "_source": "worldwide"}}, {"type": "node", "id": 6017151389, "lat": 59.399003, "lon": 10.462487, "tags": {"amenity": "charging_station", "access": "yes", "opening_hours": "24/7", "operator": "Horten kommune", "name": "Granly skole", "addr:country": "NO", "socket:type2": "8", "socket:type2:output": "11.0 kW", "charging_station:output": "11.0 kW", "capacity": "8", "_source": "worldwide"}}, {"type": "node", "id": 6017151390, "lat": 59.25163, "lon": 10.41584, "tags": {"amenity": "charging_station", "access": "yes", "brand": "Mer", "opening_hours": "24/7", "name": "Mer Bellevue Senteret", "addr:country": "NO", "socket:type2": "3", "socket:type2:output": "11.0 kW", "socket:type2_combo": "2", "socket:type2_combo:output": "50.0 kW", "socket:chademo": "2", "socket:chademo:output": "50.0 kW", "charging_station:output": "50.0 kW", "capacity": "5", "_source": "worldwide"}}, {"type": "node", "id": 6017151392, "lat": 59.478397, "lon": 10.316626, "tags": {"amenity": "charging_station", "access": "yes", "brand": "Recharge", "opening_hours": "24/7", "name": "Recharge Kiwi Kleivbrottet", "addr:country": "NO", "socket:type2": "1", "socket:type2:output": "22.0 kW", "socket:type2_combo": "1", "socket:type2_combo:output": "50.0 kW", "socket:chademo": "1", "socket:chademo:output": "50.0 kW", "charging_station:output": "50.0 kW", "capacity": "2", "_source": "worldwide"}}, {"type": "node", "id": 11169096555, "lat": 59.474903, "lon": 10.317429, "tags": {"amenity": "charging_station", "access": "yes", "brand": "Eviny", "name": "Eviny Rema 1000 Holmestrand", "addr:country": "NO", "socket:type2": "1", "socket:type2:output": "22.0 kW", "socket:type2_combo": "8", "socket:type2_combo:output": "200.0 kW", "socket:chademo": "4", "socket:chademo:output": "62.0 kW", "charging_station:output": "200.0 kW", "capacity": "9", "_source": "worldwide"}}, {"type": "node", "id": 6017151395, "lat": 59.13217, "lon": 10.2226, "tags": {"amenity": "charging_station", "access": "yes", "opening_hours": "24/7", "operator": "Sandefjord kommune", "name": "Sandefjord kirke", "addr:country": "NO", "socket:type2": "4", "socket:type2:output": "3.6 kW", "charging_station:output": "3.6 kW", "capacity": "4", "_source": "worldwide"}}, {"type": "node", "id": 6017151396, "lat": 59.12907, "lon": 10.22688, "tags": {"amenity": "charging_station", "access": "yes", "opening_hours": "24/7", "operator": "Sandefjord kommune", "name": "Tivolitomta", "addr:country": "NO", "socket:type2": "8", "socket:type2:output": "3.6 kW", "charging_station:output": "3.6 kW", "capacity": "8", "_source": "worldwide"}}, {"type": "node", "id": 6017151416, "lat": 59.13265, "lon": 10.22707, "tags": {"amenity": "charging_station", "access": "yes", "opening_hours": "24/7", "operator": "Sandefjord kommune", "name": "Hvidtgården p-hus", "addr:country": "NO", "socket:type2": "3", "socket:type2:output": "3.6 kW", "charging_station:output": "3.6 kW", "capacity": "3", "_source": "worldwide"}}, {"type": "node", "id": 6017151426, "lat": 59.129535, "lon": 10.226162, "tags": {"amenity": "charging_station", "access": "yes", "opening_hours": "24/7", "operator": "EasyPark", "name": "Hvaltorvet senter", "addr:country": "NO", "socket:type2": "15", "socket:type2:output": "22.0 kW", "charging_station:output": "22.0 kW", "capacity": "15", "_source": "worldwide"}}, {"type": "node", "id": 12762489549, "lat": 59.132912, "lon": 10.221194, "tags": {"amenity": "charging_station", "access": "yes", "operator": "Sandefjord kommune", "name": "Ladestation Sandefjord kommune", "addr:country": "NO", "socket:type2": "4", "socket:type2:output": "3.6 kW", "charging_station:output": "3.6 kW", "capacity": "4", "_source": "worldwide"}}, {"type": "node", "id": 6017151398, "lat": 59.272888, "lon": 10.415891, "tags": {"amenity": "charging_station", "access": "customers", "opening_hours": "24/7", "operator": "Wilhelmsen House AS", "name": "Halfdan Wilhelmsens allé", "addr:country": "NO", "socket:type2": "4", "socket:type2:output": "11.0 kW", "charging_station:output": "11.0 kW", "capacity": "4", "_source": "worldwide"}}, {"type": "node", "id": 6017151400, "lat": 59.417064, "lon": 10.491799, "tags": {"amenity": "charging_station", "access": "yes", "brand": "Recharge", "opening_hours": "24/7", "name": "Recharge Rema Lystlunden Horten", "addr:country": "NO", "socket:type2_combo": "2", "socket:type2_combo:output": "225.0 kW", "socket:chademo": "1", "socket:chademo:output": "62.0 kW", "charging_station:output": "225.0 kW", "capacity": "2", "_source": "worldwide"}}, {"type": "node", "id": 12776948308, "lat": 59.414321, "lon": 10.486641, "tags": {"amenity": "charging_station", "access": "yes", "brand": "Eviny", "name": "Eviny Sjøsiden Horten", "addr:country": "NO", "socket:type2_combo": "6", "socket:type2_combo:output": "250.0 kW", "socket:chademo": "2", "socket:chademo:output": "50.0 kW", "charging_station:output": "250.0 kW", "capacity": "6", "_source": "worldwide"}}, {"type": "node", "id": 6017151402, "lat": 59.26382, "lon": 10.40387, "tags": {"amenity": "charging_station", "access": "yes", "opening_hours": "24/7", "operator": "Micasa", "name": "Kaldnes brygge", "addr:country": "NO", "socket:type2": "14", "socket:type2:output": "22.0 kW", "charging_station:output": "22.0 kW", "capacity": "14", "_source": "worldwide"}}, {"type": "node", "id": 6017151404, "lat": 59.13449, "lon": 10.21102, "tags": {"amenity": "charging_station", "access": "yes", "opening_hours": "24/7", "operator": "Sandefjord kommune", "name": "Sandefjord medisinske senter", "addr:country": "NO", "socket:type2": "4", "socket:type2:output": "3.6 kW", "charging_station:output": "3.6 kW", "capacity": "4", "_source": "worldwide"}}, {"type": "node", "id": 6017151425, "lat": 59.134112, "lon": 10.212614, "tags": {"amenity": "charging_station", "access": "yes", "opening_hours": "24/7", "operator": "Sandefjord Kommune", "name": "Sandefjord legevakt", "addr:country": "NO", "socket:type2": "4", "socket:type2:output": "3.6 kW", "charging_station:output": "3.6 kW", "capacity": "4", "_source": "worldwide"}}, {"type": "node", "id": 12762538739, "lat": 59.136181, "lon": 10.213208, "tags": {"amenity": "charging_station", "access": "yes", "brand": "Uno-X", "name": "Uno-X Tempokrysset", "addr:country": "NO", "socket:type2_combo": "8", "socket:type2_combo:output": "300.0 kW", "charging_station:output": "300.0 kW", "capacity": "8", "_source": "worldwide"}}, {"type": "node", "id": 6017151406, "lat": 59.26998, "lon": 10.41051, "tags": {"amenity": "charging_station", "access": "yes", "opening_hours": "24/7", "operator": "Tønsberg Parkering", "name": "Seeberg", "addr:country": "NO", "socket:type2": "12", "socket:type2:output": "3.6 kW", "charging_station:output": "3.6 kW", "capacity": "12", "_source": "worldwide"}}, {"type": "node", "id": 6017151407, "lat": 59.2808, "lon": 10.36537, "tags": {"amenity": "charging_station", "access": "yes", "fee": "yes", "opening_hours": "24/7", "operator": "Gravdahls Auto AS", "name": "Vestfold Auto, Sem", "addr:country": "NO", "socket:chademo": "1", "socket:chademo:output": "50.0 kW", "charging_station:output": "50.0 kW", "capacity": "1", "_source": "worldwide"}}, {"type": "node", "id": 6017151409, "lat": 59.00006, "lon": 10.03429, "tags": {"amenity": "charging_station", "access": "customers", "opening_hours": "24/7", "operator": "Meny Stavern", "name": "Meny Stavern", "addr:country": "NO", "socket:type2": "2", "socket:type2:output": "22.0 kW", "charging_station:output": "22.0 kW", "capacity": "2", "_source": "worldwide"}}, {"type": "node", "id": 6017151415, "lat": 59.00119, "lon": 10.0382, "tags": {"amenity": "charging_station", "access": "yes", "opening_hours": "24/7", "operator": "Risøya Parkeringsplass", "name": "Risøyveien, Stavern", "addr:country": "NO", "socket:type2": "2", "socket:type2:output": "22.0 kW", "charging_station:output": "22.0 kW", "capacity": "2", "_source": "worldwide"}}, {"type": "node", "id": 6017151410, "lat": 59.564824, "lon": 10.268354, "tags": {"amenity": "charging_station", "access": "yes", "brand": "Recharge", "opening_hours": "24/7", "name": "Recharge Kiwi Nordre Jarlsberg Brygge", "addr:country": "NO", "socket:type2": "2", "socket:type2:output": "11.0 kW", "socket:type2_combo": "2", "socket:type2_combo:output": "50.0 kW", "socket:chademo": "2", "socket:chademo:output": "50.0 kW", "charging_station:output": "50.0 kW", "capacity": "4", "_source": "worldwide"}}, {"type": "node", "id": 6017151413, "lat": 59.606993, "lon": 10.40479, "tags": {"amenity": "charging_station", "access": "yes", "opening_hours": "24/7", "operator": "Svelvik kommune", "name": "Åsgaten 24", "addr:country": "NO", "socket:type2": "7", "socket:type2:output": "3.6 kW", "charging_station:output": "3.6 kW", "capacity": "7", "_source": "worldwide"}}, {"type": "node", "id": 6017151414, "lat": 59.23813, "lon": 10.42502, "tags": {"amenity": "charging_station", "access": "yes", "opening_hours": "24/7", "operator": "Smidsrød Helsehus", "name": "Øreveien, Nøtterøy", "addr:country": "NO", "socket:cee_blue": "4", "socket:cee_blue:output": "3.6 kW", "charging_station:output": "3.6 kW", "capacity": "4", "_source": "worldwide"}}, {"type": "node", "id": 6017151417, "lat": 59.226703, "lon": 10.407716, "tags": {"amenity": "charging_station", "access": "yes", "opening_hours": "24/7", "operator": "Nøtterøy Elektriske", "name": "Kirkeveien, Nøtterøy", "addr:country": "NO", "socket:type2": "1", "socket:type2:output": "7.4 kW", "charging_station:output": "7.4 kW", "capacity": "1", "_source": "worldwide"}}, {"type": "node", "id": 6017151418, "lat": 59.125278, "lon": 10.220832, "tags": {"amenity": "charging_station", "access": "yes", "opening_hours": "24/7", "operator": "Sandefjord kommune", "name": "Sandefjord Minigolfklubb", "addr:country": "NO", "socket:type2": "4", "socket:type2:output": "3.6 kW", "charging_station:output": "3.6 kW", "capacity": "4", "_source": "worldwide"}}, {"type": "node", "id": 7980810140, "lat": 59.128049, "lon": 10.227049, "tags": {"amenity": "charging_station", "operator": "Sandefjord kommune", "name": "Ladestation Sandefjord kommune", "addr:country": "NO", "capacity": "8", "_source": "worldwide"}}, {"type": "node", "id": 6017151420, "lat": 59.307263, "lon": 10.361568, "tags": {"amenity": "charging_station", "access": "yes", "brand": "Recharge", "opening_hours": "24/7", "name": "Recharge Flykafeen", "addr:country": "NO", "socket:type2": "1", "socket:type2:output": "11.0 kW", "socket:type2_combo": "2", "socket:type2_combo:output": "50.0 kW", "socket:chademo": "2", "socket:chademo:output": "50.0 kW", "charging_station:output": "50.0 kW", "capacity": "3", "_source": "worldwide"}}, {"type": "node", "id": 6017151421, "lat": 59.126299, "lon": 10.420016, "tags": {"amenity": "charging_station", "access": "customers", "opening_hours": "24/7", "operator": "Engø Gård", "name": "Engø gård, Tjøme", "addr:country": "NO", "socket:type2": "2", "socket:type2:output": "3.6 kW", "charging_station:output": "3.6 kW", "capacity": "2", "_source": "worldwide"}}, {"type": "node", "id": 6017151423, "lat": 59.230286, "lon": 10.273252, "tags": {"amenity": "charging_station", "access": "yes", "brand": "Recharge", "opening_hours": "24/7", "name": "Recharge Gjennestad Hagesenter", "addr:country": "NO", "socket:type2_combo": "6", "socket:type2_combo:output": "150.0 kW", "socket:chademo": "2", "socket:chademo:output": "62.0 kW", "charging_station:output": "150.0 kW", "capacity": "6", "_source": "worldwide"}}, {"type": "node", "id": 6017151424, "lat": 59.135551, "lon": 10.21958, "tags": {"amenity": "charging_station", "access": "yes", "opening_hours": "24/7", "operator": "Sandefjord kommune", "name": "Sandarveien", "addr:country": "NO", "socket:type2": "4", "socket:type2:output": "3.6 kW", "charging_station:output": "3.6 kW", "capacity": "4", "_source": "worldwide"}}, {"type": "node", "id": 6017151428, "lat": 59.293798, "lon": 10.350395, "tags": {"amenity": "charging_station", "access": "yes", "opening_hours": "24/7", "operator": "Exelbil AS", "name": "Åshaugveien 10", "addr:country": "NO", "socket:type2": "1", "socket:type2:output": "22.0 kW", "charging_station:output": "22.0 kW", "capacity": "1", "_source": "worldwide"}}, {"type": "node", "id": 6017151434, "lat": 59.177827, "lon": 10.207626, "tags": {"amenity": "charging_station", "access": "yes", "brand": "Recharge", "opening_hours": "24/7", "name": "Recharge Shell Fokserød", "addr:country": "NO", "socket:type2_combo": "8", "socket:type2_combo:output": "200.0 kW", "socket:chademo": "2", "socket:chademo:output": "62.0 kW", "charging_station:output": "200.0 kW", "capacity": "8", "_source": "worldwide"}}, {"type": "node", "id": 6017210581, "lat": 59.40748, "lon": 10.69702, "tags": {"amenity": "charging_station", "access": "yes", "brand": "Recharge", "opening_hours": "24/7", "name": "Recharge Tørkoppveien 10", "addr:country": "NO", "socket:type2": "4", "socket:type2:output": "22.0 kW", "charging_station:output": "22.0 kW", "capacity": "4", "_source": "worldwide"}}, {"type": "node", "id": 6017210584, "lat": 59.433465, "lon": 10.667886, "tags": {"amenity": "charging_station", "access": "yes", "opening_hours": "24/7", "operator": "ukjent", "name": "Løkkegata", "addr:country": "NO", "_source": "worldwide"}}, {"type": "node", "id": 11172579958, "lat": 59.43503, "lon": 10.670093, "tags": {"amenity": "charging_station", "access": "yes", "brand": "Recharge", "name": "Recharge Esso Flemminghjørnet", "addr:country": "NO", "socket:type2_combo": "6", "socket:type2_combo:output": "200.0 kW", "socket:chademo": "2", "socket:chademo:output": "50.0 kW", "charging_station:output": "200.0 kW", "capacity": "6", "_source": "worldwide"}}, {"type": "node", "id": 6017211528, "lat": 59.437037, "lon": 10.66214, "tags": {"amenity": "charging_station", "access": "yes", "brand": "Mer", "opening_hours": "24/7", "name": "Mer Amfi Moss", "addr:country": "NO", "socket:type2_combo": "2", "socket:type2_combo:output": "50.0 kW", "socket:chademo": "2", "socket:chademo:output": "50.0 kW", "charging_station:output": "50.0 kW", "capacity": "2", "_source": "worldwide"}}, {"type": "node", "id": 6017211497, "lat": 59.42126, "lon": 10.67585, "tags": {"amenity": "charging_station", "access": "yes", "brand": "Recharge", "opening_hours": "24/7", "name": "Recharge Kiwi Melløs", "addr:country": "NO", "socket:type2": "2", "socket:type2:output": "22.0 kW", "socket:type2_combo": "1", "socket:type2_combo:output": "50.0 kW", "socket:chademo": "1", "socket:chademo:output": "50.0 kW", "charging_station:output": "50.0 kW", "capacity": "3", "_source": "worldwide"}}, {"type": "node", "id": 6017211498, "lat": 59.439851, "lon": 10.780838, "tags": {"amenity": "charging_station", "access": "yes", "opening_hours": "24/7", "operator": "Viken Hotell", "name": "Viken hotell", "addr:country": "NO", "socket:type2": "5", "socket:type2:output": "7.4 kW", "charging_station:output": "7.4 kW", "capacity": "5", "_source": "worldwide"}}, {"type": "node", "id": 6017211502, "lat": 59.42399, "lon": 10.60829, "tags": {"amenity": "charging_station", "access": "yes", "fee": "yes", "brand": "Recharge", "opening_hours": "24/7", "operator": "Recharge", "name": "Recharge Galleri F15, Alby", "addr:country": "NO", "socket:type2": "4", "socket:type2:output": "7.2 kW", "charging_station:output": "7.2 kW", "capacity": "4", "_source": "worldwide"}}, {"type": "node", "id": 6017211505, "lat": 59.419002, "lon": 10.678202, "tags": {"amenity": "charging_station", "access": "yes", "opening_hours": "24/7", "operator": "Lade i Norge", "name": "Lilleeng Helsepark", "addr:country": "NO", "socket:type2": "14", "socket:type2:output": "22.0 kW", "charging_station:output": "22.0 kW", "capacity": "14", "_source": "worldwide"}}, {"type": "node", "id": 12755217972, "lat": 59.41711, "lon": 10.673433, "tags": {"amenity": "charging_station", "access": "yes", "brand": "Ragde Charge", "name": "Ragde Charge Sydsiden handelspark", "addr:country": "NO", "socket:type2_combo": "6", "socket:type2_combo:output": "250.0 kW", "charging_station:output": "250.0 kW", "capacity": "6", "_source": "worldwide"}}, {"type": "node", "id": 12824181682, "lat": 59.41711, "lon": 10.672086, "tags": {"amenity": "charging_station", "access": "yes", "brand": "Kople", "name": "Kople Kallum Moss", "addr:country": "NO", "socket:type2_combo": "12", "socket:type2_combo:output": "300.0 kW", "socket:chademo": "2", "socket:chademo:output": "62.0 kW", "charging_station:output": "300.0 kW", "capacity": "12", "_source": "worldwide"}}, {"type": "node", "id": 6017211508, "lat": 59.329213, "lon": 10.667781, "tags": {"amenity": "charging_station", "access": "yes", "opening_hours": "24/7", "operator": "Plugpay", "name": "Støtvig hotell", "addr:country": "NO", "socket:type2": "3", "socket:type2:output": "11.0 kW", "charging_station:output": "11.0 kW", "capacity": "3", "_source": "worldwide"}}, {"type": "node", "id": 6017211509, "lat": 59.32499, "lon": 10.954255, "tags": {"amenity": "charging_station", "access": "yes", "brand": "Recharge", "opening_hours": "24/7", "name": "Recharge Shell Sollibrua", "addr:country": "NO", "socket:type2_combo": "6", "socket:type2_combo:output": "150.0 kW", "socket:chademo": "2", "socket:chademo:output": "62.0 kW", "charging_station:output": "150.0 kW", "capacity": "6", "_source": "worldwide"}}, {"type": "node", "id": 11146764713, "lat": 59.324277, "lon": 10.954804, "tags": {"amenity": "charging_station", "access": "yes", "brand": "Mer", "name": "Mer Burger King Solli", "addr:country": "NO", "socket:type2_combo": "4", "socket:type2_combo:output": "150.0 kW", "socket:chademo": "4", "socket:chademo:output": "50.0 kW", "charging_station:output": "150.0 kW", "capacity": "4", "_source": "worldwide"}}, {"type": "node", "id": 6017211510, "lat": 59.41617, "lon": 10.68292, "tags": {"amenity": "charging_station", "access": "yes", "brand": "Mer", "opening_hours": "24/7", "name": "Mer Rygge storsenter", "addr:country": "NO", "socket:type2": "2", "socket:type2:output": "22.0 kW", "socket:type2_combo": "2", "socket:type2_combo:output": "50.0 kW", "socket:chademo": "2", "socket:chademo:output": "50.0 kW", "charging_station:output": "50.0 kW", "capacity": "4", "_source": "worldwide"}}, {"type": "node", "id": 6017211523, "lat": 59.418868, "lon": 10.680733, "tags": {"amenity": "charging_station", "access": "customers", "opening_hours": "24/7", "operator": "BRENNES AUTO MOSS AS", "name": "Brennes Auto Moss", "addr:country": "NO", "socket:chademo": "1", "socket:chademo:output": "50.0 kW", "charging_station:output": "50.0 kW", "capacity": "1", "_source": "worldwide"}}, {"type": "node", "id": 12824181684, "lat": 59.416849, "lon": 10.685028, "tags": {"amenity": "charging_station", "access": "yes", "brand": "Kople", "name": "Kople Høyden Moss", "addr:country": "NO", "socket:type2_combo": "6", "socket:type2_combo:output": "400.0 kW", "socket:chademo": "1", "socket:chademo:output": "62.0 kW", "charging_station:output": "400.0 kW", "capacity": "6", "_source": "worldwide"}}, {"type": "node", "id": 6017211521, "lat": 59.222239, "lon": 10.930078, "tags": {"amenity": "charging_station", "access": "yes", "opening_hours": "24/7", "operator": "Østfold fylkeskommune", "name": "Fredrik II vgs. Fredrikstad", "addr:country": "NO", "socket:type2": "4", "socket:type2:output": "3.6 kW", "charging_station:output": "3.6 kW", "capacity": "4", "_source": "worldwide"}}, {"type": "node", "id": 7326961323, "lat": 59.223829, "lon": 10.925056, "tags": {"amenity": "charging_station", "access": "yes", "fee": "yes", "brand": "Recharge", "operator": "Recharge", "name": "Fredrik 2 Recharge", "addr:country": "NO", "socket:type2": "4", "socket:type2:output": "22 kW", "charging_station:output": "22 kW", "capacity": "4", "_source": "worldwide"}}, {"type": "node", "id": 6018872096, "lat": 59.92972, "lon": 10.67539, "tags": {"amenity": "charging_station", "access": "customers", "opening_hours": "24/7", "operator": "Salto ladestasjoner AS", "name": "Salto hovedkontor", "addr:country": "NO", "socket:type2": "2", "socket:type2:output": "3.6 kW", "charging_station:output": "3.6 kW", "capacity": "2", "_source": "worldwide"}}, {"type": "node", "id": 6018872097, "lat": 59.962153, "lon": 10.876263, "tags": {"amenity": "charging_station", "access": "yes", "opening_hours": "24/7", "operator": "Oslo kommune", "name": "Ammerudhellinga", "addr:country": "NO", "socket:type2": "12", "socket:type2:output": "3.6 kW", "charging_station:output": "3.6 kW", "capacity": "12", "_source": "worldwide"}}, {"type": "node", "id": 6018872100, "lat": 59.926712, "lon": 10.733886, "tags": {"amenity": "charging_station", "access": "yes", "opening_hours": "24/7", "operator": "Oslo kommune", "name": "Sofies gate", "addr:country": "NO", "socket:type2": "6", "socket:type2:output": "3.6 kW", "charging_station:output": "3.6 kW", "capacity": "6", "_source": "worldwide"}}, {"type": "node", "id": 6018872125, "lat": 59.93026, "lon": 10.735345, "tags": {"amenity": "charging_station", "access": "yes", "opening_hours": "24/7", "operator": "Oslo kommune", "name": "Sofies gate Brageveien", "addr:country": "NO", "socket:type2": "4", "socket:type2:output": "3.6 kW", "charging_station:output": "3.6 kW", "capacity": "4", "_source": "worldwide"}}, {"type": "node", "id": 6018872102, "lat": 59.889972, "lon": 10.778026, "tags": {"amenity": "charging_station", "access": "yes", "opening_hours": "24/7", "operator": "Oslo kommune", "name": "Ekebergveien", "addr:country": "NO", "socket:type2": "6", "socket:type2:output": "3.6 kW", "charging_station:output": "3.6 kW", "capacity": "6", "_source": "worldwide"}}, {"type": "node", "id": 6018872104, "lat": 59.921597, "lon": 10.718959, "tags": {"amenity": "charging_station", "access": "yes", "opening_hours": "24/7", "operator": "Oslo kommune", "name": "Jørgen Moes gate", "addr:country": "NO", "socket:type2": "4", "socket:type2:output": "3.6 kW", "charging_station:output": "3.6 kW", "capacity": "4", "_source": "worldwide"}},