{"id": "35--119", "latMin": 35, "lonMin": -119, "latMax": 36, "lonMax": -118, "generated": "2026-04-16T18:39:07.312Z", "count": 6, "pois": [{"type": "node", "id": 10178967233, "lat": 35.0686, "lon": -118.17458, "tags": {"amenity": "charging_station", "fee": "yes", "access": "customers", "opening_hours": "24/7", "brand": "Tesla Supercharger", "network": "Supercharger", "operator": "Tesla, Inc.", "name": "Mojave, CA Supercharger", "addr:street": "California 14 Highway 14", "addr:housenumber": "16940", "addr:postcode": "93501", "addr:city": "Mojave", "addr:country": "US", "capacity": "12", "_source": "worldwide"}}, {"type": "node", "id": 10178967236, "lat": 35.056806, "lon": -118.17462, "tags": {"amenity": "charging_station", "fee": "yes", "access": "customers", "opening_hours": "24/7", "brand": "Tesla Supercharger", "network": "Supercharger", "operator": "Tesla, Inc.", "name": "Mojave Supercharger", "addr:street": "Sierra Highway", "addr:housenumber": "16246", "addr:postcode": "93501", "addr:city": "Mojave", "addr:country": "US", "capacity": "12", "_source": "worldwide"}}, {"type": "node", "id": 11800723108, "lat": 35.06786, "lon": -118.17544, "tags": {"amenity": "charging_station", "fee": "yes", "access": "yes", "opening_hours": "24/7", "brand": "Tesla Supercharger", "network": "Supercharger", "operator": "Tesla, Inc.", "name": "Mojave, CA - 16870 CA-14 Supercharger", "addr:street": "Aerospace Highway", "addr:housenumber": "16870", "addr:postcode": "93501", "addr:city": "Mojave", "addr:country": "US", "capacity": "20", "_source": "worldwide"}}, {"type": "node", "id": 11800723109, "lat": 35.06713, "lon": -118.17617, "tags": {"amenity": "charging_station", "fee": "yes", "access": "yes", "opening_hours": "24/7", "brand": "Tesla Supercharger", "network": "Supercharger", "operator": "Tesla, Inc.", "name": "Mojave, CA - CA-14 Supercharger", "addr:street": "Aerospace Highway", "addr:housenumber": "16862", "addr:postcode": "93501", "addr:city": "Mojave", "addr:country": "US", "capacity": "12", "_source": "worldwide"}}, {"type": "node", "id": 11812154753, "lat": 35.209778, "lon": -118.832427, "tags": {"amenity": "charging_station", "brand": "ChargePoint", "operator": "ChargePoint", "name": "ChargePoint", "_source": "worldwide"}}, {"type": "node", "id": 12106675834, "lat": 35.340267, "lon": -118.841263, "tags": {"amenity": "charging_station", "brand": "ChargePoint", "operator": "ChargePoint", "name": "ChargePoint", "_source": "worldwide"}}]}