{"id": "41-15", "latMin": 41, "lonMin": 15, "latMax": 42, "lonMax": 16, "generated": "2026-04-16T18:39:07.846Z", "count": 32, "pois": [{"type": "node", "id": 1446463811, "lat": 41.455882, "lon": 15.954929, "tags": {"amenity": "charging_station", "access": "yes", "name": "Stazione di ricarica bici elettriche", "addr:country": "IT", "_source": "worldwide"}}, {"type": "node", "id": 13075743267, "lat": 41.455192, "lon": 15.956001, "tags": {"amenity": "charging_station", "access": "yes", "fee": "yes", "brand": "Enel X", "network": "Enel X Way", "opening_hours": "24/7", "operator": "Enel X", "name": "Enel X", "addr:country": "IT", "socket:type2_combo": "2", "socket:type2_combo:output": "90.0 kW", "charging_station:output": "90.0 kW", "capacity": "2", "_source": "worldwide"}}, {"type": "node", "id": 4890217219, "lat": 41.306351, "lon": 15.899622, "tags": {"amenity": "charging_station", "access": "customers", "fee": "yes", "brand": "Tesla Supercharger", "opening_hours": "24/7", "operator": "Tesla", "name": "Cerignola Supercharger", "addr:street": "Via Manfredonia", "addr:postcode": "71042", "addr:city": "Cerignola", "addr:country": "IT", "socket:type2_combo": "8", "socket:type2_combo:output": "150.0 kW", "socket:tesla_supercharger": "8", "socket:tesla_supercharger:output": "150.0 kW", "charging_station:output": "150.0 kW", "capacity": "8", "_source": "worldwide"}}, {"type": "node", "id": 6163484796, "lat": 41.263461, "lon": 15.902923, "tags": {"amenity": "charging_station", "fee": "yes", "opening_hours": "24/7", "operator": "Enel", "name": "Ladestation Enel", "addr:country": "IT", "capacity": "2", "_source": "worldwide"}}, {"type": "node", "id": 6347587841, "lat": 41.262021, "lon": 15.904575, "tags": {"amenity": "charging_station", "fee": "yes", "opening_hours": "24/7", "operator": "Enel", "name": "Ladestation Enel", "addr:country": "IT", "capacity": "2", "_source": "worldwide"}}, {"type": "node", "id": 6347587848, "lat": 41.263153, "lon": 15.898418, "tags": {"amenity": "charging_station", "fee": "yes", "opening_hours": "24/7", "operator": "Enel", "name": "Ladestation Enel", "addr:country": "IT", "capacity": "2", "_source": "worldwide"}}, {"type": "node", "id": 6347587842, "lat": 41.258835, "lon": 15.911367, "tags": {"amenity": "charging_station", "fee": "yes", "opening_hours": "24/7", "operator": "Enel", "name": "Ladestation Enel", "addr:country": "IT", "capacity": "2", "_source": "worldwide"}}, {"type": "node", "id": 6347587843, "lat": 41.256025, "lon": 15.911062, "tags": {"amenity": "charging_station", "fee": "yes", "opening_hours": "24/7", "operator": "Enel", "name": "Ladestation Enel", "addr:country": "IT", "capacity": "2", "_source": "worldwide"}}, {"type": "node", "id": 6347587844, "lat": 41.263328, "lon": 15.882505, "tags": {"amenity": "charging_station", "fee": "yes", "opening_hours": "24/7", "operator": "Enel", "name": "Ladestation Enel", "addr:country": "IT", "capacity": "2", "_source": "worldwide"}}, {"type": "node", "id": 6347587845, "lat": 41.264951, "lon": 15.91413, "tags": {"amenity": "charging_station", "fee": "yes", "opening_hours": "24/7", "operator": "Enel", "name": "Ladestation Enel", "addr:country": "IT", "capacity": "2", "_source": "worldwide"}}, {"type": "node", "id": 6347587847, "lat": 41.268011, "lon": 15.909952, "tags": {"amenity": "charging_station", "fee": "yes", "opening_hours": "24/7", "operator": "Enel", "name": "Ladestation Enel", "addr:country": "IT", "capacity": "2", "_source": "worldwide"}}, {"type": "node", "id": 6606142848, "lat": 41.153784, "lon": 15.379159, "tags": {"amenity": "charging_station", "addr:country": "IT", "_source": "worldwide"}}, {"type": "node", "id": 6606142849, "lat": 41.152262, "lon": 15.381346, "tags": {"amenity": "charging_station", "addr:country": "IT", "_source": "worldwide"}}, {"type": "node", "id": 8381749718, "lat": 41.063987, "lon": 15.251893, "tags": {"amenity": "charging_station", "access": "yes", "fee": "no", "operator": "Free charge EU domestic plug", "name": "Colonnina ricarica", "addr:country": "IT", "capacity": "4", "_source": "worldwide"}}, {"type": "node", "id": 8785276599, "lat": 41.29443, "lon": 15.15752, "tags": {"amenity": "charging_station", "brand": "Enel", "name": "Enel", "addr:country": "IT", "_source": "worldwide"}}, {"type": "node", "id": 9684614160, "lat": 41.707264, "lon": 15.724747, "tags": {"amenity": "charging_station", "brand": "Enel X", "operator": "Enel X", "name": "Enel X", "addr:country": "IT", "_source": "worldwide"}}, {"type": "node", "id": 10692607062, "lat": 41.909716, "lon": 15.168881, "tags": {"amenity": "charging_station", "access": "yes", "brand": "Free to X", "name": "Free To X", "addr:country": "IT", "capacity": "2", "_source": "worldwide"}}, {"type": "node", "id": 11136692698, "lat": 41.908915, "lon": 15.168567, "tags": {"amenity": "charging_station", "access": "yes", "fee": "yes", "brand": "Free To X", "operator": "Free To X", "name": "Free To X Torre Fantine Est", "addr:country": "IT", "capacity": "4", "_source": "worldwide"}}, {"type": "node", "id": 10794812095, "lat": 41.06469, "lon": 15.314206, "tags": {"amenity": "charging_station", "access": "yes", "brand": "Free to X", "operator": "Free to X", "name": "Free to X - Free to X", "addr:country": "IT", "_source": "worldwide"}}, {"type": "node", "id": 11155497997, "lat": 41.102674, "lon": 15.053977, "tags": {"amenity": "charging_station", "access": "yes", "fee": "yes", "brand": "Enel X", "operator": "Enel X", "name": "Enel X", "addr:country": "IT", "capacity": "2", "_source": "worldwide"}}, {"type": "node", "id": 11244874523, "lat": 41.060222, "lon": 15.013463, "tags": {"amenity": "charging_station", "access": "yes", "brand": "Free To X", "operator": "Free To X", "name": "Free To X - Free To X", "addr:country": "IT", "_source": "worldwide"}}, {"type": "node", "id": 11358748024, "lat": 41.699221, "lon": 15.720133, "tags": {"amenity": "charging_station", "fee": "no", "addr:country": "IT", "authentication:none": "yes", "_source": "worldwide"}}, {"type": "node", "id": 11364288510, "lat": 41.690955, "lon": 15.395938, "tags": {"amenity": "charging_station", "fee": "yes", "brand": "Enel X", "opening_hours": "24/7", "operator": "Enel X", "name": "Enel X", "addr:country": "IT", "capacity": "2", "_source": "worldwide"}}, {"type": "node", "id": 11364294084, "lat": 41.690653, "lon": 15.392745, "tags": {"amenity": "charging_station", "fee": "yes", "brand": "Enel X", "operator": "Enel X", "name": "Enel X", "addr:country": "IT", "capacity": "2", "_source": "worldwide"}}, {"type": "node", "id": 11439982974, "lat": 41.5909, "lon": 15.500388, "tags": {"amenity": "charging_station", "access": "yes", "brand": "Free To X", "operator": "Free To X", "name": "Free To X - Free To X", "addr:country": "IT", "_source": "worldwide"}}, {"type": "node", "id": 11738165580, "lat": 41.591338, "lon": 15.501642, "tags": {"amenity": "charging_station", "access": "yes", "fee": "yes", "brand": "Free To X", "operator": "Free To X", "name": "Free To X - Free To X", "addr:country": "IT", "_source": "worldwide"}}, {"type": "node", "id": 12643114109, "lat": 41.449553, "lon": 15.536591, "tags": {"amenity": "charging_station", "addr:country": "IT", "_source": "worldwide"}}, {"type": "node", "id": 13081549637, "lat": 41.448724, "lon": 15.544219, "tags": {"amenity": "charging_station", "access": "yes", "fee": "yes", "brand": "Enel X", "network": "Enel X Way", "opening_hours": "24/7", "operator": "Enel X", "name": "Enel X", "addr:country": "IT", "socket:type2_combo": "1", "socket:type2_combo:output": "50.0 kW", "socket:chademo": "1", "socket:chademo:output": "50.0 kW", "charging_station:output": "50.0 kW", "capacity": "3", "_source": "worldwide"}}, {"type": "node", "id": 13081379537, "lat": 41.645562, "lon": 15.938462, "tags": {"amenity": "charging_station", "access": "yes", "fee": "yes", "brand": "Enel X", "network": "Enel X Way", "opening_hours": "24/7", "operator": "Enel X", "name": "Enel X", "addr:country": "IT", "socket:type2": "1", "socket:type2:output": "43.0 kW", "socket:type2_combo": "1", "socket:type2_combo:output": "50.0 kW", "socket:chademo": "1", "socket:chademo:output": "50.0 kW", "charging_station:output": "50.0 kW", "capacity": "2", "_source": "worldwide"}}, {"type": "node", "id": 13084188821, "lat": 41.454066, "lon": 15.554373, "tags": {"amenity": "charging_station", "access": "yes", "fee": "yes", "brand": "Enel X", "network": "Enel X Way", "opening_hours": "24/7", "operator": "Enel X", "name": "Enel X", "addr:country": "IT", "socket:type2_combo": "2", "socket:type2_combo:output": "90.0 kW", "charging_station:output": "90.0 kW", "capacity": "2", "_source": "worldwide"}}, {"type": "node", "id": 13582770701, "lat": 41.144966, "lon": 15.526911, "tags": {"amenity": "charging_station", "opening_hours": "24/7", "operator": "Enel X", "name": "Enel X Stazione di Ricaria", "addr:street": "Strada Provinciale 98 del Casone", "addr:postcode": "71024", "_source": "worldwide"}}, {"type": "node", "id": 13723798660, "lat": 41.051854, "lon": 15.793598, "tags": {"amenity": "charging_station", "fee": "yes", "operator": "Plenitude", "name": "Ladestation Plenitude", "addr:country": "IT", "socket:type2": "2", "socket:type2:output": "22 kW", "charging_station:output": "22 kW", "capacity": "2", "_source": "worldwide"}}]}