{"id": "39--108", "latMin": 39, "lonMin": -108, "latMax": 40, "lonMax": -107, "generated": "2026-04-16T18:39:07.701Z", "count": 8, "pois": [{"type": "node", "id": 3683251248, "lat": 39.55268, "lon": -107.34017, "tags": {"amenity": "charging_station", "fee": "yes", "access": "customers", "opening_hours": "24/7", "brand": "Tesla Supercharger", "network": "Supercharger", "operator": "Tesla", "name": "Glenwood Springs Supercharger", "addr:street": "Wulfsohn Road", "addr:housenumber": "125", "addr:postcode": "81601", "addr:city": "Glenwood Springs", "addr:country": "US", "capacity": "6", "_source": "worldwide"}}, {"type": "node", "id": 3683267092, "lat": 39.545163, "lon": -107.324047, "tags": {"amenity": "charging_station", "opening_hours": "24/7", "brand": "ChargePoint", "operator": "ChargePoint", "name": "ChargePoint", "socket:type1": "2", "capacity": "2", "_source": "worldwide"}}, {"type": "node", "id": 3683279862, "lat": 39.520899, "lon": -107.735374, "tags": {"amenity": "charging_station", "opening_hours": "24/7", "name": "EV Charging Station", "socket:type1": "2", "capacity": "2", "_source": "worldwide"}}, {"type": "node", "id": 8500851744, "lat": 39.521949, "lon": -107.777633, "tags": {"amenity": "charging_station", "fee": "yes", "access": "yes", "brand": "ChargePoint", "operator": "ChargePoint", "name": "ChargePoint", "socket:chademo": "4", "socket:type1_combo": "4", "capacity": "8", "_source": "worldwide"}}, {"type": "node", "id": 9136187973, "lat": 39.568158, "lon": -107.517945, "tags": {"amenity": "charging_station", "brand": "ChargePoint", "operator": "ChargePoint", "name": "ChargePoint", "_source": "worldwide"}}, {"type": "node", "id": 9136187977, "lat": 39.571353, "lon": -107.536589, "tags": {"amenity": "charging_station", "brand": "ChargePoint", "operator": "ChargePoint", "name": "ChargePoint", "_source": "worldwide"}}, {"type": "node", "id": 9770673555, "lat": 39.556115, "lon": -107.344812, "tags": {"amenity": "charging_station", "fee": "yes", "access": "yes", "opening_hours": "24/7", "brand": "Electrify America", "operator": "Electrify America", "name": "Electrify America Target T2029", "addr:street": "West Meadows Drive", "addr:housenumber": "110", "socket:type1_combo": "4", "capacity": "4", "_source": "worldwide"}}, {"type": "node", "id": 12437923392, "lat": 39.52276, "lon": -107.77452, "tags": {"amenity": "charging_station", "fee": "yes", "access": "yes", "opening_hours": "24/7", "brand": "Tesla Supercharger", "network": "Supercharger", "operator": "Tesla", "name": "Rifle Supercharger", "addr:street": "Wapiti Court", "addr:housenumber": "675", "addr:postcode": "81650", "addr:city": "Rifle", "addr:country": "US", "capacity": "12", "_source": "worldwide"}}]}