{"id": "42--124", "latMin": 42, "lonMin": -124, "latMax": 43, "lonMax": -123, "generated": "2026-04-16T18:39:07.852Z", "count": 9, "pois": [{"type": "node", "id": 7022350621, "lat": 42.939954, "lon": -123.290048, "tags": {"amenity": "charging_station", "brand": "Tesla, Inc.", "name": "Tesla Destination Charger", "_source": "worldwide"}}, {"type": "node", "id": 8702517458, "lat": 42.461534, "lon": -123.322944, "tags": {"amenity": "charging_station", "operator": "AeroVironment", "name": "AeroVironment", "_source": "worldwide"}}, {"type": "node", "id": 10134125054, "lat": 42.435729, "lon": -123.302148, "tags": {"amenity": "charging_station", "fee": "yes", "opening_hours": "24/7", "operator": "Electrify America", "name": "Electrify America", "addr:street": "Northeast Terry Lane", "addr:housenumber": "1354", "addr:postcode": "97526", "addr:city": "Grants Pass", "addr:country": "US", "socket:chademo": "1", "socket:type1": "4", "capacity": "5", "_source": "worldwide"}}, {"type": "node", "id": 11161751950, "lat": 42.940242, "lon": -123.28918, "tags": {"amenity": "charging_station", "operator": "EVCS", "name": "WCEH Canyonville", "addr:street": "Creekside Road", "addr:housenumber": "130", "addr:postcode": "97417", "addr:city": "Canyonville", "_source": "worldwide"}}, {"type": "node", "id": 11547329488, "lat": 42.695273, "lon": -123.396736, "tags": {"amenity": "charging_station", "operator": "EVCS", "name": "EVCS", "_source": "worldwide"}}, {"type": "node", "id": 11554719625, "lat": 42.937867, "lon": -123.283705, "tags": {"amenity": "charging_station", "brand": "ChargePoint", "operator": "ChargePoint", "name": "ChargePoint", "_source": "worldwide"}}, {"type": "node", "id": 11585256588, "lat": 42.30527, "lon": -123.220007, "tags": {"amenity": "charging_station", "brand": "ChargePoint", "operator": "ChargePoint", "name": "ChargePoint", "_source": "worldwide"}}, {"type": "node", "id": 11963169353, "lat": 42.43678, "lon": -123.30029, "tags": {"amenity": "charging_station", "fee": "yes", "access": "yes", "opening_hours": "24/7", "brand": "Tesla Supercharger", "network": "Supercharger", "operator": "Tesla, Inc.", "name": "Tesla Supercharger", "addr:street": "Northeast Terry Lane", "addr:housenumber": "231", "addr:postcode": "97526", "addr:city": "Grants Pass", "addr:country": "US", "capacity": "16", "_source": "worldwide"}}, {"type": "node", "id": 13041036379, "lat": 42.431526, "lon": -123.162723, "tags": {"amenity": "charging_station", "fee": "yes", "access": "yes", "opening_hours": "24/7", "brand": "Tesla Supercharger", "network": "Supercharger", "operator": "Tesla, Inc.", "name": "Rogue River Supercharger", "addr:street": "East Main Street", "addr:housenumber": "510", "addr:postcode": "97537", "addr:city": "Rogue River", "addr:country": "US", "capacity": "12", "_source": "worldwide"}}]}