{"id": "51--4", "latMin": 51, "lonMin": -4, "latMax": 52, "lonMax": -3, "generated": "2026-04-16T18:39:08.407Z", "count": 30, "pois": [{"type": "node", "id": 7730035739, "lat": 51.769042, "lon": -4.387891, "tags": {"amenity": "charging_station", "access": "yes", "addr:city": "Caerfyrddin", "addr:country": "GB", "capacity": "2", "_source": "worldwide"}}, {"type": "node", "id": 7967051698, "lat": 51.568503, "lon": -4.290111, "tags": {"amenity": "charging_station", "fee": "no", "operator": "National Trust", "name": "Ladestation National Trust", "addr:country": "GB", "capacity": "2", "_source": "worldwide"}}, {"type": "node", "id": 9182981415, "lat": 51.681246, "lon": -4.251495, "tags": {"amenity": "charging_station", "access": "yes", "operator": "ClenergyEV", "name": "ClenergyEV", "addr:country": "GB", "_source": "worldwide"}}, {"type": "node", "id": 9862142672, "lat": 51.708239, "lon": -4.948535, "tags": {"amenity": "charging_station", "operator": "GeniePoint", "name": "GeniePoint Charging Station", "addr:country": "GB", "_source": "worldwide"}}, {"type": "node", "id": 10012832961, "lat": 51.848054, "lon": -4.370874, "tags": {"amenity": "charging_station", "network": "Instavolt", "opening_hours": "24/7", "operator": "Instavolt", "name": "Ladestation Instavolt", "addr:country": "GB", "socket:type2_combo": "1", "socket:type2_combo:output": "125.0 kW", "socket:chademo": "1", "socket:chademo:output": "125.0 kW", "charging_station:output": "125.0 kW", "capacity": "1", "_source": "worldwide"}}, {"type": "node", "id": 10053701588, "lat": 51.579422, "lon": -4.035177, "tags": {"amenity": "charging_station", "access": "yes", "operator": "Clenergy", "name": "Down To Earth DC", "addr:country": "GB", "_source": "worldwide"}}, {"type": "node", "id": 10137700926, "lat": 51.206035, "lon": -4.126666, "tags": {"amenity": "charging_station", "access": "yes", "fee": "yes", "brand": "Scottishpower", "operator": "SP Energy Networks", "name": "SP Energy Networks - Scottishpower", "addr:country": "FR", "capacity": "22", "_source": "worldwide"}}, {"type": "node", "id": 10764226877, "lat": 51.788641, "lon": -4.118834, "tags": {"amenity": "charging_station", "access": "yes", "addr:country": "GB", "_source": "worldwide"}}, {"type": "node", "id": 10950852205, "lat": 51.021253, "lon": -4.203735, "tags": {"amenity": "charging_station", "operator": "GeniePoint", "name": "Ladestation GeniePoint", "addr:country": "FR", "_source": "worldwide"}}, {"type": "node", "id": 10982347806, "lat": 51.795184, "lon": -4.083592, "tags": {"amenity": "charging_station", "name": "PoGo Fast Charging Station", "addr:country": "GB", "_source": "worldwide"}}, {"type": "node", "id": 1442013735, "lat": 51.796249, "lon": -4.085621, "tags": {"amenity": "charging_station", "addr:country": "GB", "_source": "worldwide"}}, {"type": "node", "id": 11030522151, "lat": 51.680492, "lon": -4.772921, "tags": {"amenity": "charging_station", "brand": "podpoint", "name": "Ladestation podpoint", "addr:country": "GB", "capacity": "6", "_source": "worldwide"}}, {"type": "node", "id": 11040335187, "lat": 51.792035, "lon": -4.979119, "tags": {"amenity": "charging_station", "access": "yes", "brand": "InstaVolt", "network": "InstaVolt", "opening_hours": "24/7", "operator": "InstaVolt", "name": "McDonald's Haverfordwest", "addr:country": "GB", "socket:type2_combo": "2", "socket:type2_combo:output": "120.0 kW", "socket:chademo": "2", "socket:chademo:output": "60.0 kW", "charging_station:output": "120.0 kW", "capacity": "2", "_source": "worldwide"}}, {"type": "node", "id": 11641502535, "lat": 51.674398, "lon": -4.919954, "tags": {"amenity": "charging_station", "addr:country": "GB", "capacity": "4", "_source": "worldwide"}}, {"type": "node", "id": 11762254539, "lat": 51.858348, "lon": -4.311563, "tags": {"amenity": "charging_station", "access": "customers", "fee": "yes", "brand": "Tesla Supercharger", "opening_hours": "24/7", "operator": "Tesla", "name": "Carmarthen Supercharger", "addr:country": "GB", "socket:type2_combo": "12", "socket:type2_combo:output": "250.0 kW", "charging_station:output": "250.0 kW", "capacity": "12", "_source": "worldwide"}}, {"type": "node", "id": 12046122878, "lat": 51.544456, "lon": -4.211523, "tags": {"amenity": "charging_station", "operator": "EVlink", "name": "Ladestation EVlink", "addr:country": "GB", "capacity": "2", "_source": "worldwide"}}, {"type": "node", "id": 12083643532, "lat": 51.79686, "lon": -4.369751, "tags": {"amenity": "charging_station", "operator": "Monta", "name": "Ladestation Monta", "addr:country": "GB", "capacity": "2", "_source": "worldwide"}}, {"type": "node", "id": 12115212335, "lat": 51.583111, "lon": -4.103198, "tags": {"amenity": "charging_station", "operator": "Instavolt", "name": "Ladestation Instavolt", "addr:country": "GB", "capacity": "2", "_source": "worldwide"}}, {"type": "node", "id": 12122876510, "lat": 51.74622, "lon": -4.733383, "tags": {"amenity": "charging_station", "fee": "yes", "network": "Pod Point", "opening_hours": "sunrise-sunset", "operator": "Pod Point", "name": "Ladestation Pod Point", "addr:country": "GB", "socket:type2": "2", "socket:type2:output": "7.0 kW", "charging_station:output": "7.0 kW", "capacity": "2", "authentication:none": "", "_source": "worldwide"}}, {"type": "node", "id": 12125558369, "lat": 51.799576, "lon": -4.745261, "tags": {"amenity": "charging_station", "fee": "yes", "network": "Dragon Charging", "opening_hours": "24/7", "operator": "Pembrokeshire County Council", "name": "Pembrokeshire County Council - Dragon Charging", "addr:country": "GB", "socket:type2": "2", "socket:type2:output": "22.0 kW", "charging_station:output": "22.0 kW", "capacity": "2", "authentication:none": "", "_source": "worldwide"}}, {"type": "node", "id": 12167491656, "lat": 51.807111, "lon": -4.967511, "tags": {"amenity": "charging_station", "operator": "EVC", "name": "Ladestation EVC", "addr:country": "GB", "_source": "worldwide"}}, {"type": "node", "id": 12902869740, "lat": 51.061782, "lon": -4.08106, "tags": {"amenity": "charging_station", "access": "yes", "fee": "yes", "brand": "EV On The Move", "operator": "Tesla", "name": "Tesla - EV On The Move", "addr:country": "FR", "socket:type2_combo": "8", "socket:type2_combo:output": "250.0 kW", "charging_station:output": "250.0 kW", "capacity": "8", "_source": "worldwide"}}, {"type": "node", "id": 12968002646, "lat": 51.846002, "lon": -4.309977, "tags": {"amenity": "charging_station", "fee": "yes", "brand": "Osprey", "operator": "Osprey", "name": "Osprey - Osprey", "addr:country": "GB", "_source": "worldwide"}}, {"type": "node", "id": 12968002681, "lat": 51.847714, "lon": -4.310681, "tags": {"amenity": "charging_station", "fee": "yes", "brand": "Osprey", "operator": "Osprey", "name": "Osprey - Osprey", "addr:country": "GB", "_source": "worldwide"}}, {"type": "node", "id": 13007000319, "lat": 51.695057, "lon": -4.942796, "tags": {"amenity": "charging_station", "access": "yes", "fee": "yes", "brand": "Osprey", "operator": "Osprey", "name": "Osprey - Osprey", "addr:country": "GB", "capacity": "2", "_source": "worldwide"}}, {"type": "node", "id": 13104636001, "lat": 51.209928, "lon": -4.11665, "tags": {"amenity": "charging_station", "name": "pod point Charging Station", "addr:country": "FR", "_source": "worldwide"}}, {"type": "node", "id": 13104636101, "lat": 51.080299, "lon": -4.06184, "tags": {"amenity": "charging_station", "name": "Scottishpower", "addr:country": "FR", "_source": "worldwide"}}, {"type": "node", "id": 13104636201, "lat": 51.073072, "lon": -4.061461, "tags": {"amenity": "charging_station", "name": "pod point Charging Station", "addr:country": "FR", "_source": "worldwide"}}, {"type": "node", "id": 13104721210, "lat": 51.206753, "lon": -4.106498, "tags": {"amenity": "charging_station", "access": "yes", "fee": "yes", "brand": "Osprey", "operator": "Osprey", "name": "Osprey - Osprey", "addr:country": "FR", "capacity": "50", "_source": "worldwide"}}, {"type": "node", "id": 1259545409, "lat": 51.752565, "lon": -4.217924, "tags": {"amenity": "charging_station", "addr:country": "GB", "_source": "worldwide"}}]}