{"id": "50-14", "latMin": 50, "lonMin": 14, "latMax": 51, "lonMax": 15, "generated": "2026-04-16T18:39:08.400Z", "count": 15, "pois": [{"type": "node", "id": 68319980, "lat": 50.032823, "lon": 14.564371, "tags": {"amenity": "charging_station", "access": "yes", "fee": "yes", "brand": "PREpoint", "operator": "PRE", "name": "PRE - PREpoint", "addr:country": "DE", "capacity": "2", "_source": "worldwide"}}, {"type": "node", "id": 338662352, "lat": 50.031909, "lon": 14.563582, "tags": {"amenity": "charging_station", "access": "yes", "fee": "yes", "brand": "PREpoint", "operator": "PRE", "name": "PRE - PREpoint", "addr:country": "DE", "capacity": "2", "_source": "worldwide"}}, {"type": "node", "id": 658929739, "lat": 50.03217, "lon": 14.559068, "tags": {"amenity": "charging_station", "access": "yes", "fee": "yes", "brand": "PREpoint", "operator": "PRE", "name": "PRE - PREpoint", "addr:country": "DE", "capacity": "2", "_source": "worldwide"}}, {"type": "node", "id": 117881941, "lat": 50.125246, "lon": 14.526276, "tags": {"amenity": "charging_station", "addr:country": "DE", "_source": "worldwide"}}, {"type": "node", "id": 1113364381, "lat": 50.104985, "lon": 14.468949, "tags": {"amenity": "charging_station", "operator": "PRE", "name": "Ladestation PRE", "addr:country": "DE", "capacity": "2", "_source": "worldwide"}}, {"type": "node", "id": 1178331936, "lat": 50.020283, "lon": 14.204633, "tags": {"amenity": "charging_station", "addr:country": "DE", "capacity": "3", "_source": "worldwide"}}, {"type": "node", "id": 1223131784, "lat": 50.1504, "lon": 14.444971, "tags": {"amenity": "charging_station", "access": "private", "addr:country": "DE", "capacity": "4", "_source": "worldwide"}}, {"type": "node", "id": 1224022927, "lat": 50.136594, "lon": 14.451306, "tags": {"amenity": "charging_station", "access": "customers", "brand": "Bauhaus", "operator": "Bauhaus", "name": "Bauhaus - Bauhaus", "addr:country": "DE", "capacity": "2", "_source": "worldwide"}}, {"type": "node", "id": 1253852819, "lat": 50.037738, "lon": 14.500187, "tags": {"amenity": "charging_station", "access": "yes", "fee": "yes", "operator": "PRE", "name": "Ladestation PRE", "addr:country": "DE", "_source": "worldwide"}}, {"type": "node", "id": 1378636322, "lat": 50.127024, "lon": 14.117203, "tags": {"amenity": "charging_station", "operator": "ČEZ", "name": "Ladestation ČEZ", "addr:country": "DE", "capacity": "8", "_source": "worldwide"}}, {"type": "node", "id": 1378896071, "lat": 50.12634, "lon": 14.123297, "tags": {"amenity": "charging_station", "access": "yes", "fee": "yes", "addr:country": "DE", "capacity": "2", "_source": "worldwide"}}, {"type": "node", "id": 1456135833, "lat": 50.035659, "lon": 14.408986, "tags": {"amenity": "charging_station", "access": "yes", "fee": "no", "opening_hours": "24/7", "operator": "Green Pedal", "name": "Nabíjecí stanice pro eletrokola", "addr:country": "DE", "socket:schuko": "1", "socket:schuko:output": "2.3 kW", "charging_station:output": "2.3 kW", "capacity": "4", "_source": "worldwide"}}, {"type": "node", "id": 1467293403, "lat": 50.898608, "lon": 14.783174, "tags": {"amenity": "charging_station", "access": "yes", "fee": "yes", "opening_hours": "24/7", "operator": "EnBW", "name": "EnBW - EnBW Energie Baden-Württemberg AG", "addr:country": "DE", "socket:type2_combo": "4", "socket:type2_combo:output": "150.0 kW", "charging_station:output": "150.0 kW", "capacity": "4", "_source": "worldwide"}}, {"type": "node", "id": 1467293404, "lat": 50.998567, "lon": 14.615963, "tags": {"amenity": "charging_station", "access": "yes", "fee": "yes", "opening_hours": "24/7", "operator": "GreenVesting", "name": "Ladestation GreenVesting", "addr:country": "DE", "socket:type2_combo": "2", "socket:type2_combo:output": "100.0 kW", "charging_station:output": "100.0 kW", "capacity": "2", "_source": "worldwide"}}, {"type": "node", "id": 1488664634, "lat": 50.060407, "lon": 14.483279, "tags": {"amenity": "charging_station", "access": "customers", "fee": "no", "operator": "CE Colo Czech s. r. o.", "name": "Ladestation CE Colo Czech s. r. o.", "addr:country": "DE", "_source": "worldwide"}}]}