{"id": "43--1", "latMin": 43, "lonMin": -1, "latMax": 44, "lonMax": 0, "generated": "2026-04-16T18:39:07.906Z", "count": 8, "pois": [{"type": "node", "id": 952029104, "lat": 43.55099, "lon": -1.124503, "tags": {"amenity": "charging_station", "operator": "carrefour", "name": "Ladestation carrefour", "addr:country": "FR", "capacity": "2", "_source": "worldwide"}}, {"type": "node", "id": 1088856264, "lat": 43.447405, "lon": -1.575391, "tags": {"amenity": "charging_station", "access": "customers", "addr:country": "FR", "capacity": "4", "_source": "worldwide"}}, {"type": "node", "id": 1243192888, "lat": 43.276169, "lon": -1.987867, "tags": {"amenity": "charging_station", "access": "yes", "fee": "yes", "brand": "Tesla Supercharger", "opening_hours": "24/7", "operator": "Tesla", "name": "Tesla Supercharger", "addr:country": "FR", "socket:type2_combo": "8", "socket:type2_combo:output": "250.0 kW", "charging_station:output": "250.0 kW", "capacity": "8", "_source": "worldwide"}}, {"type": "node", "id": 1388332155, "lat": 43.279872, "lon": -1.982297, "tags": {"amenity": "charging_station", "addr:country": "FR", "capacity": "3", "_source": "worldwide"}}, {"type": "node", "id": 1442147419, "lat": 43.277798, "lon": -1.978945, "tags": {"amenity": "charging_station", "addr:country": "FR", "capacity": "3", "_source": "worldwide"}}, {"type": "node", "id": 1251186314, "lat": 43.281922, "lon": -1.916708, "tags": {"amenity": "charging_station", "operator": "Iberdrola", "name": "Ladestation Iberdrola", "addr:country": "FR", "capacity": "1", "_source": "worldwide"}}, {"type": "node", "id": 1429268772, "lat": 43.493794, "lon": -1.452396, "tags": {"amenity": "charging_station", "access": "yes", "fee": "yes", "brand": "Tesla Supercharger", "network": "Tesla Supercharger", "opening_hours": "24/7", "operator": "Tesla", "name": "Bayonne Supercharger", "addr:country": "FR", "socket:type2_combo": "8", "socket:type2_combo:output": "250.0 kW", "charging_station:output": "250.0 kW", "capacity": "8", "wheelchair": "yes", "_source": "worldwide"}}, {"type": "node", "id": 1435289500, "lat": 43.478923, "lon": -1.452351, "tags": {"amenity": "charging_station", "addr:country": "FR", "_source": "worldwide"}}]}