{"id": "27--83", "latMin": 27, "lonMin": -83, "latMax": 28, "lonMax": -82, "generated": "2026-04-16T18:39:07.255Z", "count": 60, "pois": [{"type": "node", "id": 2059104144, "lat": 27.782957, "lon": -82.638995, "tags": {"amenity": "charging_station", "fee": "yes", "access": "customers", "brand": "ChargePoint", "operator": "ChargePoint", "name": "ChargePoint", "capacity": "1", "_source": "worldwide"}}, {"type": "node", "id": 2147827598, "lat": 27.777557, "lon": -82.6288, "tags": {"amenity": "charging_station", "operator": "Duke Energy", "name": "Duke Energy", "_source": "worldwide"}}, {"type": "node", "id": 2270642767, "lat": 27.498989, "lon": -82.569566, "tags": {"amenity": "charging_station", "name": "EV Charging Station", "_source": "worldwide"}}, {"type": "node", "id": 3682932419, "lat": 27.963216, "lon": -82.729319, "tags": {"amenity": "charging_station", "fee": "yes", "operator": "Shell Recharge Solutions", "name": "Greenlots", "socket:chademo": "1", "socket:type1_combo": "1", "capacity": "2", "_source": "worldwide"}}, {"type": "node", "id": 3682972283, "lat": 27.768259, "lon": -82.392794, "tags": {"amenity": "charging_station", "fee": "yes", "name": "Greenlots", "socket:chademo": "1", "socket:type1_combo": "1", "capacity": "2", "_source": "worldwide"}}, {"type": "node", "id": 3682994306, "lat": 27.96494, "lon": -82.736683, "tags": {"amenity": "charging_station", "fee": "no", "opening_hours": "24/7", "name": "EV Charging Station", "socket:type1": "2", "capacity": "2", "_source": "worldwide"}}, {"type": "node", "id": 3724370598, "lat": 27.94083, "lon": -82.32365, "tags": {"amenity": "charging_station", "fee": "yes", "access": "customers", "opening_hours": "24/7", "brand": "Tesla Supercharger", "network": "Supercharger", "operator": "Tesla, Inc.", "name": "Brandon Supercharger", "addr:street": "West Brandon Boulevard", "addr:housenumber": "2400", "addr:postcode": "33511", "addr:city": "Brandon", "addr:country": "US", "capacity": "8", "_source": "worldwide"}}, {"type": "node", "id": 3915535385, "lat": 27.498804, "lon": -82.571847, "tags": {"amenity": "charging_station", "name": "EV Charging Station", "_source": "worldwide"}}, {"type": "node", "id": 3915537594, "lat": 27.499228, "lon": -82.575516, "tags": {"amenity": "charging_station", "name": "EV Charging Station", "_source": "worldwide"}}, {"type": "node", "id": 5938102914, "lat": 27.951033, "lon": -82.452147, "tags": {"amenity": "charging_station", "operator": "Twiggs Street Parking Garage", "name": "Twiggs Street Parking Garage", "_source": "worldwide"}}, {"type": "node", "id": 6059840600, "lat": 27.386044, "lon": -82.481938, "tags": {"amenity": "charging_station", "brand": "ChargePoint", "name": "ChargePoint", "_source": "worldwide"}}, {"type": "node", "id": 6578717340, "lat": 27.8461, "lon": -82.67811, "tags": {"amenity": "charging_station", "fee": "yes", "access": "customers", "opening_hours": "24/7", "brand": "Tesla Supercharger", "network": "Supercharger", "operator": "Tesla, Inc.", "name": "Pinellas Park Supercharger", "addr:street": "Gandy Boulevard", "addr:housenumber": "3101", "addr:postcode": "33782", "addr:city": "Pinellas Park", "addr:country": "US", "capacity": "8", "_source": "worldwide"}}, {"type": "node", "id": 6579169439, "lat": 27.7914, "lon": -82.3328, "tags": {"amenity": "charging_station", "fee": "yes", "access": "customers", "opening_hours": "24/7", "brand": "Tesla Supercharger", "network": "Supercharger", "operator": "Tesla, Inc.", "name": "Riverview Supercharger", "addr:street": "Big Bend Road", "addr:housenumber": "10665", "addr:postcode": "33579", "addr:city": "Riverview", "addr:country": "US", "capacity": "10", "_source": "worldwide"}}, {"type": "node", "id": 6579195780, "lat": 27.93712, "lon": -82.48112, "tags": {"amenity": "charging_station", "fee": "yes", "access": "customers", "opening_hours": "24/7", "brand": "Tesla Supercharger", "network": "Supercharger", "operator": "Tesla, Inc.", "name": "Tesla Supercharger", "addr:street": "West Swann Avenue", "addr:housenumber": "2100", "addr:postcode": "33606", "addr:city": "Tampa", "addr:country": "US", "capacity": "10", "_source": "worldwide"}}, {"type": "node", "id": 6579201583, "lat": 27.3863, "lon": -82.46437, "tags": {"amenity": "charging_station", "fee": "yes", "access": "customers", "opening_hours": "24/7", "brand": "Tesla Supercharger", "network": "Supercharger", "operator": "Tesla, Inc.", "name": "Sarasota Supercharger", "addr:street": "Honore Avenue", "addr:housenumber": "5903", "addr:postcode": "34232", "addr:city": "Sarasota", "addr:country": "US", "capacity": "20", "_source": "worldwide"}}, {"type": "node", "id": 6579217581, "lat": 27.96576, "lon": -82.40258, "tags": {"amenity": "charging_station", "fee": "yes", "access": "customers", "opening_hours": "24/7", "brand": "Tesla Supercharger", "network": "Supercharger", "operator": "Tesla, Inc.", "name": "Tesla Supercharger", "addr:street": "North 50th Street", "addr:housenumber": "2502", "addr:postcode": "33619", "addr:city": "Tampa", "addr:country": "US", "capacity": "8", "_source": "worldwide"}}, {"type": "node", "id": 6632580800, "lat": 27.023832, "lon": -82.046895, "tags": {"amenity": "charging_station", "fee": "yes", "name": "EV Charging Station", "_source": "worldwide"}}, {"type": "node", "id": 7386178092, "lat": 27.768387, "lon": -82.649801, "tags": {"amenity": "charging_station", "operator": "Tropicana Field", "name": "Tropicana Field", "_source": "worldwide"}}, {"type": "node", "id": 8313407962, "lat": 27.350077, "lon": -82.404315, "tags": {"amenity": "charging_station", "fee": "no", "access": "private", "operator": "Sarasota County", "name": "Sarasota County", "socket:type1_combo": "1", "capacity": "1", "_source": "worldwide"}}, {"type": "node", "id": 9289006237, "lat": 27.773149, "lon": -82.640296, "tags": {"amenity": "charging_station", "fee": "no", "access": "yes", "opening_hours": "24/7", "name": "Nova Charge", "socket:type1": "1", "capacity": "1", "_source": "worldwide"}}, {"type": "node", "id": 9664937489, "lat": 27.332898, "lon": -82.576788, "tags": {"amenity": "charging_station", "brand": "Tesla, Inc.", "name": "Tesla Destination Charger", "_source": "worldwide"}}, {"type": "node", "id": 9724709432, "lat": 27.930942, "lon": -82.483341, "tags": {"amenity": "charging_station", "brand": "Tesla, Inc.", "name": "Tesla Destination Charger", "_source": "worldwide"}}, {"type": "node", "id": 10189167878, "lat": 27.94924, "lon": -82.50494, "tags": {"amenity": "charging_station", "fee": "yes", "access": "yes", "opening_hours": "24/7", "brand": "Tesla Supercharger", "network": "Supercharger", "operator": "Tesla, Inc.", "name": "Tampa - N Dale Mabry Hwy Supercharger", "addr:street": "North Dale Mabry Highway", "addr:housenumber": "401", "addr:postcode": "33609", "addr:city": "Tampa", "addr:country": "US", "capacity": "8", "_source": "worldwide"}}, {"type": "node", "id": 10229625817, "lat": 27.763685, "lon": -82.634676, "tags": {"amenity": "charging_station", "operator": "Shell Recharge", "name": "J1772 Charger", "_source": "worldwide"}}, {"type": "node", "id": 10229631017, "lat": 27.773455, "lon": -82.626635, "tags": {"amenity": "charging_station", "operator": "Shell Recharge Solutions", "name": "J1772 Charger", "_source": "worldwide"}}, {"type": "node", "id": 10315260581, "lat": 27.979145, "lon": -82.817369, "tags": {"amenity": "charging_station", "fee": "no", "brand": "Clipper Creek", "name": "Clipper Creek", "capacity": "2", "_source": "worldwide"}}, {"type": "node", "id": 10316828656, "lat": 27.941403, "lon": -82.48437, "tags": {"amenity": "charging_station", "fee": "no", "access": "customers", "brand": "Eaton", "name": "Eaton", "socket:type1": "1", "capacity": "1", "_source": "worldwide"}}, {"type": "node", "id": 10670141264, "lat": 27.938589, "lon": -82.45422, "tags": {"amenity": "charging_station", "access": "yes", "operator": "TECO", "name": "TECO", "_source": "worldwide"}}, {"type": "node", "id": 10904490452, "lat": 27.53793, "lon": -82.50736, "tags": {"amenity": "charging_station", "fee": "yes", "access": "yes", "opening_hours": "24/7", "brand": "Tesla Supercharger", "network": "Supercharger", "operator": "Tesla, Inc.", "name": "Ellenton Supercharger", "addr:street": "Factory Shops Boulevard", "addr:housenumber": "5461", "addr:postcode": "34222", "addr:city": "Ellenton", "addr:country": "US", "capacity": "16", "_source": "worldwide"}}, {"type": "node", "id": 10904490456, "lat": 27.2703, "lon": -82.46286, "tags": {"amenity": "charging_station", "fee": "yes", "access": "yes", "opening_hours": "24/7", "brand": "Tesla Supercharger", "network": "Supercharger", "operator": "Tesla, Inc.", "name": "Sarasota Supercharger", "addr:street": "Clark Road", "addr:housenumber": "5321", "addr:postcode": "34233", "addr:city": "Sarasota", "addr:country": "US", "capacity": "8", "_source": "worldwide"}}, {"type": "node", "id": 10904498840, "lat": 27.71365, "lon": -82.37599, "tags": {"amenity": "charging_station", "fee": "yes", "access": "customers", "opening_hours": "24/7", "brand": "Tesla Supercharger", "network": "Supercharger", "operator": "Tesla, Inc.", "name": "Sun City Center Supercharger", "addr:street": "Sun City Center Boulevard", "addr:housenumber": "3726", "addr:postcode": "33573", "addr:city": "Sun City Center", "addr:country": "US", "capacity": "8", "_source": "worldwide"}}, {"type": "node", "id": 10905764723, "lat": 27.444885, "lon": -82.506715, "tags": {"amenity": "charging_station", "fee": "yes", "access": "yes", "brand": "ChargePoint", "operator": "ChargePoint", "name": "Publix Supermarket at Lockwood Commons", "_source": "worldwide"}}, {"type": "node", "id": 10905764728, "lat": 27.44551, "lon": -82.504583, "tags": {"amenity": "charging_station", "fee": "yes", "access": "yes", "brand": "EVgo", "operator": "EVgo", "name": "EVgo", "_source": "worldwide"}}, {"type": "node", "id": 10905764735, "lat": 27.270002, "lon": -82.454391, "tags": {"amenity": "charging_station", "fee": "yes", "access": "yes", "brand": "7-Eleven", "operator": "7-Eleven", "name": "7-Eleven", "_source": "worldwide"}}, {"type": "node", "id": 10905764773, "lat": 27.28183, "lon": -82.531684, "tags": {"amenity": "charging_station", "fee": "yes", "access": "yes", "brand": "FPL EVolution", "operator": "FPL EVolution", "name": "FPL EVolution", "_source": "worldwide"}}, {"type": "node", "id": 10975939635, "lat": 27.912932, "lon": -82.783017, "tags": {"amenity": "charging_station", "access": "customers", "name": "EV Charging Station", "_source": "worldwide"}}, {"type": "node", "id": 10975939636, "lat": 27.914493, "lon": -82.785588, "tags": {"amenity": "charging_station", "name": "EV Charging Station", "_source": "worldwide"}}, {"type": "node", "id": 11062689716, "lat": 27.962092, "lon": -82.445864, "tags": {"amenity": "charging_station", "brand": "ChargePoint", "operator": "ChargePoint", "name": "ChargePoint", "capacity": "2", "_source": "worldwide"}}, {"type": "node", "id": 11229564058, "lat": 27.947379, "lon": -82.456979, "tags": {"amenity": "charging_station", "brand": "Nova Charge", "name": "Nova Charge", "socket:type1": "3", "capacity": "3", "_source": "worldwide"}}, {"type": "node", "id": 11402014696, "lat": 27.96043, "lon": -82.435277, "tags": {"amenity": "charging_station", "fee": "no", "brand": "Tesla, Inc.", "name": "Tesla Destination Charger", "_source": "worldwide"}}, {"type": "node", "id": 11959200813, "lat": 27.91513, "lon": -82.72865, "tags": {"amenity": "charging_station", "fee": "yes", "access": "yes", "opening_hours": "24/7", "brand": "Tesla Supercharger", "network": "Supercharger", "operator": "Tesla, Inc.", "name": "Tesla Supercharger", "addr:street": "US Highway 19 North", "addr:housenumber": "15701", "addr:postcode": "33764", "addr:city": "Clearwater", "addr:country": "US", "capacity": "8", "_source": "worldwide"}}, {"type": "node", "id": 12244728830, "lat": 27.10796, "lon": -82.38529, "tags": {"amenity": "charging_station", "fee": "yes", "access": "yes", "opening_hours": "24/7", "brand": "Tesla Supercharger", "network": "Supercharger", "operator": "Tesla, Inc.", "name": "Venice Supercharger", "addr:street": "Commercial Court", "addr:housenumber": "370", "addr:postcode": "34292", "addr:city": "Venice", "addr:country": "US", "capacity": "8", "_source": "worldwide"}}, {"type": "node", "id": 12244876692, "lat": 27.85815, "lon": -82.32756, "tags": {"amenity": "charging_station", "fee": "yes", "access": "yes", "opening_hours": "24/7", "brand": "Tesla Supercharger", "network": "Supercharger", "operator": "Tesla, Inc.", "name": "Riverview - HWY 301 S Supercharger", "addr:street": "US-301", "addr:housenumber": "9617", "addr:postcode": "33578", "addr:city": "Riverview", "addr:country": "US", "capacity": "8", "_source": "worldwide"}}, {"type": "node", "id": 12698106077, "lat": 27.89279, "lon": -82.50466, "tags": {"amenity": "charging_station", "fee": "yes", "access": "yes", "opening_hours": "24/7", "brand": "Tesla Supercharger", "network": "Supercharger", "operator": "Tesla, Inc.", "name": "Tesla Supercharger", "addr:street": "West Gandy Boulevard", "addr:housenumber": "3660", "addr:postcode": "33611", "addr:city": "Tampa", "addr:country": "US", "capacity": "10", "_source": "worldwide"}}, {"type": "node", "id": 12823935890, "lat": 27.89436, "lon": -82.24551, "tags": {"amenity": "charging_station", "fee": "yes", "access": "yes", "opening_hours": "24/7", "brand": "Tesla Supercharger", "network": "Supercharger", "operator": "Tesla, Inc.", "name": "Tesla Supercharger", "addr:street": "Bloomingdale Avenue", "addr:housenumber": "2224", "addr:postcode": "33596", "addr:city": "Valrico", "addr:country": "US", "capacity": "12", "_source": "worldwide"}}, {"type": "node", "id": 12878074051, "lat": 27.38749, "lon": -82.464135, "tags": {"amenity": "charging_station", "brand": "ChargePoint", "operator": "ChargePoint", "name": "ChargePoint", "_source": "worldwide"}}, {"type": "node", "id": 12878074052, "lat": 27.537367, "lon": -82.507368, "tags": {"amenity": "charging_station", "fee": "yes", "opening_hours": "24/7", "brand": "Electrify America", "operator": "Electrify America", "name": "Electrify America", "_source": "worldwide"}}, {"type": "node", "id": 12879217211, "lat": 27.5381, "lon": -82.5084, "tags": {"amenity": "charging_station", "access": "yes", "opening_hours": "24/7", "brand": "Mercedes-Benz", "network": "ChargePoint", "operator": "Mercedes-Benz", "name": "Mercedes-Benz", "addr:street": "Factory Shops Boulevard", "addr:housenumber": "5115", "addr:postcode": "34222", "addr:city": "Ellenton", "addr:country": "US", "socket:type1_combo": "9", "capacity": "9", "_source": "worldwide"}}, {"type": "node", "id": 12890246778, "lat": 27.044297, "lon": -82.310304, "tags": {"amenity": "charging_station", "name": "EV Charging Station", "addr:country": "US", "_source": "worldwide"}}, {"type": "node", "id": 12896993296, "lat": 27.893167, "lon": -82.338128, "tags": {"amenity": "charging_station", "fee": "yes", "access": "yes", "opening_hours": "24/7", "brand": "bp pulse", "network": "bp pulse", "operator": "BP", "name": "bp pulse", "addr:street": "Progress Boulevard", "addr:housenumber": "9979", "addr:postcode": "33578", "addr:city": "Riverview", "addr:country": "US", "socket:type1_combo": "6", "capacity": "6", "_source": "worldwide"}}, {"type": "node", "id": 12897005201, "lat": 27.95355, "lon": -82.4337, "tags": {"amenity": "charging_station", "opening_hours": "24/7", "brand": "Electrify America", "network": "Electrify America", "name": "Electrify America", "addr:street": "North 22nd Street", "addr:housenumber": "1103", "addr:postcode": "33605", "addr:city": "Tampa", "addr:country": "US", "socket:type1_combo": "6", "capacity": "6", "_source": "worldwide"}}, {"type": "node", "id": 12923431487, "lat": 27.99518, "lon": -82.47815, "tags": {"amenity": "charging_station", "fee": "yes", "access": "yes", "opening_hours": "24/7", "brand": "Tesla Supercharger", "network": "Supercharger", "operator": "Tesla", "name": "Tesla Supercharger", "addr:street": "West Hillsborough Avenue", "addr:housenumber": "1760", "addr:postcode": "33603", "addr:city": "Tampa", "addr:country": "US", "capacity": "16", "_source": "worldwide"}}, {"type": "node", "id": 12923488202, "lat": 27.79334, "lon": -82.66671, "tags": {"amenity": "charging_station", "fee": "yes", "access": "yes", "opening_hours": "24/7", "brand": "Tesla Supercharger", "network": "Supercharger", "operator": "Tesla, Inc.", "name": "Saint Petersburg Supercharger", "addr:street": "25th Street North", "addr:housenumber": "2365", "addr:postcode": "33713", "addr:city": "St. Petersburg", "addr:country": "US", "socket:type1_combo": "20", "capacity": "40", "_source": "worldwide"}}, {"type": "node", "id": 12923488211, "lat": 27.793, "lon": -82.66694, "tags": {"amenity": "charging_station", "fee": "yes", "access": "yes", "opening_hours": "24/7", "brand": "Tesla Supercharger", "network": "Supercharger", "operator": "Tesla, Inc.", "name": "Tesla Supercharger", "addr:street": "22nd Avenue North", "addr:housenumber": "2465", "addr:postcode": "33713", "addr:city": "St. Petersburg", "addr:country": "US", "capacity": "8", "_source": "worldwide"}}, {"type": "node", "id": 12923488250, "lat": 27.9968, "lon": -82.37267, "tags": {"amenity": "charging_station", "fee": "yes", "access": "yes", "opening_hours": "24/7", "brand": "Tesla Supercharger", "network": "Supercharger", "operator": "Tesla, Inc.", "name": "Tesla Supercharger", "addr:street": "East Hillsborough Avenue", "addr:housenumber": "7408", "addr:postcode": "33610", "addr:city": "Tampa", "addr:country": "US", "capacity": "8", "_source": "worldwide"}}, {"type": "node", "id": 12923488272, "lat": 27.73481, "lon": -82.6801, "tags": {"amenity": "charging_station", "fee": "yes", "access": "yes", "opening_hours": "24/7", "brand": "Tesla Supercharger", "network": "Supercharger", "operator": "Tesla, Inc.", "name": "Tesla Supercharger", "addr:street": "34th Street South", "addr:housenumber": "3637", "addr:postcode": "33711", "addr:city": "St. Petersburg", "addr:country": "US", "capacity": "8", "_source": "worldwide"}}, {"type": "node", "id": 13014713787, "lat": 27.496537, "lon": -82.501492, "tags": {"amenity": "charging_station", "access": "yes", "opening_hours": "24/7", "network": "bp pulse", "name": "EV Charging Station", "addr:street": "FL-64", "addr:housenumber": "4820", "addr:postcode": "34208", "addr:city": "Bradenton", "addr:country": "US", "socket:type1_combo": "4", "capacity": "4", "_source": "worldwide"}}, {"type": "node", "id": 13014713796, "lat": 27.298338, "lon": -82.526769, "tags": {"amenity": "charging_station", "access": "yes", "opening_hours": "24/7", "network": "ChargePoint", "name": "EV Charging Station", "addr:street": "Bee Ridge Road", "addr:housenumber": "2124", "addr:postcode": "34239", "addr:city": "Sarasota", "addr:country": "US", "socket:chademo": "1", "socket:type1_combo": "1", "capacity": "2", "_source": "worldwide"}}, {"type": "node", "id": 13667926103, "lat": 27.292899, "lon": -82.451656, "tags": {"amenity": "charging_station", "fee": "yes", "access": "yes", "opening_hours": "24/7", "brand": "Tesla Supercharger", "network": "Supercharger", "operator": "Tesla", "name": "Sarasota Supercharger", "_source": "worldwide"}}, {"type": "node", "id": 13667929501, "lat": 27.980566, "lon": -82.302674, "tags": {"amenity": "charging_station", "fee": "yes", "access": "yes", "opening_hours": "24/7", "brand": "Tesla Supercharger", "network": "Supercharger", "operator": "Tesla", "name": "Seffner Supercharger", "_source": "worldwide"}}]}