{"id": "44-25", "latMin": 44, "lonMin": 25, "latMax": 45, "lonMax": 26, "generated": "2026-04-16T18:39:08.051Z", "count": 24, "pois": [{"type": "node", "id": 7947306509, "lat": 44.424316, "lon": 25.998268, "tags": {"amenity": "charging_station", "fee": "no", "socket:type2": "2", "socket:type2:output": "22.0 kW", "charging_station:output": "22.0 kW", "capacity": "2", "_source": "worldwide"}}, {"type": "node", "id": 8399353802, "lat": 44.423593, "lon": 25.997223, "tags": {"amenity": "charging_station", "fee": "no", "socket:type2": "4", "socket:type2:output": "22.0 kW", "charging_station:output": "22.0 kW", "capacity": "4", "_source": "worldwide"}}, {"type": "node", "id": 8399353781, "lat": 44.435847, "lon": 25.9769, "tags": {"amenity": "charging_station", "fee": "yes", "brand": "E.ON", "opening_hours": "Mo-Fr 08:00-18:00; Sa 09:00-13:00", "operator": "E.ON", "name": "E.ON Drive", "socket:type2": "1", "socket:type2:output": "22.0 kW", "socket:type2_combo": "1", "socket:type2_combo:output": "50.0 kW", "socket:chademo": "1", "socket:chademo:output": "50.0 kW", "charging_station:output": "50.0 kW", "capacity": "3", "_source": "worldwide"}}, {"type": "node", "id": 9657413230, "lat": 44.811147, "lon": 25.078003, "tags": {"amenity": "charging_station", "access": "yes", "operator": "Lidl", "name": "Ladestation Lidl", "capacity": "2", "_source": "worldwide"}}, {"type": "node", "id": 9836274615, "lat": 44.955954, "lon": 25.992561, "tags": {"amenity": "charging_station", "operator": "Renovatio e-charge", "name": "Renovatio e-charge", "socket:type2": "1", "socket:type2:output": "22 kW", "socket:type2_combo": "1", "socket:type2_combo:output": "22.0 kW", "socket:chademo": "1", "socket:chademo:output": "50 kW", "charging_station:output": "50 kW", "capacity": "2", "_source": "worldwide"}}, {"type": "node", "id": 9836363092, "lat": 44.963898, "lon": 25.969804, "tags": {"amenity": "charging_station", "operator": "Renovatio e-charge", "name": "Renovatio e-charge", "socket:type2_combo": "1", "socket:type2_combo:output": "22.0 kW", "socket:chademo": "1", "socket:chademo:output": "50 kW", "charging_station:output": "50 kW", "capacity": "2", "_source": "worldwide"}}, {"type": "node", "id": 9836398172, "lat": 44.963896, "lon": 25.973059, "tags": {"amenity": "charging_station", "access": "yes", "fee": "yes", "brand": "MOL Plugee", "operator": "MOL", "name": "MOL - MOL Plugee", "socket:type2": "1", "socket:type2:output": "22 kW", "socket:type2_combo": "1", "socket:type2_combo:output": "50 kW", "socket:chademo": "1", "socket:chademo:output": "50 kW", "charging_station:output": "50 kW", "capacity": "2", "_source": "worldwide"}}, {"type": "node", "id": 10828205787, "lat": 44.755087, "lon": 25.08238, "tags": {"amenity": "charging_station", "name": "Petrom", "capacity": "2", "_source": "worldwide"}}, {"type": "node", "id": 10929003946, "lat": 44.431252, "lon": 25.993464, "tags": {"amenity": "charging_station", "fee": "yes", "brand": "Enel X", "operator": "Enel X", "name": "Enel X", "socket:type2": "1", "socket:type2:output": "22 kW", "socket:chademo": "1", "socket:chademo:output": "50 kW", "socket:type1_combo": "1", "socket:type1_combo:output": "50 kW", "charging_station:output": "50 kW", "capacity": "3", "_source": "worldwide"}}, {"type": "node", "id": 10929388747, "lat": 44.437812, "lon": 25.962435, "tags": {"amenity": "charging_station", "access": "yes", "fee": "yes", "brand": "Polyfazer", "opening_hours": "Mo-Fr 08:00-18:00; Sa 09:00-13:00", "name": "Ladestation Polyfazer", "socket:type2": "3", "socket:type2:output": "22.0 kW", "socket:type2_combo": "1", "socket:type2_combo:output": "60.0 kW", "socket:chademo": "1", "socket:chademo:output": "50.0 kW", "charging_station:output": "60.0 kW", "capacity": "6", "_source": "worldwide"}}, {"type": "node", "id": 10929388748, "lat": 44.438202, "lon": 25.957624, "tags": {"amenity": "charging_station", "access": "yes", "fee": "yes", "brand": "Eldrive", "operator": "Eldrive", "name": "Eldrive - Eldrive", "socket:type2": "2", "socket:type2:output": "22.0 kW", "charging_station:output": "22.0 kW", "capacity": "2", "_source": "worldwide"}}, {"type": "node", "id": 10929388753, "lat": 44.434474, "lon": 25.95574, "tags": {"amenity": "charging_station", "access": "yes", "fee": "yes", "brand": "Polyfazer", "operator": "Polyfazer", "name": "Polyfazer - Polyfazer", "socket:type2": "2", "socket:type2:output": "22.0 kW", "charging_station:output": "22.0 kW", "capacity": "2", "_source": "worldwide"}}, {"type": "node", "id": 10929388754, "lat": 44.435971, "lon": 25.956608, "tags": {"amenity": "charging_station", "access": "yes", "fee": "yes", "brand": "Lidl", "operator": "Lidl", "name": "Lidl - Lidl", "socket:type2": "2", "socket:type2:output": "22.0 kW", "charging_station:output": "22.0 kW", "capacity": "2", "_source": "worldwide"}}, {"type": "node", "id": 11700822979, "lat": 44.437832, "lon": 25.957123, "tags": {"amenity": "charging_station", "access": "yes", "fee": "yes", "brand": "Hermes Flow", "operator": "Hermes Flow", "name": "Hermes Flow - Hermes Flow", "socket:type2": "2", "socket:type2:output": "43.0 kW", "socket:type2_combo": "4", "socket:type2_combo:output": "90.0 kW", "charging_station:output": "90.0 kW", "capacity": "6", "_source": "worldwide"}}, {"type": "node", "id": 10929388755, "lat": 44.433352, "lon": 25.958415, "tags": {"amenity": "charging_station", "access": "yes", "fee": "yes", "brand": "Kaufland", "opening_hours": "Mo-Fr 08:00-18:00; Sa 09:00-13:00", "name": "Ladestation Kaufland", "socket:type2": "2", "socket:type2:output": "22.0 kW", "socket:type2_combo": "4", "socket:type2_combo:output": "60.0 kW", "charging_station:output": "60.0 kW", "capacity": "6", "_source": "worldwide"}}, {"type": "node", "id": 10929388756, "lat": 44.436496, "lon": 25.985132, "tags": {"amenity": "charging_station", "access": "yes", "fee": "yes", "brand": "Eldrive", "opening_hours": "Mo-Sa 06:00-21:00; Su 08:00-16:00", "operator": "Eldrive", "name": "Eldrive - Eldrive", "socket:type2": "2", "socket:type2:output": "22.0 kW", "charging_station:output": "22.0 kW", "capacity": "2", "_source": "worldwide"}}, {"type": "node", "id": 10929388757, "lat": 44.435057, "lon": 25.988218, "tags": {"amenity": "charging_station", "access": "yes", "fee": "yes", "brand": "Eldrive", "opening_hours": "24/7", "operator": "Eldrive", "name": "Eldrive - Eldrive", "socket:type2": "2", "socket:type2:output": "22.0 kW", "charging_station:output": "22.0 kW", "capacity": "2", "_source": "worldwide"}}, {"type": "node", "id": 10929388758, "lat": 44.434662, "lon": 25.992164, "tags": {"amenity": "charging_station", "fee": "yes", "brand": "Lidl", "opening_hours": "Mo-Fr 08:00-18:00; Sa 09:00-13:00", "operator": "Lidl", "name": "Lidl - Lidl", "socket:type2": "1", "socket:type2:output": "22.0 kW", "socket:type2_combo": "1", "socket:type2_combo:output": "50.0 kW", "socket:chademo": "1", "socket:chademo:output": "50.0 kW", "charging_station:output": "50.0 kW", "capacity": "3", "_source": "worldwide"}}, {"type": "node", "id": 10929388759, "lat": 44.434432, "lon": 25.986614, "tags": {"amenity": "charging_station", "access": "yes", "fee": "yes", "brand": "MOL", "opening_hours": "Mo-Fr 08:00-18:00; Sa 09:00-13:00", "operator": "MOL", "name": "MOL - MOL", "socket:type2": "2", "socket:type2:output": "22.0 kW", "socket:type2_combo": "1", "socket:type2_combo:output": "50.0 kW", "socket:chademo": "1", "socket:chademo:output": "50.0 kW", "charging_station:output": "50.0 kW", "capacity": "3", "_source": "worldwide"}}, {"type": "node", "id": 10929388760, "lat": 44.434597, "lon": 25.985138, "tags": {"amenity": "charging_station", "access": "yes", "fee": "yes", "brand": "Moon", "opening_hours": "Mo-Fr 08:00-18:00; Sa 09:00-13:00", "name": "Ladestation Moon", "socket:type2": "3", "socket:type2:output": "7.0 kW", "socket:type2_combo": "1", "socket:type2_combo:output": "25.0 kW", "charging_station:output": "25.0 kW", "capacity": "4", "_source": "worldwide"}}, {"type": "node", "id": 11110031203, "lat": 44.929111, "lon": 25.461239, "tags": {"amenity": "charging_station", "access": "yes", "brand": "BRD", "name": "Ladestation BRD", "capacity": "2", "_source": "worldwide"}}, {"type": "node", "id": 11110079782, "lat": 44.925606, "lon": 25.462474, "tags": {"amenity": "charging_station", "access": "yes", "fee": "no", "brand": "penny", "name": "Ladestation penny", "capacity": "2", "_source": "worldwide"}}, {"type": "node", "id": 12281829279, "lat": 44.441199, "lon": 25.987816, "tags": {"amenity": "charging_station", "access": "yes", "fee": "yes", "brand": "Kaufland", "opening_hours": "Mo-Fr 08:00-18:00; Sa 09:00-13:00", "operator": "Kaufland Romania", "name": "Kaufland", "addr:street": "Drumul Ciorogârla 223-233", "addr:postcode": "062397", "addr:city": "București", "addr:country": "RO", "socket:type2": "2", "socket:type2:output": "22.0 kW", "socket:type2_combo": "2", "socket:type2_combo:output": "50.0 kW", "socket:chademo": "2", "socket:chademo:output": "50.0 kW", "charging_station:output": "50.0 kW", "capacity": "6", "_source": "worldwide"}}, {"type": "node", "id": 1418594425, "lat": 44.204244, "lon": 25.791933, "tags": {"amenity": "charging_station", "operator": "Petrom", "name": "Ladestation Petrom", "_source": "worldwide"}}]}