{"id": "33--8", "latMin": 33, "lonMin": -8, "latMax": 34, "lonMax": -7, "generated": "2026-04-16T18:39:07.290Z", "count": 12, "pois": [{"type": "node", "id": 10593116694, "lat": 33.586342, "lon": -7.638956, "tags": {"amenity": "charging_station", "fee": "yes", "access": "customers", "opening_hours": "24/7", "brand": "Tesla Supercharger", "operator": "Tesla", "name": "Casablanca Supercharger", "capacity": "4", "_source": "worldwide"}}, {"type": "node", "id": 11134679805, "lat": 33.719126, "lon": -7.398936, "tags": {"amenity": "charging_station", "name": "EV Charging Station", "_source": "worldwide"}}, {"type": "node", "id": 11748285975, "lat": 33.511224, "lon": -7.610292, "tags": {"amenity": "charging_station", "name": "Electric Vehicle Charging", "_source": "worldwide"}}, {"type": "node", "id": 11749903119, "lat": 33.590737, "lon": -7.621722, "tags": {"amenity": "charging_station", "name": "Electric Vehicle Charging Station", "_source": "worldwide"}}, {"type": "node", "id": 11749952907, "lat": 33.60733, "lon": -7.656165, "tags": {"amenity": "charging_station", "name": "Porsche Destination Charging Station", "_source": "worldwide"}}, {"type": "node", "id": 11935282802, "lat": 33.613243, "lon": -7.54607, "tags": {"amenity": "charging_station", "brand": "Star Bobinage", "name": "Star Bobinage", "_source": "worldwide"}}, {"type": "node", "id": 11935328856, "lat": 33.604074, "lon": -7.548248, "tags": {"amenity": "charging_station", "brand": "Station de recharge pour véhicules électriques", "name": "Station de recharge pour véhicules électriques", "_source": "worldwide"}}, {"type": "node", "id": 11935349026, "lat": 33.581845, "lon": -7.625533, "tags": {"amenity": "charging_station", "brand": "EV-Box charging station", "name": "EV-Box charging station", "_source": "worldwide"}}, {"type": "node", "id": 11961624473, "lat": 33.505399, "lon": -7.67828, "tags": {"amenity": "charging_station", "brand": "FastVolt Afriquia Lissasfa Exit", "name": "FastVolt Afriquia Lissasfa Exit", "_source": "worldwide"}}, {"type": "node", "id": 11961633391, "lat": 33.45127, "lon": -7.520649, "tags": {"amenity": "charging_station", "brand": "Cenntro Electric Utility Vehicles", "name": "Cenntro Electric Utility Vehicles", "_source": "worldwide"}}, {"type": "node", "id": 11961649312, "lat": 33.60693, "lon": -7.621367, "tags": {"amenity": "charging_station", "brand": "FastVolt Parking Marina Shopping", "name": "FastVolt Parking Marina Shopping", "_source": "worldwide"}}, {"type": "node", "id": 11961652607, "lat": 33.49093, "lon": -7.599515, "tags": {"amenity": "charging_station", "brand": "Golf Bouskoura Casa Jose", "name": "Golf Bouskoura Casa Jose", "_source": "worldwide"}}]}