{"id": "40-9", "latMin": 40, "lonMin": 9, "latMax": 41, "lonMax": 10, "generated": "2026-04-16T18:39:07.812Z", "count": 14, "pois": [{"type": "node", "id": 3003437374, "lat": 40.022833, "lon": 9.100694, "tags": {"amenity": "charging_station", "access": "yes", "network": "DINAclub", "operator": "Repower", "name": "DINAclub - Stazione di Ricarica e-Bike", "addr:country": "IT", "_source": "worldwide"}}, {"type": "node", "id": 9142412433, "lat": 40.906895, "lon": 9.515987, "tags": {"amenity": "charging_station", "access": "yes", "fee": "yes", "brand": "Tesla Supercharger", "opening_hours": "24/7", "operator": "Tesla", "name": "Olbia Supercharger", "addr:country": "IT", "socket:type2_combo": "4", "socket:type2_combo:output": "250.0 kW", "charging_station:output": "250.0 kW", "capacity": "4", "_source": "worldwide"}}, {"type": "node", "id": 9970826103, "lat": 40.28545, "lon": 9.635824, "tags": {"amenity": "charging_station", "network": "DINAclub", "operator": "Repower", "name": "Repower - DINAclub", "addr:country": "IT", "_source": "worldwide"}}, {"type": "node", "id": 9981942637, "lat": 40.014808, "lon": 9.230946, "tags": {"amenity": "charging_station", "access": "yes", "brand": "Enel X", "operator": "Enel X", "name": "Enel X", "addr:country": "IT", "_source": "worldwide"}}, {"type": "node", "id": 10090476222, "lat": 40.283815, "lon": 9.634245, "tags": {"amenity": "charging_station", "network": "EnelX", "operator": "Enel X Way", "name": "Enel X Way - EnelX", "addr:country": "IT", "socket:type2": "2", "socket:type2:output": "15.0 kW", "charging_station:output": "15.0 kW", "_source": "worldwide"}}, {"type": "node", "id": 11233944313, "lat": 40.279429, "lon": 9.634211, "tags": {"amenity": "charging_station", "network": "EnelX", "operator": "Enel X", "name": "Enel X - EnelX", "addr:country": "IT", "socket:type2": "2", "socket:type2:output": "15.0 kW", "charging_station:output": "15.0 kW", "_source": "worldwide"}}, {"type": "node", "id": 11818095727, "lat": 40.879221, "lon": 9.633746, "tags": {"amenity": "charging_station", "access": "yes", "fee": "no", "brand": "SB019 Sardegna", "operator": "GaraGeeks", "name": "GaraGeeks - SB019 Sardegna", "addr:country": "IT", "_source": "worldwide"}}, {"type": "node", "id": 11818107218, "lat": 40.650399, "lon": 9.329333, "tags": {"amenity": "charging_station", "access": "yes", "fee": "no", "brand": "SB018 Sardegna", "operator": "GaraGeeks", "name": "GaraGeeks - SB018 Sardegna", "addr:country": "IT", "_source": "worldwide"}}, {"type": "node", "id": 12118341060, "lat": 40.649837, "lon": 9.331501, "tags": {"amenity": "charging_station", "addr:country": "IT", "_source": "worldwide"}}, {"type": "node", "id": 11818108502, "lat": 40.707537, "lon": 9.700793, "tags": {"amenity": "charging_station", "access": "yes", "fee": "no", "brand": "SB016 Sardegna", "operator": "GaraGeeks", "name": "GaraGeeks - SB016 Sardegna", "addr:country": "IT", "_source": "worldwide"}}, {"type": "node", "id": 11818533423, "lat": 40.322903, "lon": 9.316266, "tags": {"amenity": "charging_station", "access": "yes", "fee": "no", "brand": "SHELTER ITCS Satta Nuoro", "operator": "GaraGeeks", "name": "GaraGeeks - SHELTER ITCS Satta Nuoro", "addr:country": "IT", "_source": "worldwide"}}, {"type": "node", "id": 11871162095, "lat": 40.781459, "lon": 9.673363, "tags": {"amenity": "charging_station", "operator": "Enel X", "name": "Ladestation Enel X", "addr:country": "IT", "capacity": "3", "_source": "worldwide"}}, {"type": "node", "id": 12049217516, "lat": 40.92572, "lon": 9.502236, "tags": {"amenity": "charging_station", "addr:country": "IT", "_source": "worldwide"}}, {"type": "node", "id": 13283669764, "lat": 40.381575, "lon": 9.606445, "tags": {"amenity": "charging_station", "brand": "Enel X", "name": "Ladestation Enel X", "addr:country": "IT", "_source": "worldwide"}}]}