{"id": "-24--49", "latMin": -24, "lonMin": -49, "latMax": -23, "lonMax": -48, "generated": "2026-04-16T18:39:07.205Z", "count": 5, "pois": [{"type": "node", "id": 10991138819, "lat": -23.580418, "lon": -48.029594, "tags": {"amenity": "charging_station", "fee": "no", "access": "permissive", "operator": "Cofesa Max", "name": "Cofesa Max", "_source": "worldwide"}}, {"type": "node", "id": 12909344207, "lat": -23.577833, "lon": -48.038773, "tags": {"amenity": "charging_station", "access": "customers", "operator": "Itapê Shopping", "name": "Itapê Shopping", "_source": "worldwide"}}, {"type": "node", "id": 12909344208, "lat": -23.609125, "lon": -48.062177, "tags": {"amenity": "charging_station", "brand": "Cervejaria RT166", "name": "Cervejaria RT166", "_source": "worldwide"}}, {"type": "node", "id": 12909344209, "lat": -23.579297, "lon": -48.029404, "tags": {"amenity": "charging_station", "brand": "BYD", "name": "BYD", "_source": "worldwide"}}, {"type": "node", "id": 12909344218, "lat": -23.590316, "lon": -48.049327, "tags": {"amenity": "charging_station", "access": "customers", "operator": "Hotel Universitário", "name": "Hotel Universitário", "_source": "worldwide"}}]}