{"id": "61-9", "latMin": 61, "lonMin": 9, "latMax": 62, "lonMax": 10, "generated": "2026-04-16T18:39:08.796Z", "count": 22, "pois": [{"type": "node", "id": 1770694026, "lat": 61.597753, "lon": 9.733368, "tags": {"amenity": "charging_station", "access": "customers", "opening_hours": "24/7", "operator": "Vinstra vidaregåande skule", "name": "Vinstra vgs", "addr:country": "NO", "socket:cee_blue": "4", "socket:cee_blue:output": "3.6 kW", "charging_station:output": "3.6 kW", "capacity": "4", "_source": "worldwide"}}, {"type": "node", "id": 5562864397, "lat": 61.590674, "lon": 9.720938, "tags": {"amenity": "charging_station", "access": "yes", "brand": "Recharge", "opening_hours": "24/7", "name": "Recharge Vinstra Vegpark", "addr:country": "NO", "socket:type2": "4", "socket:type2:output": "22.0 kW", "socket:type2_combo": "2", "socket:type2_combo:output": "50.0 kW", "socket:chademo": "2", "socket:chademo:output": "50.0 kW", "charging_station:output": "50.0 kW", "capacity": "6", "_source": "worldwide"}}, {"type": "node", "id": 12798499391, "lat": 61.591731, "lon": 9.722639, "tags": {"amenity": "charging_station", "access": "yes", "brand": "Recharge", "name": "Recharge Vinstra Vegpark", "addr:country": "NO", "socket:type2": "2", "socket:type2:output": "11.0 kW", "socket:type2_combo": "1", "socket:type2_combo:output": "50.0 kW", "socket:chademo": "1", "socket:chademo:output": "50.0 kW", "charging_station:output": "50.0 kW", "capacity": "3", "_source": "worldwide"}}, {"type": "node", "id": 5562864398, "lat": 61.592049, "lon": 9.723142, "tags": {"amenity": "charging_station", "access": "yes", "brand": "Circle K", "name": "Circle K E6 Vinstra", "addr:country": "NO", "socket:type2_combo": "10", "socket:type2_combo:output": "400.0 kW", "socket:chademo": "4", "socket:chademo:output": "62.0 kW", "charging_station:output": "400.0 kW", "capacity": "10", "_source": "worldwide"}}, {"type": "node", "id": 9932787713, "lat": 61.594542, "lon": 9.726556, "tags": {"amenity": "charging_station", "access": "yes", "fee": "yes", "brand": "Tesla Supercharger", "opening_hours": "24/7", "operator": "Tesla", "name": "Tesla Vinstra nord Supercharger", "addr:country": "NO", "socket:type2_combo": "20", "socket:type2_combo:output": "250.0 kW", "charging_station:output": "250.0 kW", "capacity": "20", "_source": "worldwide"}}, {"type": "node", "id": 11146764729, "lat": 61.594184, "lon": 9.723852, "tags": {"amenity": "charging_station", "access": "yes", "brand": "Mer", "name": "Mer Extra & Burger King Vinstra", "addr:country": "NO", "socket:type2_combo": "8", "socket:type2_combo:output": "150.0 kW", "socket:chademo": "4", "socket:chademo:output": "50.0 kW", "charging_station:output": "150.0 kW", "capacity": "8", "_source": "worldwide"}}, {"type": "node", "id": 11214406653, "lat": 61.594811, "lon": 9.732584, "tags": {"amenity": "charging_station", "access": "yes", "brand": "Uno-X", "name": "Uno-X Vinstra", "addr:country": "NO", "socket:type2_combo": "6", "socket:type2_combo:output": "300.0 kW", "charging_station:output": "300.0 kW", "capacity": "6", "_source": "worldwide"}}, {"type": "node", "id": 12823927904, "lat": 61.591688, "lon": 9.723764, "tags": {"amenity": "charging_station", "access": "yes", "brand": "Circle K", "name": "Circle K E6 Vinstra Trucks", "addr:country": "NO", "socket:type2_combo": "4", "socket:type2_combo:output": "400.0 kW", "charging_station:output": "400.0 kW", "capacity": "4", "_source": "worldwide"}}, {"type": "node", "id": 5808132164, "lat": 61.77305, "lon": 9.53995, "tags": {"amenity": "charging_station", "access": "yes", "brand": "Recharge", "name": "Recharge Kiwi Otta", "addr:country": "NO", "socket:type2": "1", "socket:type2:output": "22.0 kW", "socket:type2_combo": "1", "socket:type2_combo:output": "50.0 kW", "socket:chademo": "1", "socket:chademo:output": "50.0 kW", "charging_station:output": "50.0 kW", "capacity": "2", "_source": "worldwide"}}, {"type": "node", "id": 11173760419, "lat": 61.771954, "lon": 9.543444, "tags": {"amenity": "charging_station", "access": "yes", "brand": "Circle K", "name": "Circle K E6 Otta", "addr:country": "NO", "socket:type2_combo": "12", "socket:type2_combo:output": "300.0 kW", "socket:chademo": "6", "socket:chademo:output": "62.0 kW", "charging_station:output": "300.0 kW", "capacity": "12", "_source": "worldwide"}}, {"type": "node", "id": 12798540245, "lat": 61.772554, "lon": 9.540171, "tags": {"amenity": "charging_station", "access": "yes", "brand": "Recharge", "name": "Recharge Otta sentrum", "addr:country": "NO", "socket:type2_combo": "4", "socket:type2_combo:output": "50.0 kW", "charging_station:output": "50.0 kW", "capacity": "4", "_source": "worldwide"}}, {"type": "node", "id": 6025956835, "lat": 61.033454, "lon": 9.054477, "tags": {"amenity": "charging_station", "access": "yes", "brand": "Recharge", "opening_hours": "24/7", "name": "Recharge Kiwi Røn", "addr:country": "NO", "socket:type2": "2", "socket:type2:output": "11.0 kW", "socket:type2_combo": "2", "socket:type2_combo:output": "50.0 kW", "socket:chademo": "2", "socket:chademo:output": "50.0 kW", "charging_station:output": "50.0 kW", "capacity": "4", "_source": "worldwide"}}, {"type": "node", "id": 6025956806, "lat": 61.758858, "lon": 9.285839, "tags": {"amenity": "charging_station", "access": "yes", "brand": "Recharge", "opening_hours": "24/7", "name": "Recharge Kiwi Heidal", "addr:country": "NO", "socket:type2": "2", "socket:type2:output": "11.0 kW", "socket:type2_combo": "2", "socket:type2_combo:output": "50.0 kW", "socket:chademo": "2", "socket:chademo:output": "50.0 kW", "charging_station:output": "50.0 kW", "capacity": "4", "_source": "worldwide"}}, {"type": "node", "id": 12776899392, "lat": 61.757647, "lon": 9.292771, "tags": {"amenity": "charging_station", "access": "yes", "brand": "Eviny", "name": "Eviny Heidal", "addr:country": "NO", "socket:type2_combo": "6", "socket:type2_combo:output": "200.0 kW", "socket:chademo": "3", "socket:chademo:output": "50.0 kW", "charging_station:output": "200.0 kW", "capacity": "6", "_source": "worldwide"}}, {"type": "node", "id": 6025956813, "lat": 61.01601, "lon": 9.90659, "tags": {"amenity": "charging_station", "access": "yes", "opening_hours": "24/7", "operator": "Nørstelien Landhandleri", "name": "Nørstelien Landhandleri, Nord Torpa", "addr:country": "NO", "socket:type2": "1", "socket:type2:output": "7.4 kW", "charging_station:output": "7.4 kW", "capacity": "1", "_source": "worldwide"}}, {"type": "node", "id": 6025956822, "lat": 61.499642, "lon": 9.789098, "tags": {"amenity": "charging_station", "access": "customers", "opening_hours": "24/7", "operator": "Wadahl Høgfjellshotell", "name": "Wadahl Høgfjellshotell", "addr:country": "NO", "socket:type2": "2", "socket:type2:output": "7.4 kW", "charging_station:output": "7.4 kW", "capacity": "2", "_source": "worldwide"}}, {"type": "node", "id": 6025956827, "lat": 61.73209, "lon": 9.36912, "tags": {"amenity": "charging_station", "access": "customers", "opening_hours": "24/7", "operator": "Nordre Ekre gardshotell", "name": "Nordre Ekre gardshotell og restaurant", "addr:country": "NO", "socket:type2": "3", "socket:type2:output": "11.0 kW", "charging_station:output": "11.0 kW", "capacity": "3", "_source": "worldwide"}}, {"type": "node", "id": 6025956829, "lat": 61.876859, "lon": 9.099174, "tags": {"amenity": "charging_station", "access": "yes", "brand": "Circle K", "name": "Circle K Vågå", "addr:country": "NO", "socket:type2_combo": "4", "socket:type2_combo:output": "400.0 kW", "charging_station:output": "400.0 kW", "capacity": "4", "_source": "worldwide"}}, {"type": "node", "id": 6025956831, "lat": 61.665969, "lon": 9.701734, "tags": {"amenity": "charging_station", "access": "yes", "brand": "Kople", "name": "Kople Kvam skole", "addr:country": "NO", "socket:type2_combo": "1", "socket:type2_combo:output": "50.0 kW", "socket:chademo": "1", "socket:chademo:output": "50.0 kW", "charging_station:output": "50.0 kW", "capacity": "1", "_source": "worldwide"}}, {"type": "node", "id": 11203129196, "lat": 61.595591, "lon": 9.749397, "tags": {"amenity": "charging_station", "access": "yes", "brand": "Mer", "name": "Mer Nord-Fron kommune, kommunehuset", "addr:country": "NO", "socket:type2": "4", "socket:type2:output": "7.4 kW", "charging_station:output": "7.4 kW", "capacity": "4", "_source": "worldwide"}}, {"type": "node", "id": 12739474508, "lat": 61.589282, "lon": 9.76687, "tags": {"amenity": "charging_station", "access": "yes", "brand": "Ionity", "name": "Ionity Sødorptunet", "addr:country": "NO", "socket:type2_combo": "6", "socket:type2_combo:output": "350.0 kW", "charging_station:output": "350.0 kW", "capacity": "6", "_source": "worldwide"}}, {"type": "node", "id": 12840632082, "lat": 61.8701, "lon": 9.103547, "tags": {"amenity": "charging_station", "access": "yes", "fee": "yes", "brand": "Tesla Supercharger", "opening_hours": "24/7", "operator": "Tesla", "name": "Tesla Vågå Supercharger", "addr:country": "NO", "socket:type2_combo": "12", "socket:type2_combo:output": "250.0 kW", "charging_station:output": "250.0 kW", "capacity": "12", "_source": "worldwide"}}]}