{"id": "43-16", "latMin": 43, "lonMin": 16, "latMax": 44, "lonMax": 17, "generated": "2026-04-16T18:39:07.953Z", "count": 5000, "pois": [{"type": "node", "id": 4420525829, "lat": 43.006683, "lon": 16.0734371, "tags": {"bunker_type": "artillery_cavern", "military": "bunker", "name": "Artillery Gun", "tourism": "attraction"}}, {"type": "node", "id": 4420525830, "lat": 43.0063986, "lon": 16.072037, "tags": {"building": "bunker", "bunker_type": "artillery_cavern", "military": "bunker", "name": "Ancient Artillery gun", "tourism": "attraction"}}, {"type": "node", "id": 6627475382, "lat": 43.0067845, "lon": 16.0736864, "tags": {"building": "bunker", "military": "bunker", "name": "Bunker Auxiliary Exit", "tourism": "attraction"}}, {"type": "node", "id": 6627475507, "lat": 43.0069608, "lon": 16.0716985, "tags": {"building": "bunker", "military": "bunker", "name": "Bunker Main Entry", "tourism": "attraction"}}, {"type": "node", "id": 9025983198, "lat": 43.0065223, "lon": 16.071614, "tags": {"tourism": "viewpoint"}}, {"type": "node", "id": 1145393799, "lat": 43.0103127, "lon": 16.074674, "tags": {"building": "bunker", "bunker_type": "missile_silo", "location": "underground", "military": "bunker", "name": "Stupišće", "tourism": "attraction", "tunnel": "entrance"}}, {"type": "node", "id": 1145393800, "lat": 43.011428, "lon": 16.0751218, "tags": {"bunker_type": "missile_silo", "location": "underground", "military": "bunker", "name": "Tunnel", "tourism": "attraction", "tunnel": "entrance"}}, {"type": "node", "id": 1145393801, "lat": 43.0108972, "lon": 16.0752433, "tags": {"historic": "yes", "military": "bunker", "tourism": "attraction"}}, {"type": "node", "id": 11141788199, "lat": 43.0121217, "lon": 16.0754299, "tags": {"amenity": "parking"}}, {"type": "node", "id": 5646478260, "lat": 43.0254229, "lon": 16.0928152, "tags": {"name:de": "Gefährlicher Abstieg", "name:en": "Dangerous Way-Down", "tourism": "information"}}, {"type": "node", "id": 5646478137, "lat": 43.0466747, "lon": 16.0742964, "tags": {"tourism": "viewpoint"}}, {"type": "node", "id": 11005640224, "lat": 43.0383012, "lon": 16.0921863, "tags": {"drinking_water": "yes", "natural": "spring"}}, {"type": "node", "id": 11005640225, "lat": 43.0382711, "lon": 16.0922775, "tags": {"board_type": "nature", "information": "board", "tourism": "information"}}, {"type": "node", "id": 11005640226, "lat": 43.038246, "lon": 16.0922977, "tags": {"drinking_water": "yes", "natural": "spring"}}, {"type": "node", "id": 11005815905, "lat": 43.0375912, "lon": 16.0919983, "tags": {"board_type": "nature", "information": "board", "name:en": "Volcanic bombs on the rims of an ancient volcano", "name:hr": "Vulkanske bombe na obodima pradavnog vulkana", "tourism": "information"}}, {"type": "node", "id": 11005815906, "lat": 43.0378485, "lon": 16.0922678, "tags": {"board_type": "nature", "information": "board", "tourism": "information"}}, {"type": "node", "id": 11195668327, "lat": 43.039552, "lon": 16.091355, "tags": {"board_type": "history", "information": "board", "name:en": "Neptune - story about the beginnings of the fishing industry in the Mediterranean", "name:hr": "Neptun - privát o pocecima riblje industries na Mediteranu", "tourism": "information"}}, {"type": "node", "id": 11203178117, "lat": 43.0401835, "lon": 16.0954877, "tags": {"access": "customers", "amenity": "parking", "parking": "surface"}}, {"type": "node", "id": 1357469453, "lat": 43.046393, "lon": 16.0879806, "tags": {"addr:housenumber": "62", "addr:street": "Ribarska ulica", "check_date": "2023-09-13", "shop": "convenience", "wheelchair": "no"}}, {"type": "node", "id": 1831519376, "lat": 43.0441591, "lon": 16.0890256, "tags": {"addr:city": "Komiža", "addr:postcode": "21485", "amenity": "restaurant", "name": "Konoba koluna"}}, {"type": "node", "id": 4314157589, "lat": 43.04396, "lon": 16.0884487, "tags": {"addr:city": "Komiža", "addr:housenumber": "2", "addr:postcode": "21485", "addr:street": "Riva", "information": "office", "name": "Tourists information", "name:de": "Touristeninfo", "name:en": "Tourist Info", "opening_hours": "Mo-Fr 07:00-15:00", "tourism": "information"}}, {"type": "node", "id": 4594961843, "lat": 43.0439711, "lon": 16.0884077, "tags": {"amenity": "atm", "cash_in": "no", "check_date": "2023-09-14", "operator": "OTP Banka"}}, {"type": "node", "id": 5075426921, "lat": 43.0441068, "lon": 16.0888235, "tags": {"addr:city": "Komiža", "addr:housenumber": "12", "addr:postcode": "21485", "addr:street": "Riva svetega Mikule", "amenity": "restaurant", "check_date": "2023-09-13", "contact:facebook": "Fabrika.hr", "contact:instagram": "bistro_fabrika", "cuisine": "breakfast;burger;international", "diet:vegetarian": "yes", "email": "info@fabrikavis.hr", "internet_access": "wlan", "name": "Fabrika", "name:fr": "Fabrika", "opening_hours": "Mo-Su 08:00-00:00", "payment:mastercard": "yes", "payment:visa": "yes", "phone": "+385 21 713 155"}}, {"type": "node", "id": 5521670321, "lat": 43.04676, "lon": 16.0871976, "tags": {"addr:housenumber": "1", "addr:postcode": "21485", "addr:street": "Gundulićeva", "amenity": "restaurant", "check_date": "2023-09-16", "contact:facebook": "pages/Konoba-Bako-Komiza-Vis/206846929352900", "cuisine": "croatian;mediterranean;seafood", "diet:fish": "yes", "email": "info@konobabako.hr", "internet_access": "wlan", "internet_access:fee": "customers", "name": "Konoba Bako", "name:en": "Bako", "name:fr": "Restaurant Bako", "opening_hours": "Mo-Su 16:00-01:00", "outdoor_seating": "yes", "payment:mastercard": "yes", "payment:visa": "yes", "phone": "+385 21 713 742;+385 98 360 469", "reservation": "yes", "smoking": "outside", "website": "https://konobabako.hr/", "wheelchair": "no"}}, {"type": "node", "id": 11005837528, "lat": 43.0439026, "lon": 16.0888204, "tags": {"board_type": "nature", "information": "board", "tourism": "information"}}, {"type": "node", "id": 11188816946, "lat": 43.0461901, "lon": 16.0881854, "tags": {"amenity": "atm", "brand": "Euronet", "brand:wikidata": "Q5412010", "cash_in": "no", "check_date": "2023-09-13", "operator": "Euronet", "operator:wikidata": "Q5412010"}}, {"type": "node", "id": 12040153669, "lat": 43.0464733, "lon": 16.0866426, "tags": {"addr:housenumber": "6", "addr:postcode": "21485", "addr:street": "Ivana Gundulića", "amenity": "restaurant", "email": "el.fiore7@gmail.com", "name": "Konoba Jastožera", "opening_hours": "Mo-Su 12:00-00:00", "phone": "+385919842513", "website": "https://jastozera.eu/"}}, {"type": "node", "id": 1357469446, "lat": 43.0453412, "lon": 16.0903796, "tags": {"amenity": "atm", "operator": "Erste"}}, {"type": "node", "id": 1387566992, "lat": 43.0436633, "lon": 16.0896188, "tags": {"shop": "bakery"}}, {"type": "node", "id": 1831519377, "lat": 43.0443392, "lon": 16.0895362, "tags": {"addr:city": "Komiža", "addr:postcode": "21485", "amenity": "restaurant", "name": "Pizzeria Charly"}}, {"type": "node", "id": 1831519379, "lat": 43.0442051, "lon": 16.089228, "tags": {"addr:city": "Komiža", "addr:postcode": "21485", "amenity": "restaurant", "name": "Dal Mare"}}, {"type": "node", "id": 3023256821, "lat": 43.0446833, "lon": 16.0896973, "tags": {"addr:city": "Komiža", "addr:postcode": "21485", "amenity": "cafe", "name": "Riva"}}, {"type": "node", "id": 5033740669, "lat": 43.046673, "lon": 16.0908461, "tags": {"addr:city": "Komiža", "addr:postcode": "21485", "amenity": "pharmacy", "healthcare": "pharmacy", "name": "Ambulanta", "opening_hours": "Mo-Fr 09:00-16:00; Sa 08:00-13:00", "wheelchair": "no"}}, {"type": "node", "id": 5639356223, "lat": 43.0441858, "lon": 16.0895149, "tags": {"amenity": "atm", "cash_in": "no", "check_date": "2023-09-13", "operator": "Euronet"}}, {"type": "node", "id": 9025993160, "lat": 43.0456934, "lon": 16.093407, "tags": {"amenity": "parking"}}, {"type": "node", "id": 9027160442, "lat": 43.047151, "lon": 16.0899695, "tags": {"amenity": "parking", "description": "Free parking", "name": "Parking Rogači", "opening_hours": "24/7"}}, {"type": "node", "id": 11187987090, "lat": 43.0442444, "lon": 16.0895324, "tags": {"amenity": "bicycle_parking", "bicycle_parking": "wall_loops", "capacity": "5", "covered": "no"}}, {"type": "node", "id": 11188072179, "lat": 43.0441571, "lon": 16.0893567, "tags": {"addr:housenumber": "1", "addr:street": "Trg kralja Tomislava", "check_date": "2023-09-13", "name": "Pekara Kolgjeraj", "opening_hours": "Mo-Su 07:00-22:00", "payment:cards": "no", "payment:credit_cards": "no", "payment:debit_cards": "no", "shop": "bakery", "wheelchair": "no"}}, {"type": "node", "id": 11194310948, "lat": 43.0447272, "lon": 16.0913712, "tags": {"check_date": "2023-09-18", "name": "Pivac", "opening_hours": "Mo-Sa 07:00-21:00; Su 08:00-20:00", "shop": "convenience", "wheelchair": "no"}}, {"type": "node", "id": 11194310949, "lat": 43.0448368, "lon": 16.0912303, "tags": {"access": "yes", "addr:street": "Ulica hrvatskih mučenika", "amenity": "charging_station", "brand": "Elen", "capacity": "2", "covered": "no", "fee": "yes", "manufacturer": "ABB", "name": "Komiža", "opening_hours": "24/7", "operator": "ELEN", "operator:wikidata": "Q127433242", "socket:chademo": "1", "socket:chademo:output": "50 kW", "socket:type2": "1", "socket:type2:output": "22.1 kW", "socket:type2_combo": "1", "socket:type2_combo:output": "50 kW", "website": "https://elen.hep.hr/"}}, {"type": "node", "id": 11194311781, "lat": 43.0452726, "lon": 16.0896131, "tags": {"amenity": "atm", "cash_in": "no", "check_date": "2023-09-15", "operator": "Monestiq"}}, {"type": "node", "id": 11195887072, "lat": 43.0451605, "lon": 16.0896126, "tags": {"amenity": "bicycle_parking", "bicycle_parking": "wall_loops", "capacity": "10", "covered": "no"}}, {"type": "node", "id": 11200634581, "lat": 43.0445349, "lon": 16.0896575, "tags": {"amenity": "atm", "cash_in": "no", "check_date": "2023-09-18", "operator": "Euronet"}}, {"type": "node", "id": 11202480337, "lat": 43.0448945, "lon": 16.0896446, "tags": {"addr:city": "Komiža", "addr:housenumber": "Riva svetega Mikule", "addr:street": "31", "name": "Studenac", "opening_hours": "Mo-Sa 07:00-21:00; Su off; PH off", "shop": "convenience", "website": "https://www.studenac.hr/"}}, {"type": "node", "id": 11203155688, "lat": 43.0408541, "lon": 16.0920664, "tags": {"amenity": "parking", "parking": "surface"}}, {"type": "node", "id": 11203178118, "lat": 43.0461852, "lon": 16.0913191, "tags": {"board_type": "plants", "information": "board", "tourism": "information"}}, {"type": "node", "id": 11203193685, "lat": 43.0434434, "lon": 16.0922838, "tags": {"board_type": "history", "information": "board", "tourism": "information"}}, {"type": "node", "id": 11203195372, "lat": 43.0467604, "lon": 16.0906627, "tags": {"access": "customers", "amenity": "parking", "parking": "surface"}}, {"type": "node", "id": 11203196148, "lat": 43.0412829, "lon": 16.0949877, "tags": {"board_type": "history", "information": "board", "tourism": "information"}}, {"type": "node", "id": 11203199752, "lat": 43.0427573, "lon": 16.0944383, "tags": {"board_type": "geology", "information": "board", "tourism": "information"}}, {"type": "node", "id": 11203204647, "lat": 43.0449054, "lon": 16.0910472, "tags": {"amenity": "parking", "parking": "street_side"}}, {"type": "node", "id": 11209916037, "lat": 43.0453889, "lon": 16.0895208, "tags": {"board_type": "history", "information": "board", "tourism": "information"}}, {"type": "node", "id": 11335974590, "lat": 43.0460621, "lon": 16.0918231, "tags": {"addr:city": "Komiža", "addr:housenumber": "Put Batude", "addr:street": "1A", "name": "Studenac", "opening_hours": "Mo-Sa 07:00-22:00; Su off", "shop": "convenience", "website": "https://www.studenac.hr/"}}, {"type": "node", "id": 11793733769, "lat": 43.0450969, "lon": 16.0897296, "tags": {"addr:street": "Ulica hrvatskih mučenika", "amenity": "restaurant", "name": "Corto Maltese"}}, {"type": "node", "id": 1357469824, "lat": 43.0479701, "lon": 16.0858858, "tags": {"addr:city": "Komiža", "addr:postcode": "21485", "internet_access": "terminal", "name": "Biševo", "stars": "2", "tourism": "hotel", "website": "http://www.hotel-bisevo.com.hr/"}}, {"type": "node", "id": 1361196356, "lat": 43.0481678, "lon": 16.0866325, "tags": {"amenity": "parking", "name": "Hotel Bisevo Parking", "parking": "surface"}}, {"type": "node", "id": 6648376585, "lat": 43.0475152, "lon": 16.0868278, "tags": {"name:en": "Air B&B", "tourism": "hotel"}}, {"type": "node", "id": 11204663929, "lat": 43.0491507, "lon": 16.0886448, "tags": {"amenity": "parking"}}, {"type": "node", "id": 9025979001, "lat": 43.0473595, "lon": 16.0897109, "tags": {"amenity": "parking"}}, {"type": "node", "id": 9025979002, "lat": 43.0479299, "lon": 16.0891959, "tags": {"amenity": "parking"}}, {"type": "node", "id": 9025979240, "lat": 43.0169013, "lon": 16.0982376, "tags": {"amenity": "parking"}}, {"type": "node", "id": 11309112511, "lat": 43.0204206, "lon": 16.1007664, "tags": {"tourism": "viewpoint"}}, {"type": "node", "id": 5739488022, "lat": 43.0322761, "lon": 16.1161267, "tags": {"tourism": "viewpoint"}}, {"type": "node", "id": 11141819366, "lat": 43.0341078, "lon": 16.115523, "tags": {"amenity": "parking", "fee": "no"}}, {"type": "node", "id": 11407650703, "lat": 43.0233128, "lon": 16.1261118, "tags": {"information": "board", "tourism": "information"}}, {"type": "node", "id": 5796553112, "lat": 43.0232611, "lon": 16.1287274, "tags": {"name": "Country House Speedy", "source": "Bing", "tourism": "guest_house"}}, {"type": "node", "id": 11407650704, "lat": 43.0245344, "lon": 16.1314005, "tags": {"information": "board", "tourism": "information"}}, {"type": "node", "id": 1949265701, "lat": 43.0225961, "lon": 16.1472416, "tags": {"historic": "archaeological_site", "name": "Talez", "tourism": "guest_house"}}, {"type": "node", "id": 1363856883, "lat": 43.028421, "lon": 16.1412784, "tags": {"amenity": "parking", "parking": "surface"}}, {"type": "node", "id": 11407650705, "lat": 43.02876, "lon": 16.1376004, "tags": {"information": "board", "tourism": "information"}}, {"type": "node", "id": 11407650706, "lat": 43.0336067, "lon": 16.1373677, "tags": {"information": "board", "tourism": "information"}}, {"type": "node", "id": 1363856875, "lat": 43.0285204, "lon": 16.1416099, "tags": {"amenity": "restaurant", "cuisine": "regional", "name": "Konoba Kuca Keja", "operator": "Niko Zambarlin", "phone": "+385 (0)98 776553"}}, {"type": "node", "id": 5825282019, "lat": 43.0328294, "lon": 16.1424494, "tags": {"amenity": "restaurant", "cuisine": "mediterranean;fish;local", "delivery": "no", "name": "Maxo", "outdoor_seating": "yes", "takeaway": "no"}}, {"type": "node", "id": 12811752431, "lat": 43.0393784, "lon": 16.0957496, "tags": {"name": "Dragovoda", "natural": "spring"}}, {"type": "node", "id": 11203175878, "lat": 43.0410923, "lon": 16.095661, "tags": {"board_type": "history", "information": "board", "tourism": "information"}}, {"type": "node", "id": 11337916261, "lat": 43.0410848, "lon": 16.1031333, "tags": {"information": "guidepost", "tourism": "information"}}, {"type": "node", "id": 9025972215, "lat": 43.0348114, "lon": 16.1147627, "tags": {"tourism": "viewpoint"}}, {"type": "node", "id": 1360948970, "lat": 43.0356364, "lon": 16.1153183, "tags": {"tourism": "viewpoint"}}, {"type": "node", "id": 5739502321, "lat": 43.0479956, "lon": 16.1132139, "tags": {"tourism": "viewpoint"}}, {"type": "node", "id": 5007283322, "lat": 43.0346275, "lon": 16.138826, "tags": {"amenity": "restaurant", "name": "Konoba Pol Murvu", "name:hr": "Konoba Pol Murvu"}}, {"type": "node", "id": 5795001724, "lat": 43.0341453, "lon": 16.1526257, "tags": {"name": "Villa Dojmi", "source": "Bing", "tourism": "guest_house"}}, {"type": "node", "id": 5271938826, "lat": 43.0214672, "lon": 16.1715554, "tags": {"tourism": "viewpoint"}}, {"type": "node", "id": 7699636684, "lat": 43.0214763, "lon": 16.1713736, "tags": {"addr:city": "Vis", "addr:housenumber": "2", "addr:postcode": "21480", "addr:street": "Stiniva", "amenity": "restaurant", "bar": "yes", "cuisine": "seafood;regional;burger;pizza;sandwich", "description": "Tavern Peruka is settled down in the shades of the high cliffs at the Stiniva beach. It offers refreshment drinks and food menus from breakfast to dinner. The speciality of Tavern Peruka is a fresh grilled fish and meat - ideal lunch or early dinner.", "name": "Tavern Peruka", "opening_hours": "Mo-Su 09:00-23:00", "outdoor_seating": "yes", "phone": "+385 92 164 6622", "reservation": "yes", "website": "https://restaurantscroatia.com/tavern-peruka/"}}, {"type": "node", "id": 9025964631, "lat": 43.0236138, "lon": 16.1697426, "tags": {"tourism": "viewpoint"}}, {"type": "node", "id": 9025989481, "lat": 43.0224069, "lon": 16.1702898, "tags": {"tourism": "viewpoint"}}, {"type": "node", "id": 11204677353, "lat": 43.0241548, "lon": 16.1689087, "tags": {"board_type": "geography", "information": "board", "tourism": "information"}}, {"type": "node", "id": 11204677354, "lat": 43.0216091, "lon": 16.1714354, "tags": {"board_type": "geography", "information": "board", "tourism": "information"}}, {"type": "node", "id": 11204677355, "lat": 43.0241709, "lon": 16.1688931, "tags": {"board_type": "geography", "information": "board", "tourism": "information"}}, {"type": "node", "id": 5825187631, "lat": 43.0204307, "lon": 16.1795218, "tags": {"amenity": "restaurant", "cuisine": "regional;Fish", "delivery": "no", "name": "Konoba Senko Karuza", "outdoor_seating": "yes", "takeaway": "no"}}, {"type": "node", "id": 1910779886, "lat": 43.0266237, "lon": 16.1769015, "tags": {"name": "Lavanda i ruzmarin", "tourism": "guest_house"}}, {"type": "node", "id": 5788980896, "lat": 43.0332482, "lon": 16.1806271, "tags": {"information": "guidepost", "source": "Bing", "tourism": "information"}}, {"type": "node", "id": 5623495021, "lat": 43.0338462, "lon": 16.1834152, "tags": {"amenity": "restaurant", "name": "Roki's", "outdoor_seating": "yes", "takeaway": "no"}}, {"type": "node", "id": 7798509685, "lat": 43.0314775, "lon": 16.1809789, "tags": {"addr:housenumber": "2", "addr:postcode": "21480", "addr:street": "Belotovo", "amenity": "restaurant", "name": "Belotovo Agritourismo"}}, {"type": "node", "id": 6617281033, "lat": 43.0467502, "lon": 16.1579492, "tags": {"building": "bunker", "military": "bunker", "name": "bunker Vela Glava - kupola", "tourism": "attraction"}}, {"type": "node", "id": 6617281034, "lat": 43.0470305, "lon": 16.1580347, "tags": {"building": "bunker", "military": "bunker", "name": "bunker Vela Glava - ulaz na vrhu1", "tourism": "attraction"}}, {"type": "node", "id": 6617281035, "lat": 43.0469874, "lon": 16.1577557, "tags": {"building": "bunker", "military": "bunker", "name": "bunker Vela Glava - ulaz na vrhu2", "tourism": "attraction"}}, {"type": "node", "id": 6617281045, "lat": 43.0462564, "lon": 16.1556977, "tags": {"building": "bunker", "military": "bunker", "name": "bunker Vela Glava - glavni ulaz", "tourism": "attraction"}}, {"type": "node", "id": 6617281046, "lat": 43.0460583, "lon": 16.1560035, "tags": {"building": "bunker", "military": "bunker", "name": "bunker Vela Glava - stranki ulaz1", "tourism": "attraction"}}, {"type": "node", "id": 6617281047, "lat": 43.0465902, "lon": 16.1559927, "tags": {"building": "bunker", "military": "bunker", "name": "bunker Vela glava - stranski ulaz2", "tourism": "attraction"}}, {"type": "node", "id": 11198276137, "lat": 43.059501, "lon": 16.1561725, "tags": {"amenity": "restaurant", "name": "Konoba Dol"}}, {"type": "node", "id": 5787835471, "lat": 43.0432147, "lon": 16.1904358, "tags": {"name": "Apartment Podselje 2462a", "source": "Bing", "tourism": "guest_house"}}, {"type": "node", "id": 5787835472, "lat": 43.0438249, "lon": 16.1917559, "tags": {"amenity": "restaurant", "name": "Konoba Golub", "source": "Bing"}}, {"type": "node", "id": 5787797558, "lat": 43.0421042, "lon": 16.1985297, "tags": {"bicycle": "yes", "hiking": "yes", "information": "map", "mtb": "yes", "tourism": "information"}}, {"type": "node", "id": 5787797562, "lat": 43.0422122, "lon": 16.1982805, "tags": {"information": "guidepost", "source": "Bing", "tourism": "information"}}, {"type": "node", "id": 5787797582, "lat": 43.0454132, "lon": 16.1952722, "tags": {"historic": "memorial", "source": "Bing"}}, {"type": "node", "id": 12909481101, "lat": 43.0593922, "lon": 16.1799531, "tags": {"amenity": "parking"}}, {"type": "node", "id": 1805171490, "lat": 43.0590132, "lon": 16.1869004, "tags": {"amenity": "restaurant", "name": "Dionis Pizzeria"}}, {"type": "node", "id": 1805171492, "lat": 43.0590785, "lon": 16.1868954, "tags": {"name": "Dionis ", "tourism": "guest_house"}}, {"type": "node", "id": 1805171498, "lat": 43.0600093, "lon": 16.1830341, "tags": {"amenity": "pharmacy", "healthcare": "pharmacy"}}, {"type": "node", "id": 1805171523, "lat": 43.060028, "lon": 16.1852163, "tags": {"addr:housenumber": "8", "addr:postcode": "21480", "addr:street": "Obala sv. Jurja", "brand": "Studenac", "brand:wikidata": "Q65156084", "name": "Studenac", "opening_hours": "Mo-Sa 07:00-22:00; Su 07:00-21:00", "phone": "+385 21 775 355", "shop": "convenience"}}, {"type": "node", "id": 1805171527, "lat": 43.0594432, "lon": 16.1866164, "tags": {"amenity": "atm", "check_date": "2025-06-18", "operator": "Euronet Worldwide"}}, {"type": "node", "id": 1805447779, "lat": 43.0603984, "lon": 16.1847012, "tags": {"addr:street": "Obala sv. Jurja", "amenity": "restaurant", "cuisine": "croatian;fish;local;regional;seafood", "name": "Konoba Gostiona Vis", "opening_hours": "Mo-Su 18:00-23:00"}}, {"type": "node", "id": 2137932425, "lat": 43.0599207, "lon": 16.1850071, "tags": {"amenity": "cafe", "name": "Mileva"}}, {"type": "node", "id": 2137932442, "lat": 43.0597902, "lon": 16.1851522, "tags": {"shop": "bakery"}}, {"type": "node", "id": 2137934647, "lat": 43.0594347, "lon": 16.1867023, "tags": {"amenity": "cafe", "name": "Riva", "opening_hours": "07:00-01:00"}}, {"type": "node", "id": 2137934671, "lat": 43.0599834, "lon": 16.1853933, "tags": {"name": "Tamaris", "tourism": "hotel"}}, {"type": "node", "id": 2137976117, "lat": 43.0593406, "lon": 16.1867452, "tags": {"name": "Lito Market", "opening_hours": "Mo-Su 07:00-22:00", "shop": "convenience"}}, {"type": "node", "id": 2137976709, "lat": 43.0600953, "lon": 16.18517, "tags": {"amenity": "atm", "brand": "PBZ", "brand:wikidata": "Q7246343", "name": "PBZ", "operator": "PBZ", "operator:wikidata": "Q7246343"}}, {"type": "node", "id": 5827008276, "lat": 43.0603701, "lon": 16.1823866, "tags": {"addr:housenumber": "3", "addr:street": "Vukovarska", "amenity": "restaurant", "cuisine": "regional;pizza", "name": "Dudo", "outdoor_seating": "yes"}}, {"type": "node", "id": 10092669908, "lat": 43.0599699, "lon": 16.18504, "tags": {"amenity": "restaurant", "name": "Pizzeria Charlie"}}, {"type": "node", "id": 11042016494, "lat": 43.0600738, "lon": 16.1846171, "tags": {"addr:city": "Vis", "addr:housenumber": "4", "addr:postcode": "21480", "addr:street": "Trg Patija", "air_conditioning": "yes", "email": "info@pomaloinn.com", "internet_access": "wlan", "internet_access:fee": "customers", "name": "Pomâlo Inn", "phone": "+385993937260", "rooms": "10", "tourism": "hotel", "website": "https://www.pomaloinn.com"}}, {"type": "node", "id": 11042026123, "lat": 43.060054, "lon": 16.1845129, "tags": {"addr:city": "Vis", "addr:housenumber": "4.5", "addr:postcode": "21480", "addr:street": "Trg Patija", "amenity": "cafe", "cuisine": "coffee_shop;croissants_and_cookies;cocktails_and_wine", "internet_access": "yes", "internet_access:fee": "customers", "name": "Kava4", "opening_hours": "Mo-Su 8:00-13:00, 17:00-22:00", "outdoor_seating": "yes"}}, {"type": "node", "id": 12097804902, "lat": 43.0603206, "lon": 16.1846338, "tags": {"amenity": "atm", "operator": "Euronet"}}, {"type": "node", "id": 12097811401, "lat": 43.0597539, "lon": 16.1856863, "tags": {"amenity": "atm", "operator": "HPB"}}, {"type": "node", "id": 12453521701, "lat": 43.0602354, "lon": 16.1843323, "tags": {"addr:postcode": "21480", "amenity": "restaurant", "cuisine": "croatian;local;pasta", "name": "Kula bistro"}}, {"type": "node", "id": 12923242819, "lat": 43.060165, "lon": 16.1850779, "tags": {"amenity": "atm", "cash_in": "yes", "operator": "HPB"}}, {"type": "node", "id": 12923271340, "lat": 43.0602036, "lon": 16.1850387, "tags": {"amenity": "atm", "operator": "Zagrebačka banka"}}, {"type": "node", "id": 1805447783, "lat": 43.0590355, "lon": 16.1880326, "tags": {"amenity": "restaurant", "name": "Konoba Kantun", "opening_hours": "Mo-Su 17:00-24:00"}}, {"type": "node", "id": 5830121098, "lat": 43.0587282, "lon": 16.1900828, "tags": {"addr:city": "Vis", "addr:housenumber": "42", "addr:postcode": "21480", "addr:street": "Ulica Ivana Farolfija", "amenity": "restaurant", "cuisine": "regional", "name": "Kod Paveta", "opening_hours": "Mo-Su 17:00-23:00", "outdoor_seating": "yes"}}, {"type": "node", "id": 8852534318, "lat": 43.0586763, "lon": 16.1896404, "tags": {"addr:housenumber": "2", "addr:postcode": "21480", "addr:street": "Viškog skupa", "amenity": "restaurant", "cuisine": "burger;coffee_shop;fish_and_chips;friture", "internet_access": "wlan", "name": "AnDe bistro & bar", "opening_hours": "Mo-Su 10:00-23:00"}}, {"type": "node", "id": 12097770401, "lat": 43.0590194, "lon": 16.1877706, "tags": {"amenity": "atm"}}, {"type": "node", "id": 12097770702, "lat": 43.0589275, "lon": 16.187849, "tags": {"amenity": "cafe", "name": "L'amoure per il gelato"}}, {"type": "node", "id": 12097802303, "lat": 43.0587077, "lon": 16.1894199, "tags": {"amenity": "atm", "cash_in": "no", "operator": "Euronet"}}, {"type": "node", "id": 12239000103, "lat": 43.0591376, "lon": 16.1874073, "tags": {"addr:city": "Vis", "addr:housenumber": "7", "addr:postcode": "21480", "addr:street": "Obala sv. Jurja", "amenity": "restaurant", "name": "Peskarija 1911", "opening_hours": "Mo-Tu 17:00-01:00; We off; Th-Su 17:00-01:00", "phone": "+385912718746"}}, {"type": "node", "id": 12453521901, "lat": 43.0586702, "lon": 16.1899201, "tags": {"addr:housenumber": "26", "addr:postcode": "21480", "addr:street": "Ulica Ivana Farolfija", "name": "Bavul Art", "opening_hours": "Su-Fr 09:00-12:00,17:00-22:00; Sa off", "tourism": "gallery"}}, {"type": "node", "id": 12453542301, "lat": 43.0581334, "lon": 16.1916198, "tags": {"addr:postcode": "21480", "addr:street": "Ulica Ivana Farolfija", "amenity": "restaurant", "cuisine": "pizza", "name": "Pizzeria Karijola", "opening_hours": "17:00-23:00"}}, {"type": "node", "id": 12453542701, "lat": 43.0576137, "lon": 16.193908, "tags": {"tourism": "gallery"}}, {"type": "node", "id": 12453543001, "lat": 43.0588071, "lon": 16.1891408, "tags": {"addr:housenumber": "7", "addr:postcode": "21480", "addr:street": "Ulica Ivana Farolfija", "amenity": "restaurant", "cuisine": "breakfast;coffee_shop;croatian;local;mediterranean", "name": "Marshal"}}, {"type": "node", "id": 12680751109, "lat": 43.057183, "lon": 16.1931351, "tags": {"addr:city": "Vis", "addr:country": "HR", "addr:housenumber": "12", "addr:postcode": "21480", "addr:street": "Šetalište Viškog boja", "museum": "archaeological", "name": "Priručna zbirka i lokalitet Issa", "operator": "Arheološki muzej u Splitu", "operator:type": "public", "tourism": "museum", "website": "https://www.armus.hr/muzej/povijest-muzeja/prirucna-zbirka-i-lokalitet-issa"}}, {"type": "node", "id": 12923649608, "lat": 43.0586724, "lon": 16.1908514, "tags": {"board_type": "history", "information": "board", "name": "Crkva Gospe od Spilica", "tourism": "information"}}, {"type": "node", "id": 1805447808, "lat": 43.0579537, "lon": 16.1984235, "tags": {"addr:housenumber": "8", "addr:street": "Marasovića don Cvjetka", "brand": "Studenac", "brand:wikidata": "Q65156084", "name": "Studenac", "opening_hours": "Mo-Su 07:00-21:00", "shop": "convenience", "wheelchair": "limited"}}, {"type": "node", "id": 1805447829, "lat": 43.0582309, "lon": 16.1985523, "tags": {"addr:city": "Vis", "addr:housenumber": "1", "addr:postcode": "21480", "addr:street": "Marasovića don Cvjetka", "amenity": "restaurant", "cuisine": "croatian;mediterranean;seafood", "name": "Restaurant Val", "opening_hours": "Mo-Su 12:00-01:00", "phone": "+385 21 711 763", "phone_1": "+385 91 508 20155"}}, {"type": "node", "id": 2137933564, "lat": 43.0589252, "lon": 16.1991692, "tags": {"amenity": "restaurant", "cuisine": "regional", "name": "Konoba Tavern Vatricai", "outdoor_seating": "terrace", "start_date": "1979"}}, {"type": "node", "id": 2137976614, "lat": 43.0577885, "lon": 16.1982036, "tags": {"name": "Permo", "opening_hours": "Mo-Fr 06:30-12:30; Sa, Su 06:30-12:00", "shop": "bakery"}}, {"type": "node", "id": 6652144185, "lat": 43.0582865, "lon": 16.1982212, "tags": {"amenity": "restaurant", "name:en": "Konoba"}}, {"type": "node", "id": 9108054295, "lat": 43.0595217, "lon": 16.1991212, "tags": {"amenity": "restaurant", "name": "Konoba Tezok", "outdoor_seating": "terrace"}}, {"type": "node", "id": 9108093008, "lat": 43.0585026, "lon": 16.1986168, "tags": {"addr:housenumber": "1", "addr:street": "Obala kralja Krešimira IV", "amenity": "cafe", "name": "Cafe Bar Josip"}}, {"type": "node", "id": 9108122212, "lat": 43.0581434, "lon": 16.1987201, "tags": {"addr:housenumber": "10", "addr:postcode": "21480", "addr:street": "Trg Eugena Kvaternika", "name": "Pekara Kolđeraj", "shop": "bakery"}}, {"type": "node", "id": 9109010875, "lat": 43.0586137, "lon": 16.1988927, "tags": {"amenity": "cafe", "name": "bokum"}}, {"type": "node", "id": 9109075286, "lat": 43.058302, "lon": 16.1980002, "tags": {"addr:postcode": "21480", "amenity": "restaurant", "cuisine": "pizza", "name": "Pizzeria Kut"}}, {"type": "node", "id": 9110096667, "lat": 43.0589681, "lon": 16.1991322, "tags": {"amenity": "atm"}}, {"type": "node", "id": 12453522303, "lat": 43.0583082, "lon": 16.198673, "tags": {"addr:housenumber": "7", "addr:street": "Trg Eugena Kvaternika", "name": "Market Host", "shop": "convenience"}}, {"type": "node", "id": 12453542201, "lat": 43.0584999, "lon": 16.1987059, "tags": {"addr:housenumber": "1", "addr:street": "Obala kralja Krešimira IV", "tourism": "gallery"}}, {"type": "node", "id": 12453542202, "lat": 43.0577215, "lon": 16.1973938, "tags": {"addr:street": "Ulica Vladimira Nazora", "amenity": "restaurant", "cuisine": "croatian", "name": "Mote i grgo"}}, {"type": "node", "id": 12453542901, "lat": 43.0574249, "lon": 16.1945738, "tags": {"name": "Natalia Borcic", "tourism": "gallery"}}, {"type": "node", "id": 12453543002, "lat": 43.0570447, "lon": 16.196088, "tags": {"addr:postcode": "21480", "addr:street": "Ulica Vladimira Nazora", "amenity": "restaurant", "cuisine": "croatian", "name": "Villa Kaliopa"}}, {"type": "node", "id": 5646487323, "lat": 43.0178152, "lon": 16.214889, "tags": {"ele": "24", "natural": "peak", "tourism": "viewpoint"}}, {"type": "node", "id": 4938355323, "lat": 43.0155144, "lon": 16.2242268, "tags": {"fee": "12€/person", "name": "Zelena špilja", "name:en": "Green Cave", "name:fr": "Grotte verte", "natural": "cave_entrance", "tourism": "attraction"}}, {"type": "node", "id": 1362444487, "lat": 43.0221135, "lon": 16.2129793, "tags": {"amenity": "restaurant", "cuisine": "regional", "name": "Konoba Dalmatino", "opening_hours": "Mo-Su,PH 12:00-23:00"}}, {"type": "node", "id": 1362444488, "lat": 43.0219112, "lon": 16.2113814, "tags": {"amenity": "restaurant", "cuisine": "regional", "name": "Konoba Le Terrazze"}}, {"type": "node", "id": 1361203227, "lat": 43.0308256, "lon": 16.212959, "tags": {"amenity": "restaurant", "cuisine": "regional", "name": "Konoba Ferol"}}, {"type": "node", "id": 5078878800, "lat": 43.0309584, "lon": 16.2132945, "tags": {"name": "Studenac", "shop": "supermarket"}}, {"type": "node", "id": 1361203228, "lat": 43.0309733, "lon": 16.2138121, "tags": {"amenity": "parking", "capacity": "4", "name": "Konoba Ferol Parking", "parking": "surface"}}, {"type": "node", "id": 2960789332, "lat": 43.0478639, "lon": 16.2025803, "tags": {"tourism": "viewpoint"}}, {"type": "node", "id": 2960793533, "lat": 43.0480016, "lon": 16.2024938, "tags": {"historic": "memorial", "inscription": "In proud momory of the men of the Royal Air Force who lost their lives whilst operationg over Croatia", "material": "stone", "memorial": "war_memorial", "name": "War Memorial of the men of the Royal Air Force", "source": "Bing"}}, {"type": "node", "id": 5787797589, "lat": 43.047771, "lon": 16.2020889, "tags": {"information": "guidepost", "source": "Bing", "tourism": "information"}}, {"type": "node", "id": 5787797590, "lat": 43.047802, "lon": 16.2020157, "tags": {"bicycle": "yes", "hiking": "yes", "information": "map", "mtb": "yes", "source": "Bing", "tourism": "information"}}, {"type": "node", "id": 11337899362, "lat": 43.0577126, "lon": 16.2061233, "tags": {"tourism": "viewpoint"}}, {"type": "node", "id": 5825280584, "lat": 43.0534252, "lon": 16.2338821, "tags": {"amenity": "restaurant", "cuisine": "mediterranean;fish", "delivery": "no", "name": "Konoba Magić", "phone": "+385918984859", "takeaway": "no"}}, {"type": "node", "id": 9025996221, "lat": 43.0636931, "lon": 16.1541724, "tags": {"name": "Stone Garden", "tourism": "attraction"}}, {"type": "node", "id": 12852944107, "lat": 43.0618075, "lon": 16.1727949, "tags": {"amenity": "charging_station", "capacity": "2", "operator": "ELEN", "operator:wikidata": "Q127433242"}}, {"type": "node", "id": 1805171497, "lat": 43.0604547, "lon": 16.1840254, "tags": {"addr:postcode": "21480", "name": "Kolđeraj", "opening_hours": "06:00-22:00", "shop": "bakery"}}, {"type": "node", "id": 1805171505, "lat": 43.0620453, "lon": 16.1836834, "tags": {"information": "board", "tourism": "information"}}, {"type": "node", "id": 1918722975, "lat": 43.0624466, "lon": 16.1838552, "tags": {"addr:city": "Vis", "addr:housenumber": "10", "addr:postcode": "21480", "addr:street": "Šetalište Stara Issa", "information": "office", "name": "Paiz Travel", "tourism": "information"}}, {"type": "node", "id": 2137932211, "lat": 43.0618388, "lon": 16.1836204, "tags": {"addr:postcode": "21480", "name": "Studenac Market", "opening_hours": "07:00-22:00", "shop": "supermarket"}}, {"type": "node", "id": 9898070801, "lat": 43.0611921, "lon": 16.1837047, "tags": {"board_type": "welcome_sign", "information": "board", "tourism": "information"}}, {"type": "node", "id": 11209957566, "lat": 43.0634855, "lon": 16.1856167, "tags": {"board_type": "history", "information": "board", "name": "Antička Issa", "tourism": "information"}}, {"type": "node", "id": 12087784977, "lat": 43.0610382, "lon": 16.1831257, "tags": {"brand": "Konzum", "brand:wikidata": "Q518563", "name": "Konzum", "opening_hours": "Mo-Sa 07:00-22:00", "ref": "759", "shop": "supermarket"}}, {"type": "node", "id": 12923197740, "lat": 43.0619764, "lon": 16.1836919, "tags": {"amenity": "atm", "operator": "Erste Bank"}}, {"type": "node", "id": 12923279802, "lat": 43.061562, "lon": 16.1835141, "tags": {"amenity": "atm", "operator": "MoneyGet"}}, {"type": "node", "id": 1363856903, "lat": 43.0781808, "lon": 16.182074, "tags": {"amenity": "parking"}}, {"type": "node", "id": 9898182604, "lat": 43.0745155, "lon": 16.1971796, "tags": {"tourism": "viewpoint"}}, {"type": "node", "id": 9910449617, "lat": 43.0735986, "lon": 16.1964435, "tags": {"addr:postcode": "21480", "addr:street": "Utvrda Sv. Juraj", "amenity": "restaurant", "cuisine": "croatian;mediterranean;seafood;steak_house", "email": "info@fortgeorgecroatia.com", "name": "Fort George", "opening_hours": "Mo-Su 11:00-23:00", "phone": "+385 91 265 6041", "website": "https://www.fortgeorgecroatia.com/"}}, {"type": "node", "id": 1373567083, "lat": 43.0612618, "lon": 16.240623, "tags": {"amenity": "parking"}}, {"type": "node", "id": 5521655821, "lat": 43.0646411, "lon": 16.2413565, "tags": {"amenity": "restaurant", "name": "Stončica", "name:en": "Stoncica", "phone": "+385912512262"}}, {"type": "node", "id": 6539149578, "lat": 43.1656315, "lon": 16.3340778, "tags": {"tourism": "viewpoint"}}, {"type": "node", "id": 6539118036, "lat": 43.1625901, "lon": 16.3641274, "tags": {"historic": "archaeological_site"}}, {"type": "node", "id": 492450160, "lat": 43.1642576, "lon": 16.3661795, "tags": {"amenity": "restaurant", "name:en": "The Fisherman’s House"}}, {"type": "node", "id": 900949834, "lat": 43.162907, "lon": 16.368409, "tags": {"amenity": "restaurant", "description": "Vineyard and restaurant", "name": "Konoba Dionis"}}, {"type": "node", "id": 6539118037, "lat": 43.1627985, "lon": 16.3643449, "tags": {"historic": "archaeological_site"}}, {"type": "node", "id": 6539149567, "lat": 43.1621624, "lon": 16.382785, "tags": {"historic": "archaeological_site"}}, {"type": "node", "id": 6539118045, "lat": 43.1576088, "lon": 16.391758, "tags": {"amenity": "restaurant"}}, {"type": "node", "id": 6539118046, "lat": 43.1574007, "lon": 16.3935587, "tags": {"tourism": "viewpoint"}}, {"type": "node", "id": 3724670550, "lat": 43.1602711, "lon": 16.3886184, "tags": {"man_made": "water_well"}}, {"type": "node", "id": 495564399, "lat": 43.1588839, "lon": 16.3914019, "tags": {"amenity": "restaurant", "name": "Toto's"}}, {"type": "node", "id": 5048543822, "lat": 43.1588057, "lon": 16.3914607, "tags": {"name:en": "route-beach", "tourism": "attraction"}}, {"type": "node", "id": 6539118044, "lat": 43.1590516, "lon": 16.3909003, "tags": {"amenity": "restaurant", "contact:phone": "+385913222227", "name": "Zori", "website": "https://zori.hr/"}}, {"type": "node", "id": 6539149564, "lat": 43.1626916, "lon": 16.3922331, "tags": {"amenity": "atm"}}, {"type": "node", "id": 6612558486, "lat": 43.1557925, "lon": 16.412991, "tags": {"amenity": "drinking_water", "name:en": "Mlini Beach"}}, {"type": "node", "id": 11225605256, "lat": 43.1571644, "lon": 16.4159725, "tags": {"information": "guidepost", "tourism": "information"}}, {"type": "node", "id": 11440212718, "lat": 43.1558361, "lon": 16.4134561, "tags": {"board_type": "welcome_sign", "information": "board", "tourism": "information"}}, {"type": "node", "id": 4406031391, "lat": 43.1571738, "lon": 16.4169657, "tags": {"amenity": "restaurant", "name": "Mamato bar", "name:es": "Mamato bar", "name:hr": "Mamato bar"}}, {"type": "node", "id": 13666146501, "lat": 43.161206, "lon": 16.4155154, "tags": {"name": "Pakleni-islands", "tourism": "attraction"}}, {"type": "node", "id": 2323015771, "lat": 43.1589409, "lon": 16.41862, "tags": {"addr:housenumber": "1", "addr:street": "Uvala Ždrilica", "amenity": "restaurant", "check_date": "2025-03-28", "name": "Patak", "payment:cash": "yes", "payment:credit_cards": "yes", "payment:debit_cards": "yes", "phone": "+385 95 864 9544"}}, {"type": "node", "id": 1748424148, "lat": 43.1636722, "lon": 16.4492449, "tags": {"height": "72", "name": "Opuzena glava", "tourism": "viewpoint"}}, {"type": "node", "id": 13428151426, "lat": 43.1638273, "lon": 16.4477621, "tags": {"check_date": "2018-09-23", "name": "PineTree", "tourism": "guest_house"}}, {"type": "node", "id": 6564412485, "lat": 43.1639148, "lon": 16.4552119, "tags": {"amenity": "restaurant", "name": "Pokonji dol"}}, {"type": "node", "id": 1427692586, "lat": 43.1843804, "lon": 16.4050941, "tags": {"amenity": "restaurant", "cuisine": "regional", "name": "konoba Mareta"}}, {"type": "node", "id": 1426225584, "lat": 43.1767657, "lon": 16.4215516, "tags": {"tourism": "viewpoint"}}, {"type": "node", "id": 4212465611, "lat": 43.1768202, "lon": 16.4223175, "tags": {"name": "Rt Postina", "name:en": "Podstina Cape", "tourism": "viewpoint"}}, {"type": "node", "id": 6715894290, "lat": 43.1714705, "lon": 16.4348887, "tags": {"addr:housenumber": "10", "addr:postcode": "21450", "addr:street": "Dinka Kovačevića", "amenity": "restaurant", "name": "Bonj 'les bains' beach club", "phone": "0914741555", "website": "https://www.bonjbeachhvar.com/"}}, {"type": "node", "id": 9961730379, "lat": 43.1714874, "lon": 16.4314261, "tags": {"amenity": "atm", "operator": "HPB"}}, {"type": "node", "id": 9961731527, "lat": 43.1716919, "lon": 16.4349442, "tags": {"amenity": "atm"}}, {"type": "node", "id": 9961748543, "lat": 43.1710817, "lon": 16.4316654, "tags": {"amenity": "atm", "operator": "HPB"}}, {"type": "node", "id": 1793514189, "lat": 43.1730992, "lon": 16.4267063, "tags": {"name": "Great sunset view", "tourism": "viewpoint"}}, {"type": "node", "id": 4184972072, "lat": 43.1750027, "lon": 16.4285454, "tags": {"addr:city": "Hvar", "addr:housenumber": "30", "addr:postcode": "21450", "addr:street": "Ivana Božitkovića", "name": "Villa Rosmarinus", "phone": "+385 99 736 33 33", "tourism": "guest_house", "website": "http://villa-rosmarinus.com/"}}, {"type": "node", "id": 4877380223, "lat": 43.1744396, "lon": 16.4294351, "tags": {"addr:housenumber": "16", "addr:street": "Ivana Božitkovića", "tourism": "hostel"}}, {"type": "node", "id": 5655544238, "lat": 43.1744349, "lon": 16.4291816, "tags": {"addr:housenumber": "17", "addr:postcode": "21450", "addr:street": "Ivana Božitkovića", "amenity": "restaurant", "name": "Agava", "name:en": "Agava restaurant", "name:fr": "Restaurant Agava", "opening_hours": "Mo-Su 18:30-23:00", "phone": "+385 91 622 7788", "website": "https://agava-hvar.com/"}}, {"type": "node", "id": 1768612864, "lat": 43.1744369, "lon": 16.4318516, "tags": {"brand": "Studenac", "brand:wikidata": "Q65156084", "name": "Studenac", "shop": "convenience"}}, {"type": "node", "id": 9110815449, "lat": 43.1726403, "lon": 16.4346426, "tags": {"amenity": "restaurant", "name": "Villa Dinka"}}, {"type": "node", "id": 9111577960, "lat": 43.1744767, "lon": 16.4318311, "tags": {"amenity": "restaurant", "cuisine": "italian", "name": "Primi Piatti", "opening_hours": "Mo-Su 16:00-23:00"}}, {"type": "node", "id": 3012276858, "lat": 43.191164, "lon": 16.4343074, "tags": {"amenity": "restaurant", "contact:facebook": "https://m.facebook.com/profile.php?id=408093765963947", "contact:phone": "+385 91 510 3686", "cuisine": "fish;regional;seafood", "name": "Konoba Ringo", "outdoor_seating": "yes", "smoking": "outside"}}, {"type": "node", "id": 4169923089, "lat": 43.1911434, "lon": 16.4344455, "tags": {"addr:housenumber": "2", "addr:street": "Ulica Uvala Pribinja ", "amenity": "restaurant", "contact:facebook": "https://m.facebook.com/konoba.arsenol/", "contact:mobile": "+385 91 524 2777", "cuisine": "fish;seafood;mediterranean", "email": "matko.domancic@hotmail.com", "fix_me": "check website", "internet_access": "wlan", "name": "Arsenol - Konoba - Caffe Bar", "opening_hours": "PH,Sa-Th 09:00-23:00", "outdoor_seating": "terrace", "phone": "+385915183608", "website": "http://www.konoba-arsenol.com"}}, {"type": "node", "id": 2846823301, "lat": 43.1717473, "lon": 16.4415744, "tags": {"addr:city": "Hvar", "addr:housenumber": "4", "addr:postcode": "21450", "addr:street": "Puckog ustanka", "amenity": "restaurant", "cuisine": "seafood", "name": "Junior", "outdoor_seating": "yes"}}, {"type": "node", "id": 3021131879, "lat": 43.1716882, "lon": 16.4389539, "tags": {"amenity": "restaurant", "name": "DVA Ribara"}}, {"type": "node", "id": 3021131880, "lat": 43.1717747, "lon": 16.4390237, "tags": {"amenity": "restaurant", "name": "Kod Kapetana"}}, {"type": "node", "id": 3023218288, "lat": 43.1662554, "lon": 16.4385256, "tags": {"amenity": "restaurant"}}, {"type": "node", "id": 3023977968, "lat": 43.1704011, "lon": 16.4416121, "tags": {"amenity": "restaurant", "name": "Bonaca"}}, {"type": "node", "id": 3830881156, "lat": 43.1708679, "lon": 16.4417406, "tags": {"addr:city": "Hvar", "addr:housenumber": "23", "addr:postcode": "21450", "addr:street": "Kroz Burak", "name": "Hvar Out Hostel", "tourism": "hostel"}}, {"type": "node", "id": 4278117689, "lat": 43.1712447, "lon": 16.4416713, "tags": {"addr:housenumber": "14", "addr:postcode": "21450", "addr:street": "Braće Bibić", "amenity": "restaurant", "name": "Mediterraneo restaurant", "opening_hours": "Mo-Su 12:00-22:00"}}, {"type": "node", "id": 4355207791, "lat": 43.1716906, "lon": 16.4413777, "tags": {"addr:housenumber": "9", "addr:postcode": "21450", "addr:street": "Riva", "amenity": "restaurant", "email": "4palme.hvar@gmail.com", "internet_access": "wlan", "name": "4 palme", "opening_hours": "Mo-Su 10:00-01:00", "phone": "00 385 21 743081", "website": "http://4palme.hr"}}, {"type": "node", "id": 4398606262, "lat": 43.1717398, "lon": 16.4412898, "tags": {"amenity": "fast_food", "name": "Drink's & Pizza Place"}}, {"type": "node", "id": 4893579726, "lat": 43.1700663, "lon": 16.4413565, "tags": {"amenity": "restaurant", "name": "Gariful"}}, {"type": "node", "id": 5169839722, "lat": 43.171248, "lon": 16.4416802, "tags": {"addr:housenumber": "15", "addr:postcode": "21450", "addr:street": "Braće Bibić", "amenity": "restaurant", "cuisine": "mediterranean", "email": "mediterraneo.hvar@gmail.com", "name": "Dine and Wine Mediterraneo", "opening_hours": "Mo-Su 09:00-00:00", "operator": "Ivo Ćurin", "phone": "00385919238110", "website": "http://www.mediterraneohvar.com"}}, {"type": "node", "id": 6566984387, "lat": 43.1704059, "lon": 16.4416199, "tags": {"addr:housenumber": "28", "addr:postcode": "21450", "addr:street": "Riva", "amenity": "restaurant", "name": "BONACA", "phone": "00385996873258", "website": "http://www.restoran-bonaca-hvar.hr"}}, {"type": "node", "id": 6855640085, "lat": 43.1714434, "lon": 16.4414511, "tags": {"amenity": "restaurant", "name": "Fameja"}}, {"type": "node", "id": 7886543286, "lat": 43.1710455, "lon": 16.4418868, "tags": {"addr:housenumber": "37", "addr:street": "Kroz Burak", "amenity": "cafe", "cuisine": "coffee_shop", "name": "kava37", "name:en": "kava37 specialty coffee shop"}}, {"type": "node", "id": 9034366417, "lat": 43.1715522, "lon": 16.4415043, "tags": {"amenity": "cafe", "name": "Anna"}}, {"type": "node", "id": 11247610437, "lat": 43.1711811, "lon": 16.441477, "tags": {"amenity": "restaurant", "name:en": "FORR"}}, {"type": "node", "id": 12866291930, "lat": 43.169626, "lon": 16.4415027, "tags": {"alt_name": "Skulptura \"Ribiča\"", "artist_name": "Dino Bičanić", "artwork_type": "statue", "material": "bronze", "name": "Ribič", "name:en": "Fisherman", "tourism": "artwork"}}, {"type": "node", "id": 1768613739, "lat": 43.1669325, "lon": 16.449046, "tags": {"name": "Studenak Market", "opening_hours": "Mo-Sa 07:00-22:00; Su 07:00-21:00", "operator": "Studenac", "payment:coins": "yes", "payment:mastercard": "yes", "payment:notes": "yes", "payment:visa_debit": "yes", "shop": "convenience", "source": "user"}}, {"type": "node", "id": 1793267228, "lat": 43.1699771, "lon": 16.4460021, "tags": {"addr:city": "Hvar", "addr:housenumber": "75", "addr:postcode": "21450", "addr:street": "Šime Buzolića Tome", "check_date": "2025-09-17", "name": "Luka's Lodge", "tourism": "hostel"}}, {"type": "node", "id": 3012817869, "lat": 43.1655987, "lon": 16.4474251, "tags": {"addr:city": "Hvar", "addr:country": "HR", "addr:housenumber": "7", "addr:street": "Martina Vučetića", "name": "Sunny Elza", "tourism": "guest_house"}}, {"type": "node", "id": 3600775395, "lat": 43.1668729, "lon": 16.4463954, "tags": {"name": "Studenac", "opening_hours": "Mo-Sa 06:30-20:00; Su 07:00-19:00", "shop": "supermarket"}}, {"type": "node", "id": 3830838258, "lat": 43.1691318, "lon": 16.4462883, "tags": {"addr:city": "Hvar", "addr:housenumber": "13", "addr:postcode": "21450", "addr:street": "Domovinskog rata", "name": "Green Lizard", "tourism": "hostel"}}, {"type": "node", "id": 3830838259, "lat": 43.1679248, "lon": 16.4460013, "tags": {"addr:city": "Hvar", "addr:housenumber": "18", "addr:postcode": "21450", "addr:street": "Domovinskog rata", "check_date": "2024-10-18", "name": "Villa Skansi", "tourism": "hostel", "wikidata": "Q111116018"}}, {"type": "node", "id": 3830838260, "lat": 43.1678896, "lon": 16.4461596, "tags": {"addr:city": "Hvar", "addr:housenumber": "20", "addr:postcode": "21450", "addr:street": "Domovinskog rata", "check_date": "2024-10-18", "name": "Hostel Villa Zorana", "tourism": "hostel", "wikidata": "Q111127612"}}, {"type": "node", "id": 3830838261, "lat": 43.1674925, "lon": 16.448297, "tags": {"addr:city": "Hvar", "addr:housenumber": "5", "addr:postcode": "21450", "addr:street": "Ive Roića", "check_date": "2024-10-18", "name": "Dink's Place Hostel", "tourism": "hostel", "wikidata": "Q111116010"}}, {"type": "node", "id": 4169788995, "lat": 43.1670631, "lon": 16.4451382, "tags": {"addr:housenumber": "17", "addr:street": "Šetalište put Križa", "amenity": "restaurant", "cuisine": "croatian", "email": "ilportohvar@gmail.com", "internet_access": "wlan", "name": "Il Porto ", "opening_hours": "Mo-Su 07:00-00:00", "phone": "0038598661982"}}, {"type": "node", "id": 4198789560, "lat": 43.1694398, "lon": 16.4460113, "tags": {"addr:city": "Hvar", "addr:housenumber": "16", "addr:postcode": "21450", "addr:street": "Vanđele Božitković", "contact:email": "ivehure@yahoo.com", "contact:phone": "+385 91 515 7330", "description": "We have air-conditioned, clean and comfortable rooms only 5 minutes walk from the city centre and 2-3 minutes from the nearest beach. ", "name": "ORANGE", "source": "Geosplet", "tourism": "hostel", "tourism_1": "apartment", "wikidata": "Q111116019"}}, {"type": "node", "id": 4382995000, "lat": 43.1669792, "lon": 16.4490719, "tags": {"internet_access": "yes", "internet_access:fee": "no", "name": "Villa Mili", "smoking": "yes", "tourism": "hotel"}}, {"type": "node", "id": 4386747571, "lat": 43.1669655, "lon": 16.4454588, "tags": {"amenity": "restaurant", "cuisine": "regional", "name": "Bepo"}}, {"type": "node", "id": 4386747572, "lat": 43.1670057, "lon": 16.4453388, "tags": {"addr:city": "Hvar", "addr:postcode": "21450", "addr:street": "Šetalište put Križa", "amenity": "restaurant", "contact:facebook": "https://www.facebook.com/hvarbrewingco/", "contact:instagram": "https://www.instagram.com/hvarbrewingco/", "cuisine": "regional", "email": "info@hvarbrewingco.com", "internet_access": "wlan", "name": "Hvar Brewing Co", "old_name": "Ces't La Vie", "outdoor_seating": "yes", "short_name": "HBC", "website": "https://hvarbrewingco.com/"}}, {"type": "node", "id": 4412231929, "lat": 43.1668651, "lon": 16.4464578, "tags": {"amenity": "atm", "check_date": "2021-02-14", "fee": "Splitska Banka", "operator": "OTP banka"}}, {"type": "node", "id": 4917362921, "lat": 43.1672421, "lon": 16.4463931, "tags": {"amenity": "restaurant", "cuisine": "mediterranean", "internet_access": "wlan", "name": "lungo mare", "name:pt": "lungo mare"}}, {"type": "node", "id": 4962167022, "lat": 43.1672367, "lon": 16.4464023, "tags": {"amenity": "restaurant", "name": "Lungo Marw", "name:hr": "Lungo Marw"}}, {"type": "node", "id": 5110475624, "lat": 43.1698994, "lon": 16.4440011, "tags": {"addr:housenumber": "21", "addr:postcode": "21450", "addr:street": "Šime Buzolića Tome", "name:en": "Jagoda Bracanović's House", "phone": "+385 91 5203 796", "tourism": "guest_house", "website": "http://hvar-jagoda.com"}}, {"type": "node", "id": 5337548321, "lat": 43.1688855, "lon": 16.4454315, "tags": {"addr:housenumber": "89", "addr:postcode": "21450", "addr:street": "Kroz Burak", "email": "lina.hvar@gmail.com", "internet_access": "wlan", "name": "Apartmani Vrankovic", "name:en": "Apartments Vrankovic", "operator": "Lina Vrankovic", "phone": "+385955880337", "tourism": "apartment"}}, {"type": "node", "id": 5902432176, "lat": 43.1715291, "lon": 16.4458214, "tags": {"name": "Muzej Hvarske baštine", "tourism": "museum", "website": "http://mhb.mdc.hr", "wikipedia": "hr:Muzej hvarske baštine"}}, {"type": "node", "id": 6713028185, "lat": 43.1707265, "lon": 16.4462114, "tags": {"addr:housenumber": "64", "addr:postcode": "21450", "addr:street": "Vicka Butorovića", "amenity": "restaurant", "name": "Speeza Restaurant & Bar"}}, {"type": "node", "id": 6727498685, "lat": 43.1717885, "lon": 16.4438049, "tags": {"addr:housenumber": "12", "addr:postcode": "21450", "addr:street": "Jurja Novaka", "amenity": "restaurant", "cuisine": "croatian", "name": "Konoba Maestro", "phone": "00385977013798"}}, {"type": "node", "id": 9221839482, "lat": 43.1700504, "lon": 16.447746, "tags": {"amenity": "fast_food"}}, {"type": "node", "id": 13147981034, "lat": 43.1693069, "lon": 16.4433326, "tags": {"amenity": "bicycle_parking", "bicycle_parking": "wall_loops", "covered": "no"}}, {"type": "node", "id": 694166577, "lat": 43.173052, "lon": 16.4409916, "tags": {"addr:city": "Hvar", "addr:postcode": "21450", "addr:street": "Bankete", "name": "Hotel Park", "phone": "+385021718337", "tourism": "hotel", "website": "https://www.hotelparkhvar.com/"}}, {"type": "node", "id": 697402390, "lat": 43.1724289, "lon": 16.4422426, "tags": {"amenity": "pharmacy", "name": "Ljekarnička Jedinica Hvar", "opening_hours": "Mo-Sa 07:00-21:00; Su 09:00-13:00"}}, {"type": "node", "id": 900384151, "lat": 43.1722169, "lon": 16.4415689, "tags": {"addr:city": "Hvar", "addr:housenumber": "40", "addr:postcode": "21450", "addr:street": "Trg svetog Stjepana", "email": "info@tzhvar.hr", "information": "office", "internet_access": "yes", "internet_access:fee": "no", "name": "Turistička zajednica grada Hvara", "name:en": "Hvar Tourist Board", "phone": "+385 (0)21 741 059", "tourism": "information", "website": "https://www.visithvar.hr"}}, {"type": "node", "id": 1596229252, "lat": 43.1729645, "lon": 16.4413781, "tags": {"name": "Hotel Palace", "tourism": "hotel"}}, {"type": "node", "id": 1768612974, "lat": 43.1724503, "lon": 16.4426772, "tags": {"addr:housenumber": "19", "addr:postcode": "21450", "addr:street": "Trg Svetog Stjepana", "brand": "Studenac", "brand:wikidata": "Q65156084", "name": "Studenac", "shop": "convenience"}}, {"type": "node", "id": 3014632600, "lat": 43.174698, "lon": 16.4417865, "tags": {"tourism": "viewpoint"}}, {"type": "node", "id": 3014638479, "lat": 43.1744851, "lon": 16.441757, "tags": {"tourism": "viewpoint"}}, {"type": "node", "id": 3021675736, "lat": 43.1721479, "lon": 16.4425633, "tags": {"amenity": "restaurant", "name": "Mizarola"}}, {"type": "node", "id": 3021675743, "lat": 43.1721373, "lon": 16.4423672, "tags": {"amenity": "restaurant", "name": "Pizza Kogo"}}, {"type": "node", "id": 3021675748, "lat": 43.1725351, "lon": 16.4417594, "tags": {"addr:housenumber": "9", "addr:postcode": "21450", "addr:street": "Trg Svetog Stjepana", "amenity": "cafe", "internet_access": "wlan", "name": "Archie's"}}, {"type": "node", "id": 3021675749, "lat": 43.172554, "lon": 16.4401798, "tags": {"amenity": "atm"}}, {"type": "node", "id": 3021675754, "lat": 43.1721405, "lon": 16.4424547, "tags": {"amenity": "restaurant", "name": "ex Rocco"}}, {"type": "node", "id": 3021675759, "lat": 43.1721587, "lon": 16.4427556, "tags": {"amenity": "restaurant", "name": "Spice"}}, {"type": "node", "id": 3021675761, "lat": 43.1725511, "lon": 16.441675, "tags": {"amenity": "cafe", "name": "Pjaca"}}, {"type": "node", "id": 3021675770, "lat": 43.1721488, "lon": 16.4426408, "tags": {"addr:housenumber": "31", "addr:street": "Trg Sv. Stjepana", "amenity": "restaurant", "name": "Pošteri", "phone": "+385 98 1662027"}}, {"type": "node", "id": 3021675772, "lat": 43.1721927, "lon": 16.4420415, "tags": {"name": "Pekarnika", "shop": "bakery"}}, {"type": "node", "id": 3181802715, "lat": 43.1732496, "lon": 16.4423046, "tags": {"amenity": "restaurant", "name": "Konoba Menego"}}, {"type": "node", "id": 3181802717, "lat": 43.1724084, "lon": 16.4428326, "tags": {"amenity": "restaurant", "name": "Pizza Feta"}}, {"type": "node", "id": 3680774250, "lat": 43.1724958, "lon": 16.4419454, "tags": {"amenity": "restaurant", "cuisine": "sandwich", "name": "Hello"}}, {"type": "node", "id": 3830838262, "lat": 43.1719762, "lon": 16.4420158, "tags": {"addr:city": "Hvar", "addr:housenumber": "6", "addr:postcode": "21450", "addr:street": "Stjepana Papatave", "check_date": "2025-06-28", "name": "The White Rabbit Hostel", "tourism": "hostel", "wikidata": "Q111116012"}}, {"type": "node", "id": 3998851496, "lat": 43.1726417, "lon": 16.4429604, "tags": {"addr:city": "Hvar", "addr:housenumber": "11", "addr:postcode": "21450", "addr:street": "Petra Hektorovića", "amenity": "restaurant", "boat": "service", "description": "the restaurant's offer is based on meals prepared using local groceries: the fish and seafood caught in the local sea and vegetables cultivated on the island.", "email": "giaxahvar@gmail.com", "food": "fish", "name": "Giaxa", "phone": "+385 (0) 21 741 073", "restaurant": "tradition", "website": "https://www.giaxa.com/"}}, {"type": "node", "id": 4238875708, "lat": 43.1728272, "lon": 16.440363, "tags": {"addr:housenumber": "9", "addr:street": "Sveti Marak", "name": "Hostel Marinero", "tourism": "hostel"}}, {"type": "node", "id": 4300892193, "lat": 43.1726652, "lon": 16.4420629, "tags": {"amenity": "drinking_water", "man_made": "water_tap", "name": "Fuente"}}, {"type": "node", "id": 4398605098, "lat": 43.171915, "lon": 16.4413072, "tags": {"name": "Mlinar", "shop": "bakery"}}, {"type": "node", "id": 4400927291, "lat": 43.1731009, "lon": 16.4411385, "tags": {"amenity": "restaurant", "name": "Black Pepper"}}, {"type": "node", "id": 4408065664, "lat": 43.1721655, "lon": 16.4393339, "tags": {"amenity": "restaurant", "name": "Butchery & Wine Hvar"}}, {"type": "node", "id": 4408068117, "lat": 43.1726887, "lon": 16.442562, "tags": {"amenity": "restaurant", "name": "Lucullus"}}, {"type": "node", "id": 4408573579, "lat": 43.1724019, "lon": 16.4427034, "tags": {"amenity": "atm", "fee": "PBZ"}}, {"type": "node", "id": 4408585549, "lat": 43.1723976, "lon": 16.4426296, "tags": {"amenity": "atm", "fee": "PBZ"}}, {"type": "node", "id": 4907787222, "lat": 43.1730061, "lon": 16.4401766, "tags": {"amenity": "restaurant", "cuisine": "italian_pizza", "name": "Mizarola"}}, {"type": "node", "id": 4907897821, "lat": 43.1728313, "lon": 16.4408385, "tags": {"amenity": "restaurant", "cuisine": "steak_house;fish", "name": "Dalmatino", "website": "https://dalmatino-hvar.com/"}}, {"type": "node", "id": 5106601922, "lat": 43.1728799, "lon": 16.4423589, "tags": {"addr:housenumber": "7", "addr:street": "Ulica Marije Maričić", "amenity": "restaurant", "cuisine": "seafood", "name": "Macondo", "name:hr": "Macondo", "website": "https://www.macondo.com.hr/"}}, {"type": "node", "id": 5200271373, "lat": 43.1727605, "lon": 16.4425871, "tags": {"addr:city": "Hvar", "addr:housenumber": "2", "addr:postcode": "21450", "addr:street": "Frane Primija 2", "addr:unit": "Villa nora Hvar", "internet_access": "wlan", "internet_access:fee": "yes", "internet_access:ssid": "Villa Nora Hvar", "name": "Villa NORA Hvar", "name_1": "B&B", "operator": "Hotel Villa Nora", "rooms": "9", "smoking": "no", "stars": "4", "tourism": "hotel"}}, {"type": "node", "id": 5564279182, "lat": 43.172705, "lon": 16.4410615, "tags": {"leisure": "picnic_table"}}, {"type": "node", "id": 5836114785, "lat": 43.1718755, "lon": 16.4426331, "tags": {"addr:housenumber": "4", "addr:street": "I. F. Biundovića", "amenity": "cafe", "check_date:opening_hours": "2021-07-26", "internet_access": "wlan", "name": "fig cafe", "opening_hours": "Mo-Su 10:00-22:00"}}, {"type": "node", "id": 6712928532, "lat": 43.1726751, "lon": 16.4423177, "tags": {"amenity": "restaurant", "name": "Paladini", "opening_hours": "PH,Mo-Su 12:00-24:00"}}, {"type": "node", "id": 9803754696, "lat": 43.1728703, "lon": 16.4425413, "tags": {"addr:city": "Hvar", "addr:housenumber": "9", "addr:postcode": "21450", "addr:street": "Ulica Marije Maričić", "amenity": "restaurant", "cuisine": "regional", "name": "Gurme Tapas & Wine", "opening_hours": "Mo-Su 16:00-00:00", "phone": "+385 98 192 4150"}}, {"type": "node", "id": 9962307692, "lat": 43.1726558, "lon": 16.4406028, "tags": {"amenity": "atm", "operator": "Auro Domus"}}, {"type": "node", "id": 9962335564, "lat": 43.1726487, "lon": 16.4405642, "tags": {"amenity": "atm", "operator": "Euronet"}}, {"type": "node", "id": 11153381322, "lat": 43.1729264, "lon": 16.442131, "tags": {"artwork_type": "statue", "inscription": "ORA ET LABORA", "tourism": "artwork"}}, {"type": "node", "id": 11153414097, "lat": 43.1730011, "lon": 16.4421597, "tags": {"name": "Muzej Hanibal Lucić", "tourism": "museum"}}, {"type": "node", "id": 11980441269, "lat": 43.1724149, "lon": 16.4423124, "tags": {"amenity": "restaurant", "name": "Oasis"}}, {"type": "node", "id": 12299127931, "lat": 43.1748023, "lon": 16.4414765, "tags": {"tourism": "viewpoint"}}, {"type": "node", "id": 12299212282, "lat": 43.1721692, "lon": 16.4415121, "tags": {"tourism": "information"}}, {"type": "node", "id": 12299212283, "lat": 43.1725269, "lon": 16.4417503, "tags": {"addr:city": "Hvar", "addr:housenumber": "9", "addr:postcode": "21450", "addr:street": "Trg Svetog Stjepana", "air_conditioning": "yes", "amenity": "restaurant", "bar": "yes", "contact:facebook": "https://www.facebook.com/sol.cafe.hvar", "cuisine": "mediterranean;breakfast;lunch", "diet:healthy": "yes", "diet:local": "yes", "diet:mediterranean": "yes", "internet_access": "wlan", "level": "0", "name": "Sōl Café", "opening_hours": "Mo-Su 09:00-18:00", "outdoor_seating": "yes", "payment:american_express": "yes", "payment:apple_pay": "yes", "payment:cash": "yes", "payment:coins": "yes", "payment:contactless": "yes", "payment:credit_cards": "yes", "payment:debit_cards": "yes", "payment:diners_club": "yes", "payment:google_pay": "yes", "payment:jcb": "yes", "payment:maestro": "yes", "payment:mastercard": "yes", "payment:mastercard_contactless": "yes", "payment:notes": "yes", "payment:visa": "yes", "payment:visa_debit": "yes", "payment:visa_electron": "yes", "phone": "+385 91 551 5585", "smoking": "outside", "stars": "5", "start_date": "2024-03-24", "toilets": "yes", "website": "https://solhvar.com/", "wheelchair": "yes"}}, {"type": "node", "id": 12299273725, "lat": 43.1719955, "lon": 16.4415977, "tags": {"amenity": "atm", "name": "Euronet"}}, {"type": "node", "id": 12299273728, "lat": 43.1719952, "lon": 16.4416051, "tags": {"amenity": "atm", "name": "Monestiq"}}, {"type": "node", "id": 12301371721, "lat": 43.1724255, "lon": 16.4427563, "tags": {"name": "Studenak Market", "shop": "supermarket"}}, {"type": "node", "id": 13152380495, "lat": 43.1749491, "lon": 16.4421167, "tags": {"amenity": "bicycle_parking", "bicycle_parking": "wall_loops", "capacity": "4", "covered": "no"}}, {"type": "node", "id": 13423912297, "lat": 43.172438, "lon": 16.4407748, "tags": {"artwork_subject": "Ivan Vučetić", "artwork_type": "bust", "name": "Ivan Vučetić", "tourism": "artwork"}}, {"type": "node", "id": 694169421, "lat": 43.1727154, "lon": 16.4439994, "tags": {"brand": "Konzum", "brand:wikidata": "Q518563", "name": "Konzum", "opening_hours": "07:00-24:00", "ref": "892", "shop": "supermarket", "website": "https://www.konzum.hr/Prodavaonice"}}, {"type": "node", "id": 1756292452, "lat": 43.1774286, "lon": 16.4485638, "tags": {"name": "Tvrđava Napoleon", "tourism": "viewpoint"}}, {"type": "node", "id": 3021675738, "lat": 43.1727575, "lon": 16.4442749, "tags": {"amenity": "atm", "check_date": "2025-06-28"}}, {"type": "node", "id": 3021675747, "lat": 43.1725247, "lon": 16.4437878, "tags": {"name": "Panino", "shop": "bakery"}}, {"type": "node", "id": 3021675766, "lat": 43.1724554, "lon": 16.4446409, "tags": {"amenity": "restaurant", "cuisine": "pizza", "name": "Alviz", "opening_hours": "Mo-Su 18:00-00:00"}}, {"type": "node", "id": 3023977965, "lat": 43.1723922, "lon": 16.4444605, "tags": {"name": "Pivac", "shop": "supermarket"}}, {"type": "node", "id": 4230720093, "lat": 43.1727188, "lon": 16.4432182, "tags": {"addr:housenumber": "6", "addr:street": "dr. Mate Miličića", "amenity": "restaurant", "cuisine": "fish;croatian;grill", "email": "stipehvar@gmail.com", "internet_access": "wlan", "name": "Paradies Garden", "opening_hours": "Mo-Su 12:00-00:00", "phone": "+385916014682", "website": "www.paradies-hvar.hr"}}, {"type": "node", "id": 4400172849, "lat": 43.1718769, "lon": 16.4433295, "tags": {"amenity": "restaurant", "name": "Konoba Luviji"}}, {"type": "node", "id": 5655544633, "lat": 43.1728141, "lon": 16.443013, "tags": {"addr:housenumber": "17", "addr:street": "Ulica Marije Maričić", "amenity": "restaurant", "capacity": "50", "cuisine": "regional", "name": "Konoba Bunar", "name:en": "Konoba Bunar", "opening_hours": "Mo-Su 13:00-00:00", "outdoor_seating": "yes", "phone": "+385 91 4629 225", "smoking": "outside", "takeaway": "no", "website": "https://www.bunar.hr/"}}, {"type": "node", "id": 6715670185, "lat": 43.1727164, "lon": 16.4442426, "tags": {"name:de": "Touristeninformation", "name:en": "Tourist Office", "tourism": "information"}}, {"type": "node", "id": 6721843285, "lat": 43.1719064, "lon": 16.4443518, "tags": {"addr:housenumber": "2", "addr:postcode": "21450", "addr:street": "Težačka ulica", "amenity": "restaurant", "cuisine": "seafood;croatian", "disused:website": "https://stajun-hvar.business.site/", "name": "Štajun", "name:de": "Štajun Hvar", "name:en": "Štajun Hvar", "name:hr": "Štajun Hvar", "opening_hours": "Mo-Su 12:00-00:00", "phone": "0919154479", "website": "https://restaurant-stajunhvar.com/"}}, {"type": "node", "id": 7785770943, "lat": 43.1729298, "lon": 16.4457463, "tags": {"amenity": "parking", "description": "8kn/h", "opening_hours": "24/7"}}, {"type": "node", "id": 7973566385, "lat": 43.1775847, "lon": 16.446034, "tags": {"name:en": "Panoramic view over Hvar Town and Paklinski Islands (perfect for sunset)", "tourism": "viewpoint"}}, {"type": "node", "id": 9803764953, "lat": 43.1727969, "lon": 16.4432484, "tags": {"addr:city": "Hvar", "addr:country": "HR", "addr:county": "Split-Dalmatia County", "addr:housenumber": "10", "addr:postcode": "21450", "addr:street": "Dr. Mate Miličića", "air_conditioning": "yes", "amenity": "restaurant", "bar": "yes", "contact:facebook": "https://www.facebook.com/Passarola.Restaurant.Hvar/", "contact:instagram": "passarola_hvar", "cuisine": "mediterranean;seafood;fine_dining", "description": "Experience Passarola in the heart of Hvar. A charming rooftop restaurant offering a modern take on Dalmatian classics.", "diet:gluten_free": "yes", "diet:vegan": "yes", "diet:vegetarian": "yes", "email": "info@passarola-hvar.com", "highchair": "yes", "indoor_seating": "yes", "internet_access": "wlan", "internet_access:fee": "no", "name": "Passarola Restaurant", "opening_hours": "Mo-Su 12:00-01:00", "outdoor_seating": "yes", "payment:american_express": "yes", "payment:cash": "yes", "payment:contactless": "yes", "payment:maestro": "yes", "payment:mastercard": "yes", "payment:visa": "yes", "phone": "+385 91 538 4123", "reservation": "yes", "roof_terrace": "yes", "toilets": "yes", "website": "https://restaurant-passarola.eu/", "website:menu": "https://restaurant-passarola.eu/menu/"}}, {"type": "node", "id": 9803780569, "lat": 43.1727969, "lon": 16.4431654, "tags": {"addr:city": "Hvar", "addr:housenumber": "15", "addr:postcode": "21450", "addr:street": "dr. Mate Miličića", "amenity": "restaurant", "cuisine": "seafood", "name": "El Pescador", "opening_hours": "Mo-Su 18:00-00:00", "phone": "+385 95 222 1000"}}, {"type": "node", "id": 9962368441, "lat": 43.1726607, "lon": 16.4441251, "tags": {"amenity": "atm", "operator": "otpbanka"}}, {"type": "node", "id": 9962388577, "lat": 43.1726457, "lon": 16.4442238, "tags": {"amenity": "atm", "operator": "HPB"}}, {"type": "node", "id": 9962395384, "lat": 43.1726522, "lon": 16.4438039, "tags": {"name": "Lida Pek", "shop": "bakery"}}, {"type": "node", "id": 10095833446, "lat": 43.1728688, "lon": 16.4432417, "tags": {"amenity": "restaurant", "name": "Faria Garden and Terrace"}}, {"type": "node", "id": 12896244201, "lat": 43.1727437, "lon": 16.4431811, "tags": {"amenity": "cafe", "name": "Coffee snob"}}, {"type": "node", "id": 2483857474, "lat": 43.1675597, "lon": 16.4514051, "tags": {"addr:street": "Marina Gazarovića", "email": "josipa2145@net.hr", "name": "bella vista", "note": "The town of Hvar, the largest town on the island. It is located on the southwest coast of the island in a bay protected Pakleni islands in the south and a low crest in the north.  Hvar name comes from the Greek name of Pharos, the ancient name for the who", "phone": "0038521717977", "tourism": "guest_house"}}, {"type": "node", "id": 3833282316, "lat": 43.1674491, "lon": 16.4503722, "tags": {"addr:city": "Hvar", "addr:housenumber": "7", "addr:postcode": "21450", "addr:street": "Lucije Rudan", "name": "Youth Hostel Villa Marija", "tourism": "hostel"}}, {"type": "node", "id": 4177019896, "lat": 43.1675955, "lon": 16.450338, "tags": {"amenity": "fast_food", "check_date": "2025-09-17", "cuisine": "pizza;burger", "name": "Gustico - Burger & Pizza bar", "opening_hours": "Mo-Sa 16:00-23:45"}}, {"type": "node", "id": 4324998093, "lat": 43.1684073, "lon": 16.451182, "tags": {"addr:postcode": "21450", "internet_access": "wlan", "name": "Hvar de luxe apartments", "opening_hours": "24/7", "phone": "00385919238110", "tourism": "guest_house"}}, {"type": "node", "id": 13149978519, "lat": 43.1665017, "lon": 16.4530884, "tags": {"name": "Hotel Teranea", "tourism": "hotel"}}, {"type": "node", "id": 13428147644, "lat": 43.1659218, "lon": 16.4519577, "tags": {"alt_name": "Villa Nina", "check_date": "2018-06-27", "name": "Villa Tania", "tourism": "guest_house"}}, {"type": "node", "id": 9779154101, "lat": 43.1683509, "lon": 16.4580806, "tags": {"addr:housenumber": "11", "addr:street": "D116", "name": "Camping Kopito", "tourism": "camp_site", "website": "https://www.campinghvarkopito.com/"}}, {"type": "node", "id": 2459144205, "lat": 43.1946481, "lon": 16.4407055, "tags": {"amenity": "parking"}}, {"type": "node", "id": 1876670664, "lat": 43.1614978, "lon": 16.4872355, "tags": {"addr:housenumber": "37", "addr:street": "Milna", "amenity": "restaurant", "name": "Konoba Kotin"}}, {"type": "node", "id": 1876670665, "lat": 43.1621185, "lon": 16.4874175, "tags": {"amenity": "restaurant", "check_date": "2025-09-23", "cuisine": "regional", "name": "Konoba Milina"}}, {"type": "node", "id": 1876670669, "lat": 43.1643633, "lon": 16.4879687, "tags": {"amenity": "restaurant", "cuisine": "regional", "name": "Konoba Lambik"}}, {"type": "node", "id": 1876670698, "lat": 43.1623677, "lon": 16.4874691, "tags": {"addr:housenumber": "27", "addr:street": "Milna", "name": "Fortuna", "stars": "4", "tourism": "hotel"}}, {"type": "node", "id": 1886564716, "lat": 43.1631511, "lon": 16.4869598, "tags": {"historic": "memorial", "memorial": "statue", "name": "Sveti Teodor", "name:en": "Saint Theodore", "subject:wikidata": "Q37599"}}, {"type": "node", "id": 2085675724, "lat": 43.1625533, "lon": 16.4869995, "tags": {"board_type": "board", "information": "board", "tourism": "information"}}, {"type": "node", "id": 2266028945, "lat": 43.1627469, "lon": 16.4834975, "tags": {"amenity": "restaurant", "cuisine": "regional", "name": "Mala Milna", "source": "survey"}}, {"type": "node", "id": 3131070170, "lat": 43.1620005, "lon": 16.4873469, "tags": {"check_date": "2025-09-23", "guest_house": "apartment", "internet_access": "wlan", "internet_access:fee": "customers", "name": "Apartmani Juka", "reservation": "yes", "tourism": "guest_house", "wheelchair": "no"}}, {"type": "node", "id": 3131070171, "lat": 43.1620299, "lon": 16.4873469, "tags": {"fixme": "check if it's still there", "name": "Mini pekara", "shop": "bakery"}}, {"type": "node", "id": 4406047090, "lat": 43.1623535, "lon": 16.4872333, "tags": {"amenity": "restaurant", "cuisine": "mediterranean;italian;croatian", "name": "Fortuna", "name:es": "Taverna Milina"}}, {"type": "node", "id": 4965933982, "lat": 43.1614212, "lon": 16.4873222, "tags": {"addr:housenumber": "38", "addr:street": "Milna", "amenity": "restaurant", "name": "Kod Barba Božjeg"}}, {"type": "node", "id": 4970563917, "lat": 43.1610451, "lon": 16.4874588, "tags": {"amenity": "restaurant", "cuisine": "regional;seafood", "name": "Moli Onte"}}, {"type": "node", "id": 6735232674, "lat": 43.1621902, "lon": 16.4872336, "tags": {"amenity": "bicycle_parking", "bicycle_parking": "wall_loops"}}, {"type": "node", "id": 8019554385, "lat": 43.1628831, "lon": 16.4837479, "tags": {"addr:city": "Hvar", "addr:housenumber": "4", "addr:postcode": "21450", "addr:street": "Milna", "amenity": "restaurant", "cuisine": "international;regional;seafood;steak_house;burger", "internet_access": "wlan", "name": "Notos Hvar", "phone": "+385 98 301010", "website": "https://notoshvar.com"}}, {"type": "node", "id": 1254024491, "lat": 43.1500441, "lon": 16.5126743, "tags": {"addr:housenumber": "8", "addr:street": "Ulica uvala Velo Zaraće", "amenity": "restaurant", "check_date": "2026-01-02", "cuisine": "italian", "name": "Gego", "note": "open only during summer months", "opening_hours": "Mo-Sa 09:00-23:00", "outdoor_seating": "yes", "smoking": "yes", "toilets": "yes"}}, {"type": "node", "id": 1389901774, "lat": 43.1499155, "lon": 16.5123224, "tags": {"amenity": "restaurant", "name": "Zoraće"}}, {"type": "node", "id": 1389901808, "lat": 43.1502135, "lon": 16.5118005, "tags": {"access": "customers", "amenity": "parking", "capacity": "20", "fee": "no", "name": "Restaurant \"Gego\"", "parking": "surface", "surface": "ground"}}, {"type": "node", "id": 1389901825, "lat": 43.1513606, "lon": 16.5099697, "tags": {"access": "private", "amenity": "parking", "capacity": "10", "parking": "surface"}}, {"type": "node", "id": 1811089155, "lat": 43.1499854, "lon": 16.5125435, "tags": {"addr:housenumber": "12", "addr:street": "Ulica uvala Velo Zaraće", "check_date": "2026-01-02", "email": "casaposeidon@aol.com", "name": "Casa Poseidon", "tourism": "guest_house"}}, {"type": "node", "id": 1811089162, "lat": 43.1502255, "lon": 16.5126483, "tags": {"amenity": "restaurant", "name": "Terasa Bak", "opening_hours": "\"Kocht Fisch nach Reservierung\""}}, {"type": "node", "id": 1811089176, "lat": 43.1501455, "lon": 16.5127116, "tags": {"name": "Villa Bak", "tourism": "guest_house", "website": "http://www.toni-bak.hr/"}}, {"type": "node", "id": 1811089201, "lat": 43.1502197, "lon": 16.5121912, "tags": {"tourism": "guest_house"}}, {"type": "node", "id": 1811089207, "lat": 43.15071, "lon": 16.5111455, "tags": {"access": "customers", "amenity": "parking", "fee": "yes", "name": "Restaurant \"Zoraće\"", "parking": "surface", "supervised": "no", "surface": "ground", "wheelchair": "no"}}, {"type": "node", "id": 1835095943, "lat": 43.1511329, "lon": 16.510229, "tags": {"access": "private", "amenity": "parking", "capacity": "10", "parking": "surface"}}, {"type": "node", "id": 1836218451, "lat": 43.1505388, "lon": 16.5110361, "tags": {"check_date": "2021-07-24", "information": "map", "map_size": "region", "map_type": "topo", "name": "Grad Hvar", "tourism": "information"}}, {"type": "node", "id": 1836218452, "lat": 43.151826, "lon": 16.5096114, "tags": {"tourism": "guest_house"}}, {"type": "node", "id": 3695382131, "lat": 43.1510296, "lon": 16.5103765, "tags": {"access": "private", "amenity": "parking", "parking": "surface"}}, {"type": "node", "id": 3742462226, "lat": 43.1502243, "lon": 16.5121093, "tags": {"name": "Apartments Prandel", "tourism": "guest_house"}}, {"type": "node", "id": 3742462227, "lat": 43.1502267, "lon": 16.5122819, "tags": {"tourism": "guest_house"}}, {"type": "node", "id": 5081602297, "lat": 43.1552337, "lon": 16.5053667, "tags": {"amenity": "restaurant"}}, {"type": "node", "id": 1951292438, "lat": 43.1548939, "lon": 16.5101767, "tags": {"information": "map", "name": "Zaraće", "tourism": "information"}}, {"type": "node", "id": 3696667390, "lat": 43.1526025, "lon": 16.5142499, "tags": {"information": "yes", "name": "Eko etno selo Zaraće", "tourism": "information"}}, {"type": "node", "id": 1876670663, "lat": 43.146296, "lon": 16.530108, "tags": {"information": "map", "map_size": "site", "map_type": "topo", "name": "Dubovica", "tourism": "information"}}, {"type": "node", "id": 9961590915, "lat": 43.1462975, "lon": 16.530046, "tags": {"amenity": "parking"}}, {"type": "node", "id": 3695382184, "lat": 43.1460219, "lon": 16.5349085, "tags": {"amenity": "cafe", "name": "Cafe Dubovica"}}, {"type": "node", "id": 10020846412, "lat": 43.1418084, "lon": 16.5661739, "tags": {"amenity": "restaurant"}}, {"type": "node", "id": 1876670666, "lat": 43.1536621, "lon": 16.5428399, "tags": {"information": "guidepost", "name": "Hvarcienda", "tourism": "information"}}, {"type": "node", "id": 4256844700, "lat": 43.1894476, "lon": 16.4872526, "tags": {"addr:housenumber": "15", "addr:street": "Molo bonda ", "email": "ivajugec@gmail.com", "phone": "00385915084150", "tourism": "guest_house"}}, {"type": "node", "id": 4391784992, "lat": 43.1910017, "lon": 16.4871149, "tags": {"addr:housenumber": "33", "addr:postcode": "21454", "addr:street": "Ulica kroz Brusje", "amenity": "restaurant", "cuisine": "fish;crepe;tea;cake;coffee_shop;pancake;croatian;barbecue", "internet_access": "wlan", "name": "Family Farm Tourist Rural", "name:hr": "Family Farm Tourist Rural", "opening_hours": "Mo-Su 09:00-23:00", "phone": "+385915261132"}}, {"type": "node", "id": 1951293116, "lat": 43.1661086, "lon": 16.4898562, "tags": {"name": "Grad Hvar", "tourism": "information"}}, {"type": "node", "id": 2085675670, "lat": 43.1660115, "lon": 16.4899651, "tags": {"information": "guidepost", "name": "Velo Grabje/Malo Grabje", "tourism": "information"}}, {"type": "node", "id": 7781796186, "lat": 43.1687572, "lon": 16.5027041, "tags": {"amenity": "restaurant", "name": "Stori Komin"}}, {"type": "node", "id": 4402288141, "lat": 43.17547, "lon": 16.5269197, "tags": {"name": "Sveti Rok", "tourism": "viewpoint"}}, {"type": "node", "id": 9221876391, "lat": 43.1753906, "lon": 16.5268252, "tags": {"leisure": "picnic_table"}}, {"type": "node", "id": 9221971913, "lat": 43.1754097, "lon": 16.5268353, "tags": {"leisure": "picnic_table"}}, {"type": "node", "id": 306491693, "lat": 43.1702707, "lon": 16.5313137, "tags": {"addr:city": "Velo Grablje", "addr:postcode": "21450", "addr:street": "Vordišće 1", "amenity": "restaurant", "name": "Alavia", "phone": "+385913585376"}}, {"type": "node", "id": 8857616417, "lat": 43.1672947, "lon": 16.5372752, "tags": {"name": "Vapenica", "name:en": "Limekilm", "tourism": "attraction"}}, {"type": "node", "id": 10933992008, "lat": 43.0840667, "lon": 16.7141852, "tags": {"name": "Portoruša Strand", "name:de": "Poterusa Strand", "name:en": "Portoruša Beach", "tourism": "viewpoint"}}, {"type": "node", "id": 1819462547, "lat": 43.0918466, "lon": 16.6959689, "tags": {"amenity": "restaurant", "name": "Rato"}}, {"type": "node", "id": 1819462550, "lat": 43.0900739, "lon": 16.698171, "tags": {"addr:city": "Jelsa", "addr:housenumber": "227", "addr:postcode": "21465", "addr:street": "Zavala", "air_conditioning": "yes", "amenity": "restaurant", "cuisine": "seafood;mediterranean", "level": "1", "name": "Restaurant Kod Ive - Šćedro", "name:en": "Restaurant Kod Ive - Šćedro", "name:hr": "Restoran Kod Ive - Šćedro", "outdoor_seating": "yes", "phone": "+385995767031", "reservation": "yes"}}, {"type": "node", "id": 1819462552, "lat": 43.090023, "lon": 16.6980529, "tags": {"tourism": "hotel"}}, {"type": "node", "id": 1457626501, "lat": 43.1339676, "lon": 16.5859635, "tags": {"amenity": "restaurant", "cuisine": "regional", "email": "zlatanotok@zlatanotok.hr", "name": "Bilo Idro", "phone": "+38521 745 788", "shop": "wine", "website": "https://zlatanotok.hr/"}}, {"type": "node", "id": 10706773223, "lat": 43.1346587, "lon": 16.5846121, "tags": {"name": "Veli Kamik", "tourism": "viewpoint"}}, {"type": "node", "id": 12083300285, "lat": 43.1345042, "lon": 16.5863499, "tags": {"name": "Di Bakery & Mini Shop", "opening_hours": "Mo-Su 07:00-12:00, 16:00-20:00", "payment:cash": "yes", "payment:credit_cards": "yes", "shop": "bakery"}}, {"type": "node", "id": 1470791618, "lat": 43.1341787, "lon": 16.5879703, "tags": {"amenity": "restaurant", "cuisine": "other;fish;pizza", "name": "Tamaris", "payment:cash": "yes", "payment:credit_cards": "yes", "source": "survey"}}, {"type": "node", "id": 11014041322, "lat": 43.1390573, "lon": 16.5882424, "tags": {"historic": "memorial", "material": "stone", "memorial": "war_memorial"}}, {"type": "node", "id": 12019998268, "lat": 43.1384026, "lon": 16.5875168, "tags": {"access": "yes", "amenity": "parking", "capacity": "10", "fee": "no", "parking": "street_side", "supervised": "no", "surface": "asphalt"}}, {"type": "node", "id": 708116674, "lat": 43.134773, "lon": 16.5952572, "tags": {"amenity": "shelter"}}, {"type": "node", "id": 6605168801, "lat": 43.1310132, "lon": 16.6095123, "tags": {"tourism": "viewpoint"}}, {"type": "node", "id": 6620377762, "lat": 43.1364092, "lon": 16.614815, "tags": {"drinking_water": "no", "man_made": "water_well", "pump": "no"}}, {"type": "node", "id": 6007045583, "lat": 43.1445799, "lon": 16.5868088, "tags": {"information": "guidepost", "tourism": "information"}}, {"type": "node", "id": 1291465955, "lat": 43.1446963, "lon": 16.5872075, "tags": {"information": "guidepost", "tourism": "information"}}, {"type": "node", "id": 6007038356, "lat": 43.1398013, "lon": 16.5892287, "tags": {"information": "guidepost", "tourism": "information"}}, {"type": "node", "id": 11171328637, "lat": 43.144412, "lon": 16.5879758, "tags": {"name": "Start of Via Ferrata Avalon", "tourism": "attraction"}}, {"type": "node", "id": 11171395538, "lat": 43.1441388, "lon": 16.5886035, "tags": {"name": "Ferrata Bridge", "tourism": "viewpoint"}}, {"type": "node", "id": 11171470738, "lat": 43.1455216, "lon": 16.5889835, "tags": {"name": "End of Via Ferrata", "tourism": "viewpoint"}}, {"type": "node", "id": 12029197390, "lat": 43.1397526, "lon": 16.5885139, "tags": {"hiking": "yes", "information": "guidepost", "tourism": "information"}}, {"type": "node", "id": 4401035481, "lat": 43.1462609, "lon": 16.5825153, "tags": {"information": "guidepost", "tourism": "information"}}, {"type": "node", "id": 4603400142, "lat": 43.14722, "lon": 16.581111, "tags": {"amenity": "shelter", "ele": "872", "name": "Lugarnica"}}, {"type": "node", "id": 4401037192, "lat": 43.1441417, "lon": 16.5982941, "tags": {"information": "guidepost", "tourism": "information"}}, {"type": "node", "id": 5770792751, "lat": 43.1401827, "lon": 16.6061508, "tags": {"information": "guidepost", "name": "Sv. Nikola", "tourism": "information"}}, {"type": "node", "id": 5770805060, "lat": 43.1391327, "lon": 16.6067288, "tags": {"information": "guidepost", "name": "Sv. Nikola", "tourism": "information"}}, {"type": "node", "id": 9876045654, "lat": 43.1287778, "lon": 16.6205154, "tags": {"tourism": "viewpoint"}}, {"type": "node", "id": 1467298483, "lat": 43.127167, "lon": 16.6382535, "tags": {"amenity": "restaurant", "name": "Spila"}}, {"type": "node", "id": 1472132825, "lat": 43.1278293, "lon": 16.6395466, "tags": {"name": "Pekara Mateljan", "shop": "bakery", "source": "survey"}}, {"type": "node", "id": 1473078671, "lat": 43.1271496, "lon": 16.6386683, "tags": {"amenity": "cafe", "name": "Vartal", "source": "survey"}}, {"type": "node", "id": 1565164371, "lat": 43.1277381, "lon": 16.6395021, "tags": {"name": "Apartmani Carić", "tourism": "guest_house"}}, {"type": "node", "id": 5884015212, "lat": 43.1292446, "lon": 16.6344747, "tags": {"amenity": "restaurant"}}, {"type": "node", "id": 1474062017, "lat": 43.1285628, "lon": 16.6401673, "tags": {"name": "Lito market", "shop": "convenience"}}, {"type": "node", "id": 1565347828, "lat": 43.1267256, "lon": 16.6418466, "tags": {"name": "Arpina", "tourism": "guest_house"}}, {"type": "node", "id": 1565352739, "lat": 43.1269425, "lon": 16.64029, "tags": {"tourism": "guest_house"}}, {"type": "node", "id": 1565353337, "lat": 43.1269605, "lon": 16.6400264, "tags": {"tourism": "guest_house"}}, {"type": "node", "id": 1565359800, "lat": 43.1274274, "lon": 16.6397439, "tags": {"name": "Apartmani Plaza", "tourism": "guest_house"}}, {"type": "node", "id": 1571631091, "lat": 43.1297413, "lon": 16.6404462, "tags": {"tourism": "guest_house"}}, {"type": "node", "id": 1571633810, "lat": 43.1272919, "lon": 16.6397226, "tags": {"tourism": "guest_house"}}, {"type": "node", "id": 1803855774, "lat": 43.126365, "lon": 16.6441693, "tags": {"addr:place": "Ivan Dolac", "addr:postcode": "21465", "camp_site": "serviced", "contact:mobile": "+385 91 518 0203", "contact:phone": "+385 21 767 092", "description": "Difficult to impossible access for large mobile homes", "fee": "yes", "motor_vehicle": "yes", "name": "Auto Camp Paklina", "nudism": "no", "power_supply": "yes", "shower": "yes", "tents": "yes", "toilets": "yes", "tourism": "camp_site"}}, {"type": "node", "id": 1803855800, "lat": 43.1264773, "lon": 16.6439477, "tags": {"name": "Paklina", "tourism": "guest_house"}}, {"type": "node", "id": 11987672519, "lat": 43.1273492, "lon": 16.6399846, "tags": {"name": "Apartmani Lučić", "tourism": "guest_house"}}, {"type": "node", "id": 1571704966, "lat": 43.1511135, "lon": 16.6680837, "tags": {"tourism": "guest_house"}}, {"type": "node", "id": 1584635832, "lat": 43.1496326, "lon": 16.667871, "tags": {"amenity": "restaurant", "cuisine": "regional", "name": "Konoba \"Kod komina\""}}, {"type": "node", "id": 1803855522, "lat": 43.1491332, "lon": 16.6683178, "tags": {"amenity": "restaurant", "cuisine": "regional", "name": "Konoba \"Dvori Duboković\""}}, {"type": "node", "id": 2495874823, "lat": 43.14731, "lon": 16.6702044, "tags": {"tourism": "viewpoint"}}, {"type": "node", "id": 7788187485, "lat": 43.1524209, "lon": 16.650922, "tags": {"amenity": "restaurant", "name": "Konoba Vrisnik"}}, {"type": "node", "id": 2345402720, "lat": 43.1772179, "lon": 16.5681522, "tags": {"hiking": "yes", "information": "guidepost", "name": "Velo Grablje, Milna, Hvar, Stari Grad, Uvala Sv. Ante", "tourism": "information"}}, {"type": "node", "id": 9258491638, "lat": 43.1800851, "lon": 16.5716308, "tags": {"addr:housenumber": "11", "addr:postcode": "21460", "addr:street": "Uvala Maslinica", "air_conditioning": "yes", "bar": "yes", "check_date": "2025-03-27", "email": "relax@maslinaresort.com", "name": "Maslina Resort", "phone": "+385 21 888 700", "stars": "5", "tourism": "hotel", "website": "https://www.maslinaresort.com"}}, {"type": "node", "id": 1389727887, "lat": 43.1802786, "lon": 16.5773183, "tags": {"amenity": "cafe", "check_date": "2026-04-04", "internet_access": "wlan", "name": "North Port", "wheelchair": "yes"}}, {"type": "node", "id": 1795580382, "lat": 43.1801737, "lon": 16.5768804, "tags": {"amenity": "fast_food", "check_date": "2025-07-06", "name": "Daj griz"}}, {"type": "node", "id": 1811089250, "lat": 43.1802993, "lon": 16.5775868, "tags": {"amenity": "atm", "brand": "Erste Bank", "brand:wikidata": "Q696867", "brand:wikipedia": "de:Erste Bank", "check_date": "2025-07-06", "name": "Erste Bank", "operator": "Erste Bank", "operator:wikidata": "Q696867", "operator:wikipedia": "de:Erste Bank", "wheelchair": "yes"}}, {"type": "node", "id": 2340150433, "lat": 43.1800895, "lon": 16.5768686, "tags": {"name": "Stanić diskont", "shop": "convenience"}}, {"type": "node", "id": 2716792696, "lat": 43.1797626, "lon": 16.5755545, "tags": {"access": "customers", "amenity": "parking", "fee": "yes", "parking": "surface", "surface": "asphalt", "wheelchair": "yes"}}, {"type": "node", "id": 4401057699, "lat": 43.1795135, "lon": 16.5763701, "tags": {"branch": "Hipermarket", "brand": "Tommy", "brand:wikidata": "Q12643718", "brand:wikipedia": "hr:Tommy", "check_date": "2026-04-03", "level": "0", "name": "Tommy", "opening_hours": "Mo-Sa 07:00-22:00; Su 08:00-21:00", "operator": "Tommy", "shop": "supermarket"}}, {"type": "node", "id": 6723339189, "lat": 43.1796999, "lon": 16.5759274, "tags": {"amenity": "bicycle_parking", "bicycle_parking": "wall_loops", "capacity": "12", "covered": "no"}}, {"type": "node", "id": 6723339190, "lat": 43.1802811, "lon": 16.5770387, "tags": {"amenity": "atm", "wheelchair": "yes"}}, {"type": "node", "id": 6723339191, "lat": 43.17974, "lon": 16.5760261, "tags": {"amenity": "atm", "operator": "HPB", "wheelchair": "yes"}}, {"type": "node", "id": 12964102632, "lat": 43.1803535, "lon": 16.5769063, "tags": {"addr:housenumber": "1", "addr:street": "Trajektno pristanište", "check_date": "2025-06-30", "name": "Studenac", "shop": "convenience"}}, {"type": "node", "id": 12978289074, "lat": 43.1797484, "lon": 16.5794516, "tags": {"amenity": "fuel", "brand": "Shell", "brand:wikidata": "Q110716465", "check_date": "2025-07-06", "name": "Shell"}}, {"type": "node", "id": 12982883131, "lat": 43.1797422, "lon": 16.5796, "tags": {"amenity": "cafe", "check_date": "2025-07-06", "name": "Shell cafe"}}, {"type": "node", "id": 13703663251, "lat": 43.1805939, "lon": 16.5763554, "tags": {"information": "map", "map_size": "city", "map_type": "street", "tourism": "information"}}, {"type": "node", "id": 1056702535, "lat": 43.1820019, "lon": 16.5918715, "tags": {"amenity": "parking", "wheelchair": "yes"}}, {"type": "node", "id": 5073242706, "lat": 43.1838852, "lon": 16.5889102, "tags": {"name": "Stina od jubavi", "name:en": "The Rock of Love", "tourism": "artwork"}}, {"type": "node", "id": 9857844582, "lat": 43.1838539, "lon": 16.5920101, "tags": {"artwork_type": "bust", "name": "don Šime Ljubić", "tourism": "artwork"}}, {"type": "node", "id": 9857844592, "lat": 43.1838813, "lon": 16.5911649, "tags": {"board_type": "history", "information": "board", "name": "kuća iz 19. st.", "tourism": "information"}}, {"type": "node", "id": 9857844598, "lat": 43.1837394, "lon": 16.5914997, "tags": {"historic": "memorial", "memorial": "plaque", "name": "Rodna kuća Jurja Plančića"}}, {"type": "node", "id": 12922524757, "lat": 43.1818541, "lon": 16.5903564, "tags": {"addr:city": "Stari Grad", "addr:housenumber": "31", "addr:postcode": "21460", "addr:street": "Vukovarska cesta", "name": "Hvar.Life", "opening_hours": "Mo-Su 09:00-20:00", "operator": "Sport LIfe d.o.o", "payment:cash": "yes", "payment:contactless": "yes", "payment:credit_cards": "yes", "payment:debit_cards": "yes", "phone": "+385 98 187 1950", "service:bicycle:bicycle": "yes", "service:bicycle:bike": "yes", "service:bicycle:chain_tool": "yes", "service:bicycle:charging": "yes", "service:bicycle:cleaning": "yes", "service:bicycle:clothing": "yes", "service:bicycle:ebike": "yes", "service:bicycle:mtb": "yes", "service:bicycle:parts": "yes", "service:bicycle:pump": "yes", "service:bicycle:rental": "yes", "service:bicycle:repair": "yes", "service:bicycle:sales": "yes", "service:bicycle:service": "yes", "service:bicycle:stand": "yes", "service:bicycle:tools": "yes", "shop": "bicycle"}}, {"type": "node", "id": 999096869, "lat": 43.1872437, "lon": 16.5868895, "tags": {"amenity": "parking", "wheelchair": "yes"}}, {"type": "node", "id": 1024910893, "lat": 43.1879464, "lon": 16.5856706, "tags": {"amenity": "parking", "wheelchair": "yes"}}, {"type": "node", "id": 1027956694, "lat": 43.1866265, "lon": 16.5873323, "tags": {"access": "yes", "amenity": "parking", "fee": "no", "parking": "surface", "wheelchair": "yes"}}, {"type": "node", "id": 1258380826, "lat": 43.185854, "lon": 16.5902328, "tags": {"amenity": "restaurant", "cuisine": "regional", "name": "Eremitaž", "opening_hours": "Mo-Su 18:00-24:00", "wheelchair": "no"}}, {"type": "node", "id": 6723339193, "lat": 43.1860222, "lon": 16.5901635, "tags": {"amenity": "restaurant", "cuisine": "regional", "name": "Jerolim", "wheelchair": "no"}}, {"type": "node", "id": 6723339203, "lat": 43.1857937, "lon": 16.5887646, "tags": {"amenity": "restaurant", "name": "Triton"}}, {"type": "node", "id": 6723339204, "lat": 43.185733, "lon": 16.5886356, "tags": {"amenity": "cafe", "name": "Banj"}}, {"type": "node", "id": 9563610817, "lat": 43.1704301, "lon": 16.6027022, "tags": {"information": "board", "name": "Purkin kuk", "note": "unreadable", "tourism": "information"}}, {"type": "node", "id": 9563610818, "lat": 43.1705883, "lon": 16.6023624, "tags": {"tourism": "viewpoint"}}, {"type": "node", "id": 9875330553, "lat": 43.1715536, "lon": 16.6066304, "tags": {"tourism": "picnic_site"}}, {"type": "node", "id": 2381895892, "lat": 43.1684843, "lon": 16.6131962, "tags": {"amenity": "cafe", "name": "Caffe bar Trocadero"}}, {"type": "node", "id": 12142941239, "lat": 43.1712693, "lon": 16.6146442, "tags": {"amenity": "restaurant", "name": "Gostionica \"Santa Marija\" - OPG Stančić"}}, {"type": "node", "id": 3696667389, "lat": 43.1759893, "lon": 16.6076681, "tags": {"information": "board", "name": "Starogradsko polje", "tourism": "information"}}, {"type": "node", "id": 5948742971, "lat": 43.1779472, "lon": 16.6151583, "tags": {"information": "board", "name": "Put Farskog poslanstva", "tourism": "information"}}, {"type": "node", "id": 5948743691, "lat": 43.1772909, "lon": 16.6143035, "tags": {"information": "board", "name": "Kupinovik", "tourism": "information"}}, {"type": "node", "id": 5948743692, "lat": 43.1770181, "lon": 16.6152516, "tags": {"information": "board", "name": "Glorijin put", "tourism": "information", "wikimedia_commons": "File:Info tabla Glorijin put.jpg"}}, {"type": "node", "id": 7223502379, "lat": 43.1749354, "lon": 16.6137085, "tags": {"historic": "memorial"}}, {"type": "node", "id": 1024882863, "lat": 43.1848963, "lon": 16.5960688, "tags": {"historic": "memorial", "memorial": "statue", "wheelchair": "limited"}}, {"type": "node", "id": 1024920616, "lat": 43.1830901, "lon": 16.5956999, "tags": {"historic": "memorial", "material": "stone", "memorial": "bust", "name": "Petar Hektorović 1487-1572", "source": "survey", "subject:wikidata": "Q1285112", "subject:wikipedia": "en:Petar Hektorović", "wheelchair": "yes"}}, {"type": "node", "id": 1025368924, "lat": 43.1838557, "lon": 16.5981861, "tags": {"amenity": "restaurant", "cuisine": "croatian;pasta;regional;seafood", "name": "Antika", "opening_hours": "Mo-Su 12:00-23:00", "wheelchair": "no"}}, {"type": "node", "id": 1027978854, "lat": 43.1843267, "lon": 16.598209, "tags": {"name": "Studenac", "opening_hours": "Mo-Sa 08:00-23:00; Su 08:00-23:00", "shop": "convenience", "wheelchair": "no"}}, {"type": "node", "id": 1027986104, "lat": 43.1841543, "lon": 16.5987491, "tags": {"amenity": "cafe", "name": "Ploča 85", "wheelchair": "limited"}}, {"type": "node", "id": 1038263534, "lat": 43.1847016, "lon": 16.5992905, "tags": {"addr:city": "Stari Grad", "addr:housenumber": "1", "addr:postcode": "21460", "addr:street": "Obala doktor Franje Tuđmana", "information": "Tourist_info_center", "name": "Turistička zajednica grada Starog Grada", "operator": "Tourism Board Stari Grad", "tourism": "information"}}, {"type": "node", "id": 1058881017, "lat": 43.1837624, "lon": 16.5948801, "tags": {"amenity": "cafe", "cuisine": "coffee_shop", "indoor_seating": "yes", "name": "Gradska kavana \"Espresso\"", "old_name": "Gradska kavana", "outdoor_seating": "yes", "wheelchair": "limited"}}, {"type": "node", "id": 1151236628, "lat": 43.1847567, "lon": 16.5994048, "tags": {"name": "Tepic", "shop": "bakery", "wheelchair": "no"}}, {"type": "node", "id": 1257034195, "lat": 43.1832684, "lon": 16.5954268, "tags": {"amenity": "cafe", "internet_access": "wlan", "name": "M & M", "opening_hours": "08:00-02:00"}}, {"type": "node", "id": 1257034197, "lat": 43.1834297, "lon": 16.5957737, "tags": {"amenity": "cafe", "internet_access": "wlan", "name": "Sokol", "opening_hours": "08:00-01:00"}}, {"type": "node", "id": 1257034207, "lat": 43.18321, "lon": 16.595804, "tags": {"amenity": "cafe", "internet_access": "wlan", "name": "Molo misto", "wheelchair": "limited"}}, {"type": "node", "id": 1257922014, "lat": 43.1839938, "lon": 16.5977773, "tags": {"amenity": "restaurant", "name": "Jurin Podrum", "opening_hours": "Mo-Su 12:00-23:00"}}, {"type": "node", "id": 1257922181, "lat": 43.183543, "lon": 16.5969781, "tags": {"amenity": "restaurant", "name": "Pharia"}}, {"type": "node", "id": 1260600629, "lat": 43.1837603, "lon": 16.5958076, "tags": {"amenity": "cafe", "name": "Lampedusa"}}, {"type": "node", "id": 1271073634, "lat": 43.1839507, "lon": 16.5987486, "tags": {"name": "Pekara Paris", "shop": "bakery", "source": "survey", "wheelchair": "no"}}, {"type": "node", "id": 1371326330, "lat": 43.1844346, "lon": 16.5992597, "tags": {"amenity": "cafe", "check_date": "2025-06-30", "name": "Casper", "wheelchair": "yes"}}, {"type": "node", "id": 1371977157, "lat": 43.1843614, "lon": 16.5974879, "tags": {"amenity": "restaurant", "name": "Đardin", "source": "survey"}}, {"type": "node", "id": 1400932805, "lat": 43.184884, "lon": 16.5963623, "tags": {"historic": "memorial", "memorial": "plaque", "wheelchair": "limited"}}, {"type": "node", "id": 1794940505, "lat": 43.1841391, "lon": 16.5996712, "tags": {"amenity": "drinking_water", "description": "Not functional 04/2018", "wheelchair": "no"}}, {"type": "node", "id": 1950622074, "lat": 43.1839773, "lon": 16.5966953, "tags": {"addr:city": "Stari Grad", "addr:country": "HR", "addr:housenumber": "9", "addr:street": "Trg Mola Podloža", "amenity": "restaurant", "cuisine": "pizza", "name": "Mola podloža", "opening_hours": "Mo-Su 12:00-01:00", "operator": "Antoneta Potočnjak", "source": "survey", "wheelchair": "no"}}, {"type": "node", "id": 1950622270, "lat": 43.1843268, "lon": 16.5967237, "tags": {"name": "Kraljica mira", "shop": "bakery", "wheelchair": "no"}}, {"type": "node", "id": 1951273943, "lat": 43.1838445, "lon": 16.5959196, "tags": {"amenity": "cafe", "name": "Neptun"}}, {"type": "node", "id": 1951284762, "lat": 43.1839851, "lon": 16.5964305, "tags": {"name": "Pekara", "shop": "bakery", "wheelchair": "no"}}, {"type": "node", "id": 1951285554, "lat": 43.1841399, "lon": 16.5965556, "tags": {"amenity": "cafe", "name": "Ice cafe", "wheelchair": "limited"}}, {"type": "node", "id": 1951290920, "lat": 43.1835019, "lon": 16.5957713, "tags": {"addr:city": "Stari Grad", "addr:postcode": "21460", "addr:street": "Trg Tv. Petra Hektorovića 1-2,", "amenity": "restaurant", "cuisine": "croatian", "name": "Odisej Restaurant", "phone": "091 572 7294", "wheelchair": "yes"}}, {"type": "node", "id": 1951291328, "lat": 43.1835766, "lon": 16.5957677, "tags": {"addr:city": "Stari Grad", "addr:housenumber": "1", "addr:postcode": "21460", "addr:street": "Ul. Petra Niziteta", "amenity": "restaurant", "cuisine": "fish;mediterranean;croatian;seafood", "description": "Seafood, Local, Mediterranean food", "internet_access": "wlan", "name": "Kod barba Luke", "opening_hours": "Mo-Su 08:00-00:00", "outdoor_seating": "yes", "phone": "+385915945718", "wheelchair": "yes"}}, {"type": "node", "id": 2183651295, "lat": 43.1840674, "lon": 16.5992759, "tags": {"amenity": "restaurant", "cuisine": "pasta", "name": "Kod Damira", "opening_hours": "Mo-Su 09:00-23:00", "source": "survey", "website": "http://www.kod-damira.hr", "wheelchair": "limited"}}, {"type": "node", "id": 2282025340, "lat": 43.1836646, "lon": 16.5998968, "tags": {"addr:housenumber": "2", "addr:street": "Ulica don Mihovila Pavlinovića", "email": "hostel.starigrad@gmail.com", "name": "Hostel Sunce", "phone": "+385 921065152", "tourism": "hostel", "website": "http://hostelsunce.freshcreator.com/"}}, {"type": "node", "id": 2340150440, "lat": 43.184667, "lon": 16.5993882, "tags": {"amenity": "atm", "brand": "PBZ", "brand:wikidata": "Q7246343", "name": "PBZ", "operator": "PBZ", "operator:wikidata": "Q7246343", "wheelchair": "no"}}, {"type": "node", "id": 3696667387, "lat": 43.1843481, "lon": 16.59986, "tags": {"information": "map", "name": "Starogradsko polje", "tourism": "information"}}, {"type": "node", "id": 4371330893, "lat": 43.1841513, "lon": 16.59846, "tags": {"addr:city": "Stari Grad", "addr:housenumber": "6", "addr:postcode": "21460", "addr:street": "Ulica Marina Držića", "amenity": "restaurant", "cuisine": "seafood;mediterranean;european;croatian;italian", "opening_hours": "12:00-01:00"}}, {"type": "node", "id": 4975365904, "lat": 43.1843296, "lon": 16.5998587, "tags": {"information": "map", "name": "Stari Grad", "tourism": "information"}}, {"type": "node", "id": 4975365905, "lat": 43.1843347, "lon": 16.6001886, "tags": {"historic": "memorial", "inscription": "Εορταζοντας 2400 χρόνια από την ίδρυση της Φάρου, αποικιας των Παριων στο χροατικό νηοι τον Hvar, οι δυο λαοί του Hvar και της Παριου ανεγείρουν αυτό το μνημείο εις ενδειξιν φιλίας και συνεργασίας.", "memorial": "memorial", "name": "2400 godina Farosa", "name:en": "2400 years of Pharos"}}, {"type": "node", "id": 5127908621, "lat": 43.1838701, "lon": 16.5990859, "tags": {"name": "Pekara \"Kraljica Mira\"", "shop": "bakery"}},