{"id": "53--3", "latMin": 53, "lonMin": -3, "latMax": 54, "lonMax": -2, "generated": "2026-04-16T18:39:08.675Z", "count": 31, "pois": [{"type": "node", "id": 3771155569, "lat": 53.812189, "lon": -3.049169, "tags": {"amenity": "charging_station", "operator": "Nissan", "name": "Ladestation Nissan", "addr:country": "GB", "_source": "worldwide"}}, {"type": "node", "id": 3874091357, "lat": 53.267883, "lon": -3.518777, "tags": {"amenity": "charging_station", "name": "EV Rapid charge point CCS Chademo", "addr:country": "GB", "_source": "worldwide"}}, {"type": "node", "id": 1413936033, "lat": 53.2705, "lon": -3.518643, "tags": {"amenity": "charging_station", "addr:country": "GB", "_source": "worldwide"}}, {"type": "node", "id": 5198169779, "lat": 53.274039, "lon": -3.306417, "tags": {"amenity": "charging_station", "addr:country": "GB", "_source": "worldwide"}}, {"type": "node", "id": 5378225619, "lat": 53.833464, "lon": -3.054757, "tags": {"amenity": "charging_station", "addr:country": "GB", "_source": "worldwide"}}, {"type": "node", "id": 7764706689, "lat": 53.877607, "lon": -3.044905, "tags": {"amenity": "charging_station", "addr:country": "GB", "_source": "worldwide"}}, {"type": "node", "id": 7764706691, "lat": 53.927674, "lon": -3.008527, "tags": {"amenity": "charging_station", "addr:country": "GB", "_source": "worldwide"}}, {"type": "node", "id": 8254755086, "lat": 53.182203, "lon": -3.424421, "tags": {"amenity": "charging_station", "access": "yes", "addr:country": "GB", "capacity": "2", "_source": "worldwide"}}, {"type": "node", "id": 8954310249, "lat": 53.092124, "lon": -3.80313, "tags": {"amenity": "charging_station", "access": "yes", "fee": "yes", "brand": "BP Pulse", "operator": "BP Pulse", "name": "BP Pulse - BP Pulse", "addr:country": "GB", "capacity": "2", "_source": "worldwide"}}, {"type": "node", "id": 9688692892, "lat": 53.233464, "lon": -3.804747, "tags": {"amenity": "charging_station", "access": "yes", "operator": "ChargeMaster", "name": "ChargeMaster - Chargemaster", "addr:country": "GB", "socket:type2": "2", "socket:type2:output": "22 kW", "charging_station:output": "22 kW", "capacity": "2", "_source": "worldwide"}}, {"type": "node", "id": 9803569889, "lat": 53.795543, "lon": -3.053484, "tags": {"amenity": "charging_station", "addr:country": "GB", "_source": "worldwide"}}, {"type": "node", "id": 9895799946, "lat": 53.304842, "lon": -3.469584, "tags": {"amenity": "charging_station", "operator": "InstaVolt", "name": "Instavolt charger at Mc Donalds Rhyl", "addr:country": "GB", "_source": "worldwide"}}, {"type": "node", "id": 9931064086, "lat": 53.232227, "lon": -3.142078, "tags": {"amenity": "charging_station", "access": "yes", "fee": "yes", "brand": "Tesla Supercharger", "opening_hours": "24/7", "operator": "Tesla", "name": "Flint Mountain Supercharger", "addr:street": "Northop Road", "addr:postcode": "CH6 5QG", "addr:city": "Flint", "addr:country": "GB", "socket:type2_combo": "8", "socket:type2_combo:output": "250.0 kW", "charging_station:output": "250.0 kW", "capacity": "8", "_source": "worldwide"}}, {"type": "node", "id": 10208222487, "lat": 53.823874, "lon": -3.038918, "tags": {"amenity": "charging_station", "addr:country": "GB", "_source": "worldwide"}}, {"type": "node", "id": 1493060843, "lat": 53.823543, "lon": -3.040171, "tags": {"amenity": "charging_station", "brand": "Source", "operator": "Source", "name": "Source Charging Station", "addr:country": "GB", "capacity": "12", "_source": "worldwide"}}, {"type": "node", "id": 10242403766, "lat": 53.206585, "lon": -3.024692, "tags": {"amenity": "charging_station", "access": "yes", "addr:country": "GB", "capacity": "4", "_source": "worldwide"}}, {"type": "node", "id": 10307452228, "lat": 53.284485, "lon": -3.815111, "tags": {"amenity": "charging_station", "access": "yes", "fee": "yes", "operator": "Pod Point", "name": "Ladestation Pod Point", "addr:country": "GB", "socket:type2": "1", "socket:type2:output": "43.0 kW", "socket:type2_combo": "1", "socket:type2_combo:output": "50.0 kW", "socket:chademo": "1", "socket:chademo:output": "50.0 kW", "charging_station:output": "50.0 kW", "capacity": "2", "_source": "worldwide"}}, {"type": "node", "id": 10683150307, "lat": 53.119818, "lon": -3.325324, "tags": {"amenity": "charging_station", "access": "yes", "operator": "ALDI", "name": "Ladestation ALDI", "addr:country": "GB", "capacity": "2", "_source": "worldwide"}}, {"type": "node", "id": 10875150086, "lat": 53.852299, "lon": -3.039339, "tags": {"amenity": "charging_station", "addr:country": "GB", "capacity": "2", "_source": "worldwide"}}, {"type": "node", "id": 11844947071, "lat": 53.29132, "lon": -3.828733, "tags": {"amenity": "charging_station", "addr:country": "GB", "_source": "worldwide"}}, {"type": "node", "id": 11854125899, "lat": 53.166357, "lon": -3.136996, "tags": {"amenity": "charging_station", "operator": "Pod Point", "name": "Ladestation Pod Point", "addr:country": "GB", "capacity": "4", "_source": "worldwide"}}, {"type": "node", "id": 11968465319, "lat": 53.28937, "lon": -3.062308, "tags": {"amenity": "charging_station", "access": "yes", "fee": "yes", "brand": "GeniePoint", "network": "GeniePoint", "operator": "GeniePoint", "name": "GeniePoint - GeniePoint", "addr:country": "GB", "capacity": "4", "_source": "worldwide"}}, {"type": "node", "id": 12138989315, "lat": 53.259314, "lon": -3.982149, "tags": {"amenity": "charging_station", "addr:country": "GB", "_source": "worldwide"}}, {"type": "node", "id": 12197400543, "lat": 53.117781, "lon": -3.308936, "tags": {"amenity": "charging_station", "access": "yes", "fee": "yes", "network": "Evolt", "operator": "Evolt", "name": "Ladestation Evolt", "addr:country": "GB", "socket:type2": "2", "socket:type2:output": "22.0 kW", "charging_station:output": "22.0 kW", "capacity": "2", "_source": "worldwide"}}, {"type": "node", "id": 12730781453, "lat": 53.812376, "lon": -3.028, "tags": {"amenity": "charging_station", "access": "yes", "fee": "yes", "operator": "Blackpool Council", "name": "Ladestation Blackpool Council", "addr:country": "GB", "socket:type2": "2", "socket:type2:output": "22 kW", "charging_station:output": "22 kW", "capacity": "2", "_source": "worldwide"}}, {"type": "node", "id": 12750067464, "lat": 53.926758, "lon": -3.015998, "tags": {"amenity": "charging_station", "brand": "Blink", "operator": "Blink", "name": "Blink", "addr:country": "GB", "capacity": "6", "_source": "worldwide"}}, {"type": "node", "id": 13077746170, "lat": 53.334637, "lon": -3.097027, "tags": {"amenity": "charging_station", "addr:country": "GB", "_source": "worldwide"}}, {"type": "node", "id": 13077762142, "lat": 53.329203, "lon": -3.103118, "tags": {"amenity": "charging_station", "access": "yes", "addr:country": "GB", "_source": "worldwide"}}, {"type": "node", "id": 13077764460, "lat": 53.353949, "lon": -3.082851, "tags": {"amenity": "charging_station", "addr:country": "GB", "_source": "worldwide"}}, {"type": "node", "id": 13730258101, "lat": 53.333282, "lon": -3.019409, "tags": {"amenity": "charging_station", "opening_hours": "24/7", "operator": "Instavolt", "name": "Ladestation Instavolt", "addr:country": "GB", "_source": "worldwide"}}, {"type": "node", "id": 1499460808, "lat": 53.526899, "lon": -3.031484, "tags": {"amenity": "charging_station", "access": "customers", "fee": "yes", "brand": "evpoint", "operator": "EuroGarages", "name": "EuroGarages - evpoint", "addr:country": "GB", "socket:type2_combo": "4", "socket:type2_combo:output": "150.0 kW", "charging_station:output": "150.0 kW", "capacity": "4", "_source": "worldwide"}}]}