{"id": "40--82", "latMin": 40, "lonMin": -82, "latMax": 41, "lonMax": -81, "generated": "2026-04-16T18:39:07.803Z", "count": 11, "pois": [{"type": "node", "id": 6720133474, "lat": 40.003566, "lon": -81.575028, "tags": {"amenity": "charging_station", "fee": "yes", "access": "customers", "opening_hours": "24/7", "brand": "Tesla Supercharger", "network": "Supercharger", "operator": "Tesla, Inc.", "name": "Cambridge Supercharger", "addr:street": "Southgate Parkway", "addr:housenumber": "2101", "addr:postcode": "43725", "addr:city": "Cambridge", "addr:country": "US", "capacity": "8", "_source": "worldwide"}}, {"type": "node", "id": 9546319447, "lat": 40.851106, "lon": -81.422619, "tags": {"amenity": "charging_station", "brand": "ChargePoint", "operator": "ChargePoint", "name": "ChargePoint", "_source": "worldwide"}}, {"type": "node", "id": 9558649497, "lat": 40.878584, "lon": -81.44227, "tags": {"amenity": "charging_station", "brand": "ChargePoint", "operator": "ChargePoint", "name": "ChargePoint", "_source": "worldwide"}}, {"type": "node", "id": 9561557735, "lat": 40.874211, "lon": -81.441246, "tags": {"amenity": "charging_station", "brand": "ChargePoint", "operator": "ChargePoint", "name": "ChargePoint", "_source": "worldwide"}}, {"type": "node", "id": 9577754620, "lat": 40.914477, "lon": -81.435261, "tags": {"amenity": "charging_station", "brand": "ChargePoint", "operator": "ChargePoint", "name": "ChargePoint", "_source": "worldwide"}}, {"type": "node", "id": 9675899489, "lat": 40.822369, "lon": -81.393601, "tags": {"amenity": "charging_station", "name": "EV Charging Station", "_source": "worldwide"}}, {"type": "node", "id": 11172812402, "lat": 40.873176, "lon": -81.332554, "tags": {"amenity": "charging_station", "fee": "yes", "access": "yes", "brand": "ChargePoint", "operator": "ChargePoint", "name": "ChargePoint Charging Station", "_source": "worldwide"}}, {"type": "node", "id": 11943944576, "lat": 40.799441, "lon": -81.939336, "tags": {"amenity": "charging_station", "fee": "yes", "access": "yes", "brand": "ChargePoint", "operator": "ChargePoint", "name": "ChargePoint", "_source": "worldwide"}}, {"type": "node", "id": 12944743914, "lat": 40.87183, "lon": -81.42232, "tags": {"amenity": "charging_station", "fee": "yes", "access": "yes", "opening_hours": "24/7", "brand": "Tesla Supercharger", "network": "Supercharger", "operator": "Tesla, Inc.", "name": "North Canton Supercharger", "addr:street": "Whipple Avenue Northwest", "addr:housenumber": "6215", "addr:postcode": "44720", "addr:city": "North Canton", "addr:country": "US", "capacity": "8", "_source": "worldwide"}}, {"type": "node", "id": 12944743924, "lat": 40.49407, "lon": -81.47356, "tags": {"amenity": "charging_station", "fee": "yes", "access": "yes", "opening_hours": "24/7", "brand": "Tesla Supercharger", "network": "Supercharger", "operator": "Tesla, Inc.", "name": "New Philadelphia Supercharger", "addr:street": "West High Avenue", "addr:housenumber": "1281", "addr:postcode": "44663", "addr:city": "New Philadelphia", "addr:country": "US", "capacity": "12", "_source": "worldwide"}}, {"type": "node", "id": 12963660646, "lat": 40.795616, "lon": -81.947056, "tags": {"amenity": "charging_station", "access": "yes", "opening_hours": "24/7", "network": "Red E", "name": "EV Charging Station", "addr:street": "South Columbus Road", "addr:housenumber": "220", "addr:postcode": "44691", "addr:city": "Wooster", "addr:country": "US", "socket:chademo": "1", "socket:type1_combo": "3", "capacity": "4", "_source": "worldwide"}}]}