{"id": "39-26", "latMin": 39, "lonMin": 26, "latMax": 40, "lonMax": 27, "generated": "2026-04-16T18:39:07.768Z", "count": 3584, "pois": [{"type": "node", "id": 364713466, "lat": 39.0066955, "lon": 26.1701507, "tags": {"denomination": "greek_orthodox", "historic": "archaeological_site", "name": "Ναός Διονύσου του Βρησαγενούς", "name:de": "Temple Dionysia", "name:el": "Ναός Διονύσου του Βρησαγενούς", "wikidata": "Q115674398"}}, {"type": "node", "id": 364715133, "lat": 39.0075447, "lon": 26.1697329, "tags": {"amenity": "restaurant", "cuisine": "regional;fish", "int_name": "Akrotíri", "name": "Ακρωτήρι"}}, {"type": "node", "id": 12002277535, "lat": 39.0177428, "lon": 26.178028, "tags": {"name": "Το πηγάδι του Αχιλλέα", "tourism": "attraction"}}, {"type": "node", "id": 4258551439, "lat": 39.018149, "lon": 26.1860439, "tags": {"name": "Κολιόπουλος", "opening_hours": "PH,Mo-Su 08:00-21:00", "shop": "supermarket"}}, {"type": "node", "id": 2999675016, "lat": 39.0199565, "lon": 26.1979691, "tags": {"amenity": "restaurant", "name": "Θαλασσα", "name:el": "Θαλασσα", "name:en": "Thalassa"}}, {"type": "node", "id": 3805405911, "lat": 39.0195883, "lon": 26.2018738, "tags": {"amenity": "fast_food", "name": "Καραϊσκος", "name:el": "Καραϊσκος", "name:en": "Karaiskos"}}, {"type": "node", "id": 11962084454, "lat": 39.0196254, "lon": 26.2019756, "tags": {"amenity": "cafe", "name": "1926"}}, {"type": "node", "id": 4267835663, "lat": 39.0195278, "lon": 26.2092023, "tags": {"amenity": "restaurant", "check_date:opening_hours": "2021-08-05", "name": "Καλαμάκια", "name:el": "Καλαμάκια", "name:en": "Kalamakia"}}, {"type": "node", "id": 4557004634, "lat": 39.0193673, "lon": 26.2104257, "tags": {"amenity": "restaurant", "diet:gluten_free": "yes", "diet:halal": "yes", "diet:kosher": "yes", "diet:lactose_free": "yes", "diet:pescetarian": "yes", "name": "Κοζανίτης"}}, {"type": "node", "id": 495023652, "lat": 39.0170206, "lon": 26.2330351, "tags": {"name": "Irini", "tourism": "hotel"}}, {"type": "node", "id": 2768148298, "lat": 39.016903, "lon": 26.2295858, "tags": {"amenity": "cafe", "name": "El Sol"}}, {"type": "node", "id": 13727313104, "lat": 39.023099, "lon": 26.415623, "tags": {"amenity": "drinking_water", "name": "Water"}}, {"type": "node", "id": 7769494338, "lat": 39.0118863, "lon": 26.5343241, "tags": {"tourism": "viewpoint"}}, {"type": "node", "id": 7769543712, "lat": 39.0166352, "lon": 26.5420035, "tags": {"tourism": "information"}}, {"type": "node", "id": 3614701782, "lat": 39.0215162, "lon": 26.5303425, "tags": {"tourism": "hotel"}}, {"type": "node", "id": 7769539769, "lat": 39.0184269, "lon": 26.5321748, "tags": {"amenity": "drinking_water"}}, {"type": "node", "id": 2380781392, "lat": 39.0164529, "lon": 26.5422872, "tags": {"amenity": "restaurant", "cuisine": "greek", "outdoor_seating": "terrace"}}, {"type": "node", "id": 10873487777, "lat": 39.0165813, "lon": 26.5424668, "tags": {"man_made": "water_well"}}, {"type": "node", "id": 10873539592, "lat": 39.0165671, "lon": 26.5423594, "tags": {"information": "board", "tourism": "information"}}, {"type": "node", "id": 3864800882, "lat": 39.020599, "lon": 26.5533194, "tags": {"name": "Blue Sea", "tourism": "hotel"}}, {"type": "node", "id": 3864810166, "lat": 39.020029, "lon": 26.5641722, "tags": {"amenity": "restaurant"}}, {"type": "node", "id": 3864812262, "lat": 39.019348, "lon": 26.5627172, "tags": {"name": "Χαραμίδα", "tourism": "hotel"}}, {"type": "node", "id": 10873514469, "lat": 39.018715, "lon": 26.5723235, "tags": {"amenity": "shelter"}}, {"type": "node", "id": 10873527135, "lat": 39.0134596, "lon": 26.5873046, "tags": {"amenity": "shelter", "shelter_type": "gazebo"}}, {"type": "node", "id": 599434130, "lat": 39.0165667, "lon": 26.5928751, "tags": {"tourism": "viewpoint"}}, {"type": "node", "id": 10873537589, "lat": 39.0116149, "lon": 26.5967, "tags": {"amenity": "shelter", "shelter_type": "gazebo"}}, {"type": "node", "id": 4794228293, "lat": 39.0150365, "lon": 26.6099839, "tags": {"leisure": "picnic_table", "material": "wood"}}, {"type": "node", "id": 4794228294, "lat": 39.0149397, "lon": 26.6106328, "tags": {"leisure": "picnic_table", "material": "wood"}}, {"type": "node", "id": 4794228307, "lat": 39.014911, "lon": 26.6102791, "tags": {"leisure": "picnic_table", "material": "wood"}}, {"type": "node", "id": 8464411189, "lat": 39.0101075, "lon": 26.7973143, "tags": {"addr:city": "İzmir", "addr:district": "Dikili", "addr:neighbourhood": "Kalem Adası", "name": "Oliviera Resort", "phone": "+90 232 677 80 23", "tourism": "hotel"}}, {"type": "node", "id": 9744981656, "lat": 39.1335398, "lon": 26.0040661, "tags": {"amenity": "parking"}}, {"type": "node", "id": 12155166420, "lat": 39.1318129, "lon": 26.0032086, "tags": {"amenity": "pharmacy", "healthcare": "pharmacy"}}, {"type": "node", "id": 12155166421, "lat": 39.1316746, "lon": 26.0032824, "tags": {"amenity": "cafe"}}, {"type": "node", "id": 4820873369, "lat": 39.8196141, "lon": 26.0044036, "tags": {"name": "Merve Bağ Evi Pansiyon", "tourism": "hotel"}}, {"type": "node", "id": 12384312785, "lat": 39.8200632, "lon": 26.0021791, "tags": {"alt_name": "Sukha Inn Hotel & Beach", "contact:phone": "+90 532 476 30 96", "name": "Sukha Otel", "tourism": "hotel"}}, {"type": "node", "id": 364722751, "lat": 39.0785014, "lon": 26.0847621, "tags": {"created_by": "Potlatch 0.10f", "tourism": "viewpoint"}}, {"type": "node", "id": 12812445842, "lat": 39.1055382, "lon": 26.0898081, "tags": {"access": "yes", "amenity": "drinking_water", "bottle": "yes", "covered": "no", "fee": "no", "indoor": "no"}}, {"type": "node", "id": 2637797068, "lat": 39.1065362, "lon": 26.0910406, "tags": {"amenity": "restaurant", "cuisine": "greek", "name": "Καργιανή"}}, {"type": "node", "id": 2637797060, "lat": 39.1101731, "lon": 26.0953121, "tags": {"amenity": "restaurant", "check_date": "2025-05-05", "cuisine": "greek", "name": "Του Χοντρού"}}, {"type": "node", "id": 12811251417, "lat": 39.1148565, "lon": 26.1029543, "tags": {"information": "qr_code", "tourism": "information"}}, {"type": "node", "id": 2678315106, "lat": 39.1161005, "lon": 26.1026933, "tags": {"historic": "archaeological_site", "name": "Ροδότοιχος ή Καλόχτιστος", "wikidata": "Q115674371"}}, {"type": "node", "id": 8250907696, "lat": 39.0376088, "lon": 26.1423906, "tags": {"name": "Δύο Εκκλησιές", "tourism": "attraction"}}, {"type": "node", "id": 364720446, "lat": 39.0733041, "lon": 26.1186652, "tags": {"created_by": "Potlatch 0.10f", "tourism": "viewpoint"}}, {"type": "node", "id": 8382964382, "lat": 39.0445154, "lon": 26.1797427, "tags": {"castle_type": "tower", "historic": "castle", "historic:civilization": "medieval", "image": "https://www.kastra.eu/pics/vrisa3.jpg", "name": "Παλαιόπυργος Βρίσας", "name:el": "Παλιόπυργος Βρίσας", "name:en": "Paliopyrgos of Vrisa", "source": "https://www.kastra.eu/castlegr.php?kastro=vrisa", "start_date": "1355", "wikidata": "Q108612740"}}, {"type": "node", "id": 367173417, "lat": 39.0466434, "lon": 26.1832708, "tags": {"created_by": "Potlatch 0.10f", "tourism": "viewpoint"}}, {"type": "node", "id": 367160694, "lat": 39.0289218, "lon": 26.1920693, "tags": {"created_by": "Potlatch 0.10f", "tourism": "viewpoint"}}, {"type": "node", "id": 369338120, "lat": 39.0375958, "lon": 26.19869, "tags": {"amenity": "fuel", "brand": "EKO", "brand:wikidata": "Q31283948", "name": "EKO", "operator": "ΒΑΛΗΛΗΣ ΕΥΑΓΓΕΛΟΣ"}}, {"type": "node", "id": 369731987, "lat": 39.0401787, "lon": 26.2009153, "tags": {"shop": "bakery"}}, {"type": "node", "id": 369731988, "lat": 39.040349, "lon": 26.2007638, "tags": {"shop": "supermarket"}}, {"type": "node", "id": 369731990, "lat": 39.0389403, "lon": 26.1996066, "tags": {"tourism": "viewpoint"}}, {"type": "node", "id": 2266859888, "lat": 39.0377288, "lon": 26.1986943, "tags": {"amenity": "parking"}}, {"type": "node", "id": 4921939516, "lat": 39.0396197, "lon": 26.1989218, "tags": {"name": "Συλλογή Φυσικής Ιστορίας", "name:de": "Naturhistorische Sammlung", "name:el": "Συλλογή Φυσικής Ιστορίας", "name:en": "Natural History Collection", "tourism": "museum", "website": "http://vrisa.geol.uoa.gr/"}}, {"type": "node", "id": 9770076928, "lat": 39.0471676, "lon": 26.1984684, "tags": {"amenity": "fuel", "brand": "Aegean", "brand:wikidata": "Q28146598", "name": "AEGEAN", "operator": "ΚΑΡΑΪΣΚΟΥ ΕΙΡΗΝΗ", "phone": "+302252061870"}}, {"type": "node", "id": 3838713511, "lat": 39.0729396, "lon": 26.2007007, "tags": {"name": "Thermal spa", "name:en": "Thermal spa", "natural": "spring"}}, {"type": "node", "id": 495033719, "lat": 39.088276, "lon": 26.1274182, "tags": {"name": "Nifida Beach Hotel", "tourism": "hotel"}}, {"type": "node", "id": 4721548353, "lat": 39.0889215, "lon": 26.1262721, "tags": {"amenity": "cafe", "name": "Las Olas", "opening_hours": "PH,Mo-Su 09:00-23:00"}}, {"type": "node", "id": 3024258339, "lat": 39.0869914, "lon": 26.1303231, "tags": {"amenity": "restaurant", "name": "ο Γρηγόρης"}}, {"type": "node", "id": 6791466285, "lat": 39.0934739, "lon": 26.1191995, "tags": {"amenity": "cafe", "name:ru": "Таверна"}}, {"type": "node", "id": 366954937, "lat": 39.0874137, "lon": 26.1368334, "tags": {"amenity": "restaurant"}}, {"type": "node", "id": 364726671, "lat": 39.0825323, "lon": 26.1605935, "tags": {"created_by": "Potlatch 0.10f", "tourism": "viewpoint"}}, {"type": "node", "id": 364723820, "lat": 39.0836982, "lon": 26.16334, "tags": {"created_by": "Potlatch 0.10f", "tourism": "viewpoint"}}, {"type": "node", "id": 364695589, "lat": 39.0795793, "lon": 26.1806172, "tags": {"created_by": "Potlatch 0.10f", "shop": "supermarket"}}, {"type": "node", "id": 364695852, "lat": 39.0773739, "lon": 26.1799392, "tags": {"amenity": "cafe", "created_by": "Potlatch 0.10f"}}, {"type": "node", "id": 364695915, "lat": 39.0774671, "lon": 26.1801023, "tags": {"created_by": "Potlatch 0.10f", "shop": "supermarket"}}, {"type": "node", "id": 347299024, "lat": 39.0812218, "lon": 26.1846645, "tags": {"amenity": "cafe", "cuisine": "burger", "internet_access": "yes", "name": "Tulipa", "phone": "2252041623"}}, {"type": "node", "id": 347299065, "lat": 39.0815064, "lon": 26.1841222, "tags": {"amenity": "restaurant", "cuisine": "pizza", "name": "Napolitana"}}, {"type": "node", "id": 347299305, "lat": 39.08089, "lon": 26.182741, "tags": {"name": "Stavrelis", "name:el": "Σταυρέλλης", "operator": "Staurellis Basilis", "shop": "supermarket"}}, {"type": "node", "id": 347302025, "lat": 39.0811243, "lon": 26.1828577, "tags": {"amenity": "cafe", "name": "benetis manolis"}}, {"type": "node", "id": 347302034, "lat": 39.0810243, "lon": 26.1831152, "tags": {"amenity": "cafe", "created_by": "Potlatch 0.10f"}}, {"type": "node", "id": 347302044, "lat": 39.0811376, "lon": 26.1835959, "tags": {"amenity": "restaurant", "created_by": "Potlatch 0.10f"}}, {"type": "node", "id": 347313067, "lat": 39.0784556, "lon": 26.1863235, "tags": {"tourism": "viewpoint"}}, {"type": "node", "id": 347313220, "lat": 39.0818659, "lon": 26.1877981, "tags": {"amenity": "fuel", "brand": "ΕΛΙΝΟΙΛ", "brand:wikidata": "Q12876543", "brand:wikipedia": "el:ΕΛΙΝΟΙΛ", "name": "ΕΛΙΝΟΙΛ", "operator": "ΣΤΑΤΕΛΛΗΣ ΕΥΣΤΡΑΤΙΟΣ", "phone": "+30 2252041367"}}, {"type": "node", "id": 347329262, "lat": 39.0814968, "lon": 26.1844642, "tags": {"amenity": "pharmacy", "dispensing": "yes", "drive_through": "no", "healthcare": "pharmacy", "name": "Nikelli Anna", "name:el": "Νικέλλη Άννα", "operator": "Nikelli Anna"}}, {"type": "node", "id": 364695030, "lat": 39.0797233, "lon": 26.1824133, "tags": {"amenity": "cafe"}}, {"type": "node", "id": 364728414, "lat": 39.0808362, "lon": 26.1821334, "tags": {"amenity": "pharmacy", "dispensing": "yes", "healthcare": "pharmacy", "name": "Χρύσα Ζαρμπίνιου"}}, {"type": "node", "id": 364731033, "lat": 39.0810066, "lon": 26.182403, "tags": {"created_by": "Potlatch 0.10f", "shop": "bakery"}}, {"type": "node", "id": 366612540, "lat": 39.0812643, "lon": 26.183485, "tags": {"amenity": "restaurant", "created_by": "Potlatch 0.10f", "name": "το Μπερδέμα"}}, {"type": "node", "id": 366617102, "lat": 39.0785554, "lon": 26.1840983, "tags": {"created_by": "Potlatch 0.10f", "shop": "supermarket"}}, {"type": "node", "id": 369741319, "lat": 39.0817881, "lon": 26.182767, "tags": {"amenity": "atm", "brand": "Εθνική Τράπεζα", "brand:el": "Εθνική Τράπεζα", "brand:en": "National Bank of Greece", "brand:wikidata": "Q1816028", "name:el": "Εθνική Τράπεζα", "name:en": "National Bank of Greece", "operator": "Εθνική Τράπεζα", "operator:wikidata": "Q1816028"}}, {"type": "node", "id": 520118519, "lat": 39.0807655, "lon": 26.1865604, "tags": {"amenity": "parking"}}, {"type": "node", "id": 1648493575, "lat": 39.0810846, "lon": 26.1827558, "tags": {"shop": "bakery"}}, {"type": "node", "id": 1648516810, "lat": 39.0805665, "lon": 26.1817603, "tags": {"amenity": "cafe", "cuisine": "regional", "name": "Kostas"}}, {"type": "node", "id": 2266859886, "lat": 39.082311, "lon": 26.1843659, "tags": {"amenity": "parking"}}, {"type": "node", "id": 3053108370, "lat": 39.08232, "lon": 26.1818748, "tags": {"amenity": "parking"}}, {"type": "node", "id": 4390007241, "lat": 39.0814727, "lon": 26.1847967, "tags": {"amenity": "cafe", "internet_access": "yes"}}, {"type": "node", "id": 8700189600, "lat": 39.0775073, "lon": 26.1877711, "tags": {"amenity": "hospital", "healthcare": "hospital", "name": "Covid Vaccination center"}}, {"type": "node", "id": 9770076949, "lat": 39.0802777, "lon": 26.1866451, "tags": {"amenity": "fuel", "brand": "BP", "brand:wikidata": "Q152057", "name": "BP", "operator": "ΚΡΗΤΙΚΟΣ ΓΕΩΡΓΙΟΣ"}}, {"type": "node", "id": 12159974535, "lat": 39.0815533, "lon": 26.1828041, "tags": {"description": "Officer during the Greek Resistance and Greek Civil War (1910 - 1949) Αξιωματικός της Ανίστασης και του εμφυλίου με τον ΔΣΕ (1910 - 1949)", "historic": "memorial", "material": "metal", "memorial": "bust", "name": "Προτομή Καπετάν Λογοθέτη", "name:el": "Προτομή Καπετάν Λογοθέτη", "name:en": "Bust of Captain Logothetis", "source": "local knowledge"}}, {"type": "node", "id": 347313039, "lat": 39.0831261, "lon": 26.1854511, "tags": {"created_by": "Potlatch 0.10f", "tourism": "viewpoint"}}, {"type": "node", "id": 347293102, "lat": 39.1010836, "lon": 26.1692342, "tags": {"amenity": "cafe", "name": "Toula"}}, {"type": "node", "id": 3037774556, "lat": 39.0837131, "lon": 26.190602, "tags": {"name": "Patsatzis", "name:de": "Patsatzis", "name:el": "Πατσατζής", "shop": "supermarket"}}, {"type": "node", "id": 9770076969, "lat": 39.0848942, "lon": 26.1938744, "tags": {"amenity": "fuel", "brand": "EKO", "brand:wikidata": "Q31283948", "name": "EKO", "operator": "ΕΥΣΤΡΑΤΙΟΣ ΖΟΥΜΠΟΥΛΗΣ", "phone": "+302252042377"}}, {"type": "node", "id": 10568455811, "lat": 39.1010019, "lon": 26.2010765, "tags": {"name": "Παλαιές Ιαματικές Πηγές Λισβορίου", "tourism": "attraction"}}, {"type": "node", "id": 9610354191, "lat": 39.0896798, "lon": 26.2030438, "tags": {"amenity": "fuel", "brand": "BP", "brand:wikidata": "Q152057", "brand:wikipedia": "en:BP", "name": "BP", "operator": "ΚΡΗΤΙΚΟΣ ΣΠΥΡΟΣ"}}, {"type": "node", "id": 347293381, "lat": 39.1044627, "lon": 26.1695158, "tags": {"name": "Friends of Green Lesvos", "operator": "Erika Meyer", "tourism": "hostel", "website": "https://www.greenlesbos.com/"}}, {"type": "node", "id": 3024258332, "lat": 39.1023075, "lon": 26.1695576, "tags": {"amenity": "cafe", "cuisine": "burger", "internet_access": "yes", "name": "Αγκυροβόλι Café", "phone": "2252 043111", "website": "https://www.facebook.com/AgurovoliCafeSkalaPolichnitou"}}, {"type": "node", "id": 3026690005, "lat": 39.1047125, "lon": 26.1695497, "tags": {"name": "makropoulos rooms", "operator": "Makropoulos ioannis", "phone": "2252042365", "tourism": "guest_house"}}, {"type": "node", "id": 3028444168, "lat": 39.1025165, "lon": 26.1696389, "tags": {"amenity": "restaurant", "cuisine": "pizza", "name": "akrogiali"}}, {"type": "node", "id": 347287076, "lat": 39.1259523, "lon": 26.2041254, "tags": {"amenity": "restaurant", "name": "Nea Pyra"}}, {"type": "node", "id": 8927679695, "lat": 39.1305731, "lon": 26.0105378, "tags": {"amenity": "fuel", "brand": "EKO", "brand:wikidata": "Q31283948", "name": "EKO", "operator": "ΑΓΡΟΤΙΚΟΣ ΣΥΝΕΤΑΙΡΙΣΜΟΣ ΜΕΣΟΤΟΠΟΥ", "phone": "+302253096090"}}, {"type": "node", "id": 8927686446, "lat": 39.1301628, "lon": 26.0078909, "tags": {"amenity": "drinking_water"}}, {"type": "node", "id": 9744878540, "lat": 39.1299654, "lon": 26.0085846, "tags": {"information": "board", "tourism": "information"}}, {"type": "node", "id": 9979111717, "lat": 39.1515086, "lon": 26.0367578, "tags": {"castle_type": "castle", "historic": "castle", "historic:civilization": "byzantine", "image": "https://www.kastra.eu/pics/xalandrokastro1.jpg", "name": "Χαλαντρόκαστρο", "name:el": "Χαλαντρόκαστρο", "name:en": "Chalandrokastro", "ruins": "yes", "source": "https://www.kastra.eu/castlegr.php?kastro=xalandrokastro"}}, {"type": "node", "id": 9770214745, "lat": 39.1514569, "lon": 26.0699476, "tags": {"amenity": "fuel", "brand": "EKO", "brand:wikidata": "Q31283948", "name": "EKO", "operator": "ΝΙΚΟΛΑΟΣ ΚΟΥΛΟΥΔΗΣ"}}, {"type": "node", "id": 2639325489, "lat": 39.1576317, "lon": 26.0602765, "tags": {"amenity": "pharmacy", "healthcare": "pharmacy", "operator": "Χριστίνα Μάγου"}}, {"type": "node", "id": 9770214750, "lat": 39.1576309, "lon": 26.064195, "tags": {"amenity": "fuel", "brand": "Avin", "brand:wikidata": "Q22979634", "name": "AVIN", "operator": "ΝΙΚΟΛΗΣ ΓΕΩΡΓΙΟΣ", "phone": "+302253095316"}}, {"type": "node", "id": 6784791987, "lat": 39.2036151, "lon": 26.0250114, "tags": {"name:en": "Digital Museum Georgios Iakovidis", "name:ru": "Музей художника Георгиоса Яковидиса", "tourism": "museum"}}, {"type": "node", "id": 6784791988, "lat": 39.2038776, "lon": 26.0248319, "tags": {"amenity": "cafe"}}, {"type": "node", "id": 9744993170, "lat": 39.2266079, "lon": 26.0494444, "tags": {"amenity": "drinking_water"}}, {"type": "node", "id": 10295482951, "lat": 39.1420068, "lon": 26.1286616, "tags": {"name": "KOUKMOS BEACH Cottages", "tourism": "chalet"}}, {"type": "node", "id": 12812434786, "lat": 39.1613698, "lon": 26.1354764, "tags": {"access": "yes", "amenity": "drinking_water", "fee": "no"}}, {"type": "node", "id": 9744990435, "lat": 39.1671242, "lon": 26.1396011, "tags": {"amenity": "drinking_water"}}, {"type": "node", "id": 2639071657, "lat": 39.1693977, "lon": 26.1402388, "tags": {"amenity": "cafe", "name": "Νέον"}}, {"type": "node", "id": 2639071658, "lat": 39.1694851, "lon": 26.1401373, "tags": {"amenity": "restaurant"}}, {"type": "node", "id": 2639071659, "lat": 39.1701356, "lon": 26.1397408, "tags": {"shop": "supermarket"}}, {"type": "node", "id": 2639071660, "lat": 39.1717748, "lon": 26.1415503, "tags": {"amenity": "restaurant", "name": "Τσαντίρα"}}, {"type": "node", "id": 2639071661, "lat": 39.1716184, "lon": 26.1416511, "tags": {"amenity": "cafe", "name": "Ζαναντού"}}, {"type": "node", "id": 9979108216, "lat": 39.1679645, "lon": 26.1393443, "tags": {"castle_type": "tower", "historic": "castle", "historic:civilization": "byzantine", "image": "https://www.kastra.eu/pics/parakoila2.jpg", "name": "Πύργος στα Παράκοιλα", "name:el": "Πύργος στα Παράκοιλα", "name:en": "Tower of Parakoila", "ruins": "yes", "source": "https://www.kastra.eu/castlegr.php?kastro=parakoila"}}, {"type": "node", "id": 2639082564, "lat": 39.1681117, "lon": 26.1426606, "tags": {"amenity": "fuel", "brand": "ΕΛΙΝΟΙΛ", "brand:wikidata": "Q12876543", "brand:wikipedia": "el:ΕΛΙΝΟΙΛ", "name": "ΕΛΙΝΟΙΛ", "operator": "ΓΙΑΝΝΙΟΓΛΟΥ ΧΡΗΣΤΟΣ", "phone": "+302253094101"}}, {"type": "node", "id": 9741587391, "lat": 39.1750593, "lon": 26.1546197, "tags": {"amenity": "shelter", "shelter_type": "gazebo"}}, {"type": "node", "id": 10873512497, "lat": 39.1749077, "lon": 26.1540585, "tags": {"amenity": "shelter", "shelter_type": "gazebo"}}, {"type": "node", "id": 12811267340, "lat": 39.1755417, "lon": 26.1548337, "tags": {"information": "board", "tourism": "information"}}, {"type": "node", "id": 347287022, "lat": 39.1288673, "lon": 26.2049327, "tags": {"amenity": "restaurant", "name": "Λιμανακι"}}, {"type": "node", "id": 9979077815, "lat": 39.1282817, "lon": 26.2055339, "tags": {"castle_type": "tower", "historic": "castle", "historic:civilization": "medieval", "image": "https://www.kastra.eu/pics/lisborio4.jpg", "name": "Πύργος Λισβορίου", "name:el": "Πύργος Λισβορίου", "name:en": "Tower of Lisvorio", "ruins": "yes", "source": "https://www.kastra.eu/castlegr.php?kastro=lisvorio"}}, {"type": "node", "id": 6469370769, "lat": 39.1939905, "lon": 26.1635594, "tags": {"amenity": "drinking_water"}}, {"type": "node", "id": 6469370770, "lat": 39.1940043, "lon": 26.1639831, "tags": {"amenity": "drinking_water"}}, {"type": "node", "id": 5018719310, "lat": 39.200693, "lon": 26.1805486, "tags": {"amenity": "restaurant", "name": "Hard Rock Cafe"}}, {"type": "node", "id": 12772984995, "lat": 39.2063775, "lon": 26.2072199, "tags": {"information": "board", "tourism": "information"}}, {"type": "node", "id": 12812436012, "lat": 39.2068903, "lon": 26.2034175, "tags": {"information": "board", "name": "Παρατήρηση πουλιών στη Λέσβο", "tourism": "information"}}, {"type": "node", "id": 4161777493, "lat": 39.2056647, "lon": 26.2112755, "tags": {"amenity": "restaurant", "name": "Sampo", "name:en": "Sampo", "outdoor_seating": "yes"}}, {"type": "node", "id": 4161777494, "lat": 39.2060801, "lon": 26.2104431, "tags": {"amenity": "restaurant", "check_date": "2023-02-18", "cuisine": "greek", "internet_access": "wlan", "internet_access:fee": "customers", "name": "Μίμης", "name:el": "Μίμης", "name:en": "Mimis", "outdoor_seating": "pedestrian_zone", "payment:mastercard": "yes", "payment:visa": "yes"}}, {"type": "node", "id": 4161777495, "lat": 39.2056254, "lon": 26.2115515, "tags": {"amenity": "restaurant", "name": "Caprice", "name:en": "Caprice", "outdoor_seating": "yes"}}, {"type": "node", "id": 4161777496, "lat": 39.206255, "lon": 26.2093202, "tags": {"amenity": "fast_food", "cuisine": "kebab", "name": "Φάρος", "name:el": "Φάρος", "name:en": "Pharos"}}, {"type": "node", "id": 4161777499, "lat": 39.2056856, "lon": 26.2110526, "tags": {"amenity": "restaurant", "name": "Dionysos", "name:en": "Dionysos"}}, {"type": "node", "id": 4979031463, "lat": 39.2058535, "lon": 26.2102842, "tags": {"check_date": "2023-05-01", "name": "Ταξιάρχης", "shop": "bakery"}}, {"type": "node", "id": 5770069695, "lat": 39.2055823, "lon": 26.2106022, "tags": {"historic": "memorial", "name": "Προτομή φιλόσοφου Αριστοτέλη", "name:el": "Προτομή φιλόσοφου Αριστοτέλη", "name:en": "Aristotle"}}, {"type": "node", "id": 6469759216, "lat": 39.205653, "lon": 26.2111091, "tags": {"amenity": "cafe", "name": "Vista", "outdoor_seating": "yes"}}, {"type": "node", "id": 6469760563, "lat": 39.2059007, "lon": 26.2102412, "tags": {"amenity": "restaurant", "name": "Sugar cook bar"}}, {"type": "node", "id": 6469760564, "lat": 39.2061802, "lon": 26.2097449, "tags": {"amenity": "restaurant"}}, {"type": "node", "id": 6469761086, "lat": 39.206469, "lon": 26.2106643, "tags": {"amenity": "fast_food", "description": "ψητοπωλείο", "outdoor_seating": "sidewalk"}}, {"type": "node", "id": 6469844360, "lat": 39.2053681, "lon": 26.2118364, "tags": {"tourism": "information"}}, {"type": "node", "id": 6469846822, "lat": 39.2062169, "lon": 26.2108793, "tags": {"name": "4 seasons", "shop": "convenience"}}, {"type": "node", "id": 6469847274, "lat": 39.2062043, "lon": 26.2085902, "tags": {"information": "board", "tourism": "information"}}, {"type": "node", "id": 6469847419, "lat": 39.2066978, "lon": 26.2108153, "tags": {"shop": "convenience"}}, {"type": "node", "id": 6477015865, "lat": 39.2061336, "lon": 26.2090474, "tags": {"information": "board", "name": "Παρατήρηση πουλιών στη Λέσβο", "name:el": "Παρατήρηση πουλιών στη Λέσβο", "tourism": "information"}}, {"type": "node", "id": 8927643688, "lat": 39.205525, "lon": 26.2117204, "tags": {"amenity": "bicycle_parking"}}, {"type": "node", "id": 8927688353, "lat": 39.2056117, "lon": 26.2104601, "tags": {"access": "yes", "amenity": "drinking_water", "fee": "no", "wheelchair": "yes"}}, {"type": "node", "id": 9738096625, "lat": 39.2058723, "lon": 26.2104589, "tags": {"amenity": "atm", "name": "Euronet"}}, {"type": "node", "id": 10677753546, "lat": 39.2063541, "lon": 26.2081445, "tags": {"amenity": "cafe", "name": "Paradise"}}, {"type": "node", "id": 10677753547, "lat": 39.206341, "lon": 26.208245, "tags": {"amenity": "restaurant", "cuisine": "greek", "name": "Sea Horse"}}, {"type": "node", "id": 10860644740, "lat": 39.2057224, "lon": 26.2098139, "tags": {"access": "yes", "amenity": "drinking_water", "fee": "no", "wheelchair": "yes"}}, {"type": "node", "id": 12812436013, "lat": 39.2061752, "lon": 26.2090342, "tags": {"board_type": "tourism", "information": "board", "name": "Αλιευτικός τουρισμός", "tourism": "information"}}, {"type": "node", "id": 13372024801, "lat": 39.20667, "lon": 26.2090517, "tags": {"name": "Nancy Rooms", "phone": "+302253028328;+306974603592", "tourism": "guest_house"}}, {"type": "node", "id": 9738080952, "lat": 39.2110726, "lon": 26.1972844, "tags": {"information": "board", "tourism": "information"}}, {"type": "node", "id": 2480848219, "lat": 39.209646, "lon": 26.2061912, "tags": {"entrance": "yes", "name": "Πασιφάη", "name:el": "Πασιφάη", "name:en": "Pasiphae Hotel", "tourism": "hotel"}}, {"type": "node", "id": 2482161011, "lat": 39.2075339, "lon": 26.2036266, "tags": {"addr:postcode": "81107", "name": "Kalloni Bay Hotel", "name:en": "Kalloni Bay Hotel", "old_name": "Kalloni II", "tourism": "hotel", "wheelchair": "limited"}}, {"type": "node", "id": 2482161017, "lat": 39.2087469, "lon": 26.2032073, "tags": {"name": "Πελα", "name:de": "Pela Hotel", "name:el": "Πελα", "name:en": "Pela Hotel", "tourism": "hotel"}}, {"type": "node", "id": 2482161029, "lat": 39.209469, "lon": 26.2032428, "tags": {"name": "Μάλεμή", "name:de": "Malemi Hotel", "name:el": "Μάλεμή", "name:en": "Malemi Hotel", "tourism": "hotel"}}, {"type": "node", "id": 12955705573, "lat": 39.2096534, "lon": 26.2064803, "tags": {"access": "yes", "addr:city": "Καλλονή", "addr:place": "Σκάλα Καλλονής", "addr:postcode": "81107", "amenity": "charging_station", "authentication:app": "yes", "brand": "DEI Blue", "capacity": "2", "contact:phone": "+30 2112110900", "contact:website": "https://www.deiblue.gr/", "covered": "no", "fee": "yes", "manufacturer": "Alfen BV", "motorcar": "yes", "name": "DΕΙ blue - Pasiphae Hotel", "opening_hours": "24/7", "operator": "Pasiphae Hotel", "parking:fee": "no", "payment:app": "yes", "ref:EU:EVSE": "GR*PPC*EDEIBLUE*NYS*108*1 ;GR*PPC*EDEIBLUE*NYS*108*2", "ref:GR:IDRO": "GR-PPC-Scs42362-L", "socket:type2": "2", "socket:type2:output": "22"}}, {"type": "node", "id": 4161784918, "lat": 39.2077736, "lon": 26.210768, "tags": {"name": "Νανίδης Νικ.", "name:el": "Νανίδης Νικ.", "name:en": "Nanidis Nik.", "shop": "bakery"}}, {"type": "node", "id": 5007065447, "lat": 39.2111318, "lon": 26.2089031, "tags": {"name": "Vicky Studios", "tourism": "hostel"}}, {"type": "node", "id": 9738098635, "lat": 39.2198213, "lon": 26.2064579, "tags": {"name": "Ο Πλάτανος", "shop": "convenience"}}, {"type": "node", "id": 9738067161, "lat": 39.2163839, "lon": 26.2079285, "tags": {"tourism": "artwork"}}, {"type": "node", "id": 6469862829, "lat": 39.224092, "lon": 26.2073091, "tags": {"check_date": "2025-04-21", "name": "Xtreme bikes", "shop": "bicycle"}}, {"type": "node", "id": 6469760561, "lat": 39.2292822, "lon": 26.206348, "tags": {"check_date": "2025-05-05", "name": "Κιντακας", "shop": "bakery"}}, {"type": "node", "id": 9738101465, "lat": 39.2301069, "lon": 26.2060611, "tags": {"information": "board", "tourism": "information"}}, {"type": "node", "id": 13432176673, "lat": 39.2328516, "lon": 26.2073965, "tags": {"amenity": "cafe", "check_date": "2026-01-05", "name": "Beellys"}}, {"type": "node", "id": 3696946814, "lat": 39.2309644, "lon": 26.2137995, "tags": {"name": "Αφοι Μανωλη In Market", "opening_hours": "Mo-Sa 08:00-21:00", "shop": "supermarket"}}, {"type": "node", "id": 3696949622, "lat": 39.2329725, "lon": 26.2086438, "tags": {"amenity": "pharmacy", "healthcare": "pharmacy"}}, {"type": "node", "id": 8765267000, "lat": 39.2303386, "lon": 26.213532, "tags": {"brand": "ΑΒ Βασιλόπουλος", "brand:el": "ΑΒ Βασιλόπουλος", "brand:en": "AB Vassilopoulos", "brand:wikidata": "Q4721807", "name": "ΑΒ Βασιλόπουλος", "name:el": "ΑΒ Βασιλόπουλος", "name:en": "AB Vassilopoulos", "opening_hours": "Mo-Fr 08:00-21:00; Sa 08:00-20:00", "shop": "supermarket"}}, {"type": "node", "id": 10732186988, "lat": 39.2308377, "lon": 26.2138324, "tags": {"access": "yes", "addr:city": "Καλλονή", "addr:postcode": "81107", "amenity": "charging_station", "authentication:app": "yes", "brand": "DEI Blue", "capacity": "4", "contact:phone": "+30 2112110900", "contact:website": "https://www.deiblue.gr/", "covered": "no", "fee": "yes", "int_name": "DEI blue - AB Vassilopoulos", "lit": "yes", "manufacturer": "Phoenix Contact", "motorcar": "yes", "name": "DEI blue - ΑΒ Βασιλόπουλος", "name:el": "DEI blue - ΑΒ Βασιλόπουλος", "name:en": "DEI blue - AB Vassilopoulos", "opening_hours": "24/7", "operator": "ΑΒ Βασιλόπουλος", "payment:app": "yes", "ref:EU:EVSE": "GR*PPC*E0002000724*1;GR*PPC*E0002000724*2;GR*PPC*E0002000729*1;GR*PPC*E0002000729*2", "ref:GR:IDRO": "GR-PPC-Scs37218-L", "socket:type2": "4", "socket:type2:output": "22"}}, {"type": "node", "id": 11002063527, "lat": 39.2317928, "lon": 26.2113011, "tags": {"access": "yes", "addr:city": "Καλλονή", "addr:postcode": "81107", "amenity": "charging_station", "authentication:app": "yes", "authentication:membership_card": "yes", "brand": "nrg incharge", "capacity": "1", "contact:phone": "+30 2188818102", "contact:website": "https://www.nrgincharge.gr/", "covered": "no", "fee": "yes", "int_name": "nrg - My market Kalloni", "motorcar": "yes", "name": "nrg - My market Καλλονή", "name:el": "nrg - My market Καλλονή", "name:en": "nrg - My market Kalloni", "opening_hours": "24/7", "operator": "My Market", "parking:fee": "no", "payment:app": "yes", "payment:website": "yes", "ref": "#1088", "ref:EU:EVSE": "GR*NRG*E1088*1", "ref:GR:IDRO": "GR-NRG-S595", "socket:type2": "1", "socket:type2:output": "22"}}, {"type": "node", "id": 12955678962, "lat": 39.2307469, "lon": 26.2131429, "tags": {"access": "yes", "addr:city": "Καλλονή", "addr:postcode": "81107", "amenity": "charging_station", "authentication:app": "yes", "authentication:membership_card": "yes", "brand": "nrg incharge", "capacity": "2", "contact:phone": "+30 2188818102", "contact:website": "https://www.nrgincharge.gr/", "covered": "no", "fee": "yes", "int_name": "nrg - Masoutis Kalloni", "motorcar": "yes", "name": "nrg - Μασούτης Καλλονή", "name:el": "nrg - Μασούτης Καλλονή", "name:en": "nrg - Masoutis Kalloni", "opening_hours": "Mo-Fr 08:00-22:00; Sa 08:00-21:00", "operator": "Μασούτης", "parking:fee": "no", "payment:app": "yes", "payment:website": "yes", "ref:EU:EVSE": "GR*NRG*E1106*1;GR*NRG*E1107*1", "ref:GR:IDRO": "GR-NRG-S611", "socket:type2": "2", "socket:type2:output": "22"}}, {"type": "node", "id": 11956142369, "lat": 39.0360769, "lon": 26.2790643, "tags": {"amenity": "shelter"}}, {"type": "node", "id": 2266859887, "lat": 39.0466523, "lon": 26.2733281, "tags": {"amenity": "parking"}}, {"type": "node", "id": 604349413, "lat": 39.0263476, "lon": 26.3091045, "tags": {"amenity": "drinking_water", "ele": "350"}}, {"type": "node", "id": 679264421, "lat": 39.0247455, "lon": 26.3088776, "tags": {"tourism": "viewpoint"}}, {"type": "node", "id": 679264429, "lat": 39.024856, "lon": 26.3089298, "tags": {"historic": "memorial"}}, {"type": "node", "id": 687620306, "lat": 39.0249588, "lon": 26.3090326, "tags": {"amenity": "cafe"}}, {"type": "node", "id": 705340429, "lat": 39.0264553, "lon": 26.3078622, "tags": {"int_name": "Folk Museum", "name": "Λαογραφικό μουσείο", "tourism": "museum"}}, {"type": "node", "id": 705344873, "lat": 39.027734, "lon": 26.3092247, "tags": {"hiking": "no", "information": "guidepost", "tourism": "information"}}, {"type": "node", "id": 5139777359, "lat": 39.0282658, "lon": 26.3088039, "tags": {"drinking_water": "yes", "ele": "359", "natural": "spring"}}, {"type": "node", "id": 5139780937, "lat": 39.0607484, "lon": 26.3138088, "tags": {"drinking_water": "yes", "ele": "366", "natural": "spring"}}, {"type": "node", "id": 9979084728, "lat": 39.0573054, "lon": 26.3129873, "tags": {"castle_type": "tower", "historic": "castle", "historic:civilization": "medieval", "image": "https://www.kastra.eu/pics/ampeliko2.jpg", "name": "Πύργος στο Αμπελικό", "name:el": "Πύργος στο Αμπελικό", "name:en": "Tower of Ambeliko", "source": "https://www.kastra.eu/castlegr.php?kastro=ambeliko", "wikidata": "Q108732135"}}, {"type": "node", "id": 8739967335, "lat": 39.0833335, "lon": 26.2222142, "tags": {"name": "Ιερό των Μυροφόρων", "tourism": "attraction"}}, {"type": "node", "id": 364706322, "lat": 39.1056862, "lon": 26.2182279, "tags": {"amenity": "cafe", "created_by": "Potlatch 0.10f"}}, {"type": "node", "id": 364706450, "lat": 39.1056595, "lon": 26.2180219, "tags": {"amenity": "cafe", "created_by": "Potlatch 0.10f"}}, {"type": "node", "id": 364706516, "lat": 39.1052399, "lon": 26.2174983, "tags": {"amenity": "cafe", "created_by": "Potlatch 0.10f"}}, {"type": "node", "id": 529475687, "lat": 39.1056973, "lon": 26.2184472, "tags": {"amenity": "cafe"}}, {"type": "node", "id": 529477500, "lat": 39.1052553, "lon": 26.2177663, "tags": {"amenity": "parking"}}, {"type": "node", "id": 4326968079, "lat": 39.1065495, "lon": 26.2182804, "tags": {"amenity": "parking"}}, {"type": "node", "id": 347286721, "lat": 39.1104272, "lon": 26.2203657, "tags": {"created_by": "Potlatch 0.10f", "tourism": "viewpoint"}}, {"type": "node", "id": 500286051, "lat": 39.1046916, "lon": 26.2491409, "tags": {"amenity": "parking"}}, {"type": "node", "id": 500269535, "lat": 39.1272691, "lon": 26.265473, "tags": {"amenity": "parking"}}, {"type": "node", "id": 698678391, "lat": 39.0736912, "lon": 26.354085, "tags": {"int_name": "Olympos", "name": "Όλυμπος", "tourism": "viewpoint"}}, {"type": "node", "id": 10111992627, "lat": 39.0383145, "lon": 26.3946996, "tags": {"tourism": "viewpoint"}}, {"type": "node", "id": 13727314002, "lat": 39.052434, "lon": 26.397564, "tags": {"amenity": "drinking_water", "name": "Water"}}, {"type": "node", "id": 13727320001, "lat": 39.0524509, "lon": 26.3975544, "tags": {"amenity": "drinking_water", "name": "Water"}}, {"type": "node", "id": 9013878867, "lat": 39.0983259, "lon": 26.3316263, "tags": {"amenity": "drinking_water", "ele": "323"}}, {"type": "node", "id": 599421292, "lat": 39.0974865, "lon": 26.3356245, "tags": {"tourism": "picnic_site"}}, {"type": "node", "id": 472310859, "lat": 39.096938, "lon": 26.3435501, "tags": {"amenity": "drinking_water", "name": "Πηγή Τσίγκου", "name:el": "Πηγή Τσίγκου"}}, {"type": "node", "id": 604349679, "lat": 39.0963453, "lon": 26.3437456, "tags": {"amenity": "drinking_water"}}, {"type": "node", "id": 698678534, "lat": 39.0802554, "lon": 26.3705861, "tags": {"hiking": "yes", "information": "map", "map_size": "region", "map_type": "topo", "tourism": "information"}}, {"type": "node", "id": 5429068505, "lat": 39.0802454, "lon": 26.3702779, "tags": {"amenity": "parking"}}, {"type": "node", "id": 5830872888, "lat": 39.0809463, "lon": 26.3689554, "tags": {"amenity": "drinking_water", "ele": "387"}}, {"type": "node", "id": 7775918033, "lat": 39.0803832, "lon": 26.3706067, "tags": {"historic": "memorial", "material": "marble", "memorial": "statue", "wikidata": "Q116776836"}}, {"type": "node", "id": 9615002883, "lat": 39.080756, "lon": 26.3689778, "tags": {"amenity": "fuel", "brand": "ΕΛΙΝΟΙΛ", "brand:wikidata": "Q12876543", "brand:wikipedia": "el:ΕΛΙΝΟΙΛ", "name": "ΕΛΙΝΟΙΛ", "operator": "ΚΑΚΑΛΙΟΥ ΣΟΦΙΑ"}}, {"type": "node", "id": 9725255986, "lat": 39.0806477, "lon": 26.3714723, "tags": {"amenity": "cafe", "name": "KiSmet"}}, {"type": "node", "id": 12168454983, "lat": 39.0802631, "lon": 26.3702974, "tags": {"amenity": "shelter", "bench": "yes", "bin": "no", "ele": "390"}}, {"type": "node", "id": 9979100345, "lat": 39.0849974, "lon": 26.3641304, "tags": {"castle_type": "castle", "historic": "castle", "historic:civilization": "byzantine", "image": "https://www.kastra.eu/pics/agiasos-far.jpg", "name": "Κάστρο Αγιάσου", "name:el": "Κάστρο Αγιάσου", "name:en": "Castle of Agiasos", "ruins": "yes", "source": "https://www.kastra.eu/castleen.php?kastro=agiaso", "wikidata": "Q108612373"}}, {"type": "node", "id": 3030758347, "lat": 39.0848585, "lon": 26.3711204, "tags": {"amenity": "cafe"}}, {"type": "node", "id": 3039360978, "lat": 39.0870446, "lon": 26.3697076, "tags": {"addr:city": "Αγιάσος", "addr:postcode": "81101", "amenity": "hospital", "description": "Κέντρο Κοινωνικής Πρόνοιας Περιφέρειας Βορείου Αιγαίου. Το Κέντρο Κοινωνικής Προνοίας Περιφέρειας Βορείου Αιγαίου στην Αγιάσο της Λέσβου είναι ο μεγαλύτερος δημόσιος φορέας κοινωνικής φροντίδας για άτομα με αναπηρίες στην Περιφέρεια του Βορείου Αιγαίου.", "healthcare": "hospital", "name": "Ίδρυμα Θεομήτωρ", "name:el": "Ίδρυμα Θεομήτωρ", "name:en": "Theomitor Foundation", "phone": "+3022520 22234", "website": "http://www.kkppva.gr/"}}, {"type": "node", "id": 5429068503, "lat": 39.0849664, "lon": 26.3710343, "tags": {"amenity": "restaurant", "cuisine": "Ψητοπωλείο", "name": "Απόλαυση"}}, {"type": "node", "id": 5429068504, "lat": 39.0852185, "lon": 26.3708334, "tags": {"amenity": "cafe", "name": "Red"}}, {"type": "node", "id": 12460883549, "lat": 39.0856143, "lon": 26.3705264, "tags": {"information": "map", "map_size": "local", "tourism": "information"}}, {"type": "node", "id": 493480701, "lat": 39.1006924, "lon": 26.3542932, "tags": {"amenity": "cafe"}}, {"type": "node", "id": 493580351, "lat": 39.1004593, "lon": 26.3536924, "tags": {"amenity": "cafe"}}, {"type": "node", "id": 5830846324, "lat": 39.1005337, "lon": 26.3533882, "tags": {"amenity": "cafe", "name": "Enigma"}}, {"type": "node", "id": 5830846623, "lat": 39.1007179, "lon": 26.3520893, "tags": {"amenity": "drinking_water"}}, {"type": "node", "id": 7775898801, "lat": 39.0910068, "lon": 26.3672848, "tags": {"amenity": "drinking_water", "ele": "402"}}, {"type": "node", "id": 5830845929, "lat": 39.1026029, "lon": 26.3641923, "tags": {"name": "Γεωπάρκο Λέσβου", "tourism": "information"}}, {"type": "node", "id": 5830846009, "lat": 39.1025716, "lon": 26.3641888, "tags": {"access": "yes", "amenity": "drinking_water", "fee": "no", "start_date": "1979"}}, {"type": "node", "id": 7775926031, "lat": 39.107754, "lon": 26.3707771, "tags": {"tourism": "information"}}, {"type": "node", "id": 12460883548, "lat": 39.105911, "lon": 26.3701066, "tags": {"access": "yes", "amenity": "drinking_water"}}, {"type": "node", "id": 5830870329, "lat": 39.0807303, "lon": 26.3719606, "tags": {"amenity": "atm", "check_date": "2022-05-08", "name": "Alpha"}}, {"type": "node", "id": 5830870809, "lat": 39.0819386, "lon": 26.3719927, "tags": {"check_date": "2024-09-10", "name": "Σουσαμλή", "shop": "bakery"}}, {"type": "node", "id": 5830871457, "lat": 39.0820108, "lon": 26.3726546, "tags": {"amenity": "pharmacy", "healthcare": "pharmacy"}}, {"type": "node", "id": 5830926192, "lat": 39.0820713, "lon": 26.3726069, "tags": {"amenity": "drinking_water", "ele": "415"}}, {"type": "node", "id": 5830926838, "lat": 39.0821036, "lon": 26.3726619, "tags": {"amenity": "cafe", "outdoor_seating": "pedestrian"}}, {"type": "node", "id": 7775886689, "lat": 39.0808181, "lon": 26.3720687, "tags": {"amenity": "drinking_water", "ele": "398"}}, {"type": "node", "id": 7775886691, "lat": 39.0817432, "lon": 26.3719854, "tags": {"amenity": "cafe", "check_date": "2024-09-10", "cuisine": "coffee_shop", "description": "Καφές στη χόβολη, καινάρι", "name": "Ο Γιαννάκης", "outdoor_seating": "yes", "start_date": "1800"}}, {"type": "node", "id": 9725206289, "lat": 39.0816657, "lon": 26.3720248, "tags": {"amenity": "cafe", "check_date": "2024-09-10", "name": "Το καφενείο των Θροφιλων", "outdoor_seating": "yes"}}, {"type": "node", "id": 9725255987, "lat": 39.0810584, "lon": 26.3723893, "tags": {"amenity": "cafe", "name": "Μικρό"}}, {"type": "node", "id": 9725280449, "lat": 39.0816226, "lon": 26.3720474, "tags": {"amenity": "cafe", "check_date": "2024-09-10", "name": "Το σοκάκι", "outdoor_seating": "yes"}}, {"type": "node", "id": 9725280587, "lat": 39.0821792, "lon": 26.3730858, "tags": {"shop": "supermarket"}}, {"type": "node", "id": 9725282795, "lat": 39.0819694, "lon": 26.3728736, "tags": {"amenity": "restaurant"}}, {"type": "node", "id": 9725294119, "lat": 39.0804754, "lon": 26.3722402, "tags": {"leisure": "picnic_table"}}, {"type": "node", "id": 9725295167, "lat": 39.0804914, "lon": 26.3721681, "tags": {"leisure": "picnic_table"}}, {"type": "node", "id": 9725297274, "lat": 39.0804834, "lon": 26.3722612, "tags": {"amenity": "drinking_water", "ele": "401"}}, {"type": "node", "id": 9725298549, "lat": 39.0816919, "lon": 26.3720898, "tags": {"amenity": "drinking_water", "ele": "408"}}, {"type": "node", "id": 9725298550, "lat": 39.0806661, "lon": 26.3717974, "tags": {"amenity": "restaurant", "name": "Στέλλα Δαγελη", "outdoor_seating": "yes"}}, {"type": "node", "id": 9725299763, "lat": 39.0822103, "lon": 26.3729633, "tags": {"amenity": "restaurant", "name": "Τα Εξάρχεια"}}, {"type": "node", "id": 9725302315, "lat": 39.0820281, "lon": 26.3727727, "tags": {"amenity": "pharmacy", "healthcare": "pharmacy"}}, {"type": "node", "id": 9725303586, "lat": 39.0806598, "lon": 26.3721153, "tags": {"leisure": "picnic_table"}}, {"type": "node", "id": 9725303690, "lat": 39.0816537, "lon": 26.3724257, "tags": {"name": "Λαϊκό μουσείο", "tourism": "museum"}}, {"type": "node", "id": 9727736538, "lat": 39.0808069, "lon": 26.3719706, "tags": {"amenity": "drinking_water", "ele": "398"}}, {"type": "node", "id": 12168454991, "lat": 39.0798058, "lon": 26.3718855, "tags": {"amenity": "cafe", "check_date": "2024-09-10"}}, {"type": "node", "id": 6255312585, "lat": 39.0848281, "lon": 26.3742621, "tags": {"addr:city": "Αγιάσος", "addr:postcode": "81101", "amenity": "restaurant", "cuisine": "regional;greek;coffee_shop", "name": "Το Σταυρί", "name:el": "Το Σταυρί", "name:en": "To Stabeisen", "opening_hours": "Mo-Su 07:00-23:00", "phone": "2252 022936"}}, {"type": "node", "id": 7781992975, "lat": 39.0842765, "lon": 26.3737383, "tags": {"amenity": "drinking_water", "ele": "438"}}, {"type": "node", "id": 7782014464, "lat": 39.084573, "lon": 26.374029, "tags": {"shop": "convenience"}}, {"type": "node", "id": 10195766906, "lat": 39.0849733, "lon": 26.3743939, "tags": {"amenity": "cafe", "name": "Uptown"}}, {"type": "node", "id": 12460883550, "lat": 39.0844783, "lon": 26.3748481, "tags": {"information": "route_marker", "tourism": "information"}}, {"type": "node", "id": 5429068509, "lat": 39.0825489, "lon": 26.3797392, "tags": {"leisure": "picnic_table"}}, {"type": "node", "id": 5429068510, "lat": 39.0825549, "lon": 26.3798685, "tags": {"ele": "504", "natural": "spring"}}, {"type": "node", "id": 7775886688, "lat": 39.0824967, "lon": 26.3802175, "tags": {"amenity": "shelter", "ele": "506"}}, {"type": "node", "id": 7775892634, "lat": 39.0826955, "lon": 26.3794396, "tags": {"leisure": "picnic_table"}}, {"type": "node", "id": 7775894630, "lat": 39.0826751, "lon": 26.3799257, "tags": {"leisure": "picnic_table"}}, {"type": "node", "id": 7775903114, "lat": 39.0825377, "lon": 26.3801148, "tags": {"information": "board", "tourism": "information"}}, {"type": "node", "id": 5429068502, "lat": 39.1018523, "lon": 26.3884973, "tags": {"name": "Βούρος", "shop": "bakery"}}, {"type": "node", "id": 7775909005, "lat": 39.1019687, "lon": 26.3883894, "tags": {"amenity": "drinking_water"}}, {"type": "node", "id": 7775899274, "lat": 39.0980412, "lon": 26.3972457, "tags": {"amenity": "drinking_water"}}, {"type": "node", "id": 7775878191, "lat": 39.0958687, "lon": 26.4012165, "tags": {"natural": "spring"}}, {"type": "node", "id": 7775893159, "lat": 39.0964145, "lon": 26.4019533, "tags": {"amenity": "cafe", "name": "Καζαντζή Ελένη"}}, {"type": "node", "id": 7775902324, "lat": 39.0960375, "lon": 26.4020295, "tags": {"information": "board", "name": "Πεζοπορικές διαδρομές του Ευεργέτουλα", "tourism": "information"}}, {"type": "node", "id": 7782231525, "lat": 39.0957274, "lon": 26.4022973, "tags": {"leisure": "picnic_table"}}, {"type": "node", "id": 5830844279, "lat": 39.1113984, "lon": 26.3748178, "tags": {"access": "yes", "amenity": "drinking_water", "fee": "no"}}, {"type": "node", "id": 517590580, "lat": 39.1022823, "lon": 26.3886761, "tags": {"amenity": "parking"}}, {"type": "node", "id": 10627285406, "lat": 39.1156722, "lon": 26.3768115, "tags": {"information": "guidepost", "tourism": "information"}}, {"type": "node", "id": 599397595, "lat": 39.1191486, "lon": 26.3888536, "tags": {"amenity": "cafe", "name": "Karini"}}, {"type": "node", "id": 599397596, "lat": 39.11919, "lon": 26.3884782, "tags": {"name": "Theofilos Tree Cave", "name:de": "Theofilos Tree Cave", "tourism": "attraction"}}, {"type": "node", "id": 5431576192, "lat": 39.1091546, "lon": 26.4110491, "tags": {"amenity": "cafe"}}, {"type": "node", "id": 3030609480, "lat": 39.1246798, "lon": 26.4090422, "tags": {"amenity": "drinking_water"}}, {"type": "node", "id": 5429001550, "lat": 39.124675, "lon": 26.4088332, "tags": {"amenity": "fuel", "brand": "Avin", "brand:wikidata": "Q22979634", "name": "AviN"}}, {"type": "node", "id": 5428998815, "lat": 39.1161813, "lon": 26.4146073, "tags": {"amenity": "restaurant", "name": "Συνάντηση"}}, {"type": "node", "id": 5428998817, "lat": 39.1165544, "lon": 26.4137732, "tags": {"amenity": "cafe"}}, {"type": "node", "id": 5428998820, "lat": 39.1165188, "lon": 26.4135178, "tags": {"amenity": "pharmacy", "healthcare": "pharmacy", "name": "Μάλλης"}}, {"type": "node", "id": 5428999722, "lat": 39.1167435, "lon": 26.413389, "tags": {"amenity": "cafe"}}, {"type": "node", "id": 5428999723, "lat": 39.1169051, "lon": 26.4130446, "tags": {"amenity": "cafe"}}, {"type": "node", "id": 5428999724, "lat": 39.1169553, "lon": 26.412871, "tags": {"amenity": "restaurant"}}, {"type": "node", "id": 5428999725, "lat": 39.1168366, "lon": 26.412768, "tags": {"amenity": "restaurant"}}, {"type": "node", "id": 5428999726, "lat": 39.1168708, "lon": 26.4126356, "tags": {"shop": "convenience"}}, {"type": "node", "id": 604349680, "lat": 39.1245932, "lon": 26.4210939, "tags": {"shop": "bakery"}}, {"type": "node", "id": 347292244, "lat": 39.1285053, "lon": 26.2158558, "tags": {"name": "Marita", "operator": "Yanis Koularas", "rooms": "6", "tourism": "hotel"}}, {"type": "node", "id": 492461330, "lat": 39.1405594, "lon": 26.2399015, "tags": {"amenity": "cafe"}}, {"type": "node", "id": 492461738, "lat": 39.1404522, "lon": 26.2403868, "tags": {"amenity": "restaurant", "cuisine": "greek;fish", "name": "Fregata", "outdoor_seating": "yes"}}, {"type": "node", "id": 493347021, "lat": 39.1538763, "lon": 26.2795295, "tags": {"amenity": "restaurant", "check_date": "2024-08-29", "cuisine": "greek", "diet:fish": "yes", "name": "Ο Νόντας"}}, {"type": "node", "id": 11146742575, "lat": 39.1546019, "lon": 26.2767924, "tags": {"historic": "archaeological_site", "name": "Παλαιοχριστιανική Βασιλική Αχλαδερής"}}, {"type": "node", "id": 9738096626, "lat": 39.1602038, "lon": 26.2930491, "tags": {"tourism": "information"}}, {"type": "node", "id": 9738084756, "lat": 39.1798827, "lon": 26.2955473, "tags": {"information": "board", "tourism": "information"}}, {"type": "node", "id": 3696907264, "lat": 39.2305085, "lon": 26.2158289, "tags": {"amenity": "pharmacy", "healthcare": "pharmacy"}}, {"type": "node", "id": 6469761183, "lat": 39.2304847, "lon": 26.2163447, "tags": {"amenity": "cafe", "description": "καφενείο"}}, {"type": "node", "id": 9611631670, "lat": 39.2302716, "lon": 26.2175981, "tags": {"amenity": "fuel", "brand": "BP", "brand:wikidata": "Q152057", "brand:wikipedia": "en:BP", "name": "BP", "operator": "ΒΕΛΕΤΑΚΗΣ ΝΙΚΟΛΑΟΣ", "phone": "+302253023411"}}, {"type": "node", "id": 12811236282, "lat": 39.2304521, "lon": 26.2183845, "tags": {"access": "yes", "amenity": "drinking_water", "fee": "no"}}, {"type": "node", "id": 12812436009, "lat": 39.2303179, "lon": 26.2178695, "tags": {"amenity": "shelter"}}, {"type": "node", "id": 9611644045, "lat": 39.2304468, "lon": 26.2222636, "tags": {"amenity": "fuel", "brand": "EKO", "brand:wikidata": "Q31283948", "brand:wikipedia": "el:Ελληνικά Πετρέλαια", "name": "EKO", "operator": "ΑΦΟΙ ΑΝΤ. ΝΑΛΜΠΑΝΤΗ ΟΕ", "phone": "+302253023211"}}, {"type": "node", "id": 12812436011, "lat": 39.2304659, "lon": 26.228499, "tags": {"amenity": "fuel", "check_date": "2025-05-05"}}, {"type": "node", "id": 12844732119, "lat": 39.2279775, "lon": 26.2328309, "tags": {"artwork_type": "aircraft", "material": "metal", "support": "pole", "tourism": "artwork"}}, {"type": "node", "id": 12811236273, "lat": 39.2125265, "lon": 26.2410772, "tags": {"board_type": "wildlife", "information": "board", "material": "wood", "name": "Παρατήρηση πουλιών στη Λέσβο", "tourism": "information"}}, {"type": "node", "id": 715773145, "lat": 39.2168963, "lon": 26.2667621, "tags": {"information": "map", "map_size": "region", "map_type": "topo", "tourism": "information"}}, {"type": "node", "id": 2483546664, "lat": 39.2173461, "lon": 26.2663547, "tags": {"building": "yes", "leisure": "bird_hide", "name": "ΒΑ παρατηρητήριο", "note": "Αλυκή Καλλονής, Λέσβος", "tourism": "attraction"}}, {"type": "node", "id": 9738096627, "lat": 39.2257683, "lon": 26.2425182, "tags": {"information": "board", "tourism": "information"}}, {"type": "node", "id": 9770130474, "lat": 39.2248668, "lon": 26.2463667, "tags": {"amenity": "fuel", "brand": "Shell", "brand:wikidata": "Q110716465", "name": "SHELL", "operator": "ΕΡΜΗΣ ΑΕΜΕΕ ΥΠ/ΜΑ ΜΥΤΙΛΗΝΗΣ 3"}}, {"type": "node", "id": 12811236281, "lat": 39.2246465, "lon": 26.2421128, "tags": {"addr:floor": "G", "board_type": "wildlife", "information": "board", "level": "0", "tourism": "information"}}, {"type": "node", "id": 10097345785, "lat": 39.231037, "lon": 26.2535224, "tags": {"amenity": "drinking_water"}}, {"type": "node", "id": 9738101466, "lat": 39.1816039, "lon": 26.2953975, "tags": {"tourism": "information"}}, {"type": "node", "id": 10860580823, "lat": 39.1914631, "lon": 26.2981403, "tags": {"artwork_type": "mural", "tourism": "artwork"}}, {"type": "node", "id": 9740268199, "lat": 39.196332, "lon": 26.3051715, "tags": {"man_made": "water_well"}}, {"type": "node", "id": 9740268200, "lat": 39.1963424, "lon": 26.3051386, "tags": {"man_made": "water_well"}}, {"type": "node", "id": 10873536368, "lat": 39.170485, "lon": 26.3559875, "tags": {"amenity": "shelter", "shelter_type": "gazebo"}}, {"type": "node", "id": 12478672267, "lat": 39.1445152, "lon": 26.3995422, "tags": {"bench": "yes", "leisure": "picnic_table", "material": "wood"}}, {"type": "node", "id": 715773373, "lat": 39.1455886, "lon": 26.4085151, "tags": {"amenity": "drinking_water"}}, {"type": "node", "id": 9741751953, "lat": 39.1618269, "lon": 26.3728246, "tags": {"information": "board", "tourism": "information"}}, {"type": "node", "id": 10873539591, "lat": 39.1616328, "lon": 26.3731209, "tags": {"amenity": "shelter", "shelter_type": "gazebo"}}, {"type": "node", "id": 9741750041, "lat": 39.1863257, "lon": 26.3301002, "tags": {"information": "board", "tourism": "information"}}, {"type": "node", "id": 12478688220, "lat": 39.1809145, "lon": 26.3487039, "tags": {"information": "board", "name": "Ριζώνας", "tourism": "information"}}, {"type": "node", "id": 2065706369, "lat": 39.237031, "lon": 26.048117, "tags": {"amenity": "fuel", "atm": "no", "car_wash": "no", "name": "Cyclon"}}, {"type": "node", "id": 9770248865, "lat": 39.2561206, "lon": 26.0820666, "tags": {"amenity": "fuel", "brand": "EKO", "brand:wikidata": "Q31283948", "name": "EKO", "operator": "ΘΕΟΔΩΡΟΣ ΦΩΤΕΛΛΗΣ & ΣΙΑ Ο.Ε.", "phone": "+302253098416"}}, {"type": "node", "id": 8923653923, "lat": 39.2596347, "lon": 26.0708418, "tags": {"amenity": "restaurant", "name": "Πανόραμα"}}, {"type": "node", "id": 9979124341, "lat": 39.2916097, "lon": 26.0190934, "tags": {"castle_type": "fortification", "historic": "castle", "historic:civilization": "byzantine", "image": "https://www.kastra.eu/castlegr.php?kastro=ovriokastro", "name": "Οβριόκαστρο", "name:el": "Οβριόκαστρο", "name:en": "Ovriokastro", "ruins": "yes", "source": "https://www.kastra.eu/castlegr.php?kastro=lisvorio", "wikidata": "Q108612601"}}, {"type": "node", "id": 10170330868, "lat": 39.2893574, "lon": 26.0193352, "tags": {"leisure": "picnic_table"}}, {"type": "node", "id": 8923653925, "lat": 39.2592407, "lon": 26.1377399, "tags": {"amenity": "restaurant", "name": "Το χάνι"}}, {"type": "node", "id": 9744978290, "lat": 39.2581745, "lon": 26.1469763, "tags": {"information": "board", "tourism": "information"}}, {"type": "node", "id": 913570014, "lat": 39.2632198, "lon": 26.1387679, "tags": {"amenity": "pharmacy", "name": "Filia Pharmacy Store", "opening_hours": "Mo-Fr 08:30-20:00"}}, {"type": "node", "id": 9744992997, "lat": 39.2597076, "lon": 26.1420062, "tags": {"amenity": "restaurant", "name": "Παράδεισος"}}, {"type": "node", "id": 1307885682, "lat": 39.2660127, "lon": 26.1375783, "tags": {"amenity": "drinking_water", "ele": "306", "man_made": "water_well"}}, {"type": "node", "id": 1119526636, "lat": 39.2481198, "lon": 26.1733599, "tags": {"access": "yes", "amenity": "parking", "fee": "no", "parking": "surface"}}, {"type": "node", "id": 9738089266, "lat": 39.2477702, "lon": 26.1727971, "tags": {"amenity": "drinking_water", "man_made": "water_tap"}}, {"type": "node", "id": 9738094462, "lat": 39.2475356, "lon": 26.1719955, "tags": {"fee": "yes", "tourism": "museum"}}, {"type": "node", "id": 9738100131, "lat": 39.2479507, "lon": 26.1729268, "tags": {"historic": "memorial", "memorial": "bust"}}, {"type": "node", "id": 9738101464, "lat": 39.2480647, "lon": 26.173072, "tags": {"tourism": "information"}}, {"type": "node", "id": 12923626955, "lat": 39.2514593, "lon": 26.1736048, "tags": {"tourism": "viewpoint"}}, {"type": "node", "id": 12923646065, "lat": 39.247921, "lon": 26.1732499, "tags": {"amenity": "cafe", "name": "Ιερά Μονή Λειμώνος", "phone": "+30 699 3949712"}}, {"type": "node", "id": 9738096624, "lat": 39.2497094, "lon": 26.1773756, "tags": {"information": "board", "tourism": "information"}}, {"type": "node", "id": 11900815069, "lat": 39.2401757, "lon": 26.1991024, "tags": {"amenity": "pharmacy"}}, {"type": "node", "id": 6477015539, "lat": 39.2335093, "lon": 26.2075539, "tags": {"amenity": "pharmacy", "healthcare": "pharmacy", "name": "ΜΑΡΙΟΛΑ"}}, {"type": "node", "id": 8420374475, "lat": 39.2332297, "lon": 26.2072616, "tags": {"amenity": "cafe"}}, {"type": "node", "id": 8420379672, "lat": 39.2332549, "lon": 26.2075605, "tags": {"amenity": "cafe"}}, {"type": "node", "id": 3696951652, "lat": 39.2352266, "lon": 26.2082906, "tags": {"amenity": "fuel", "brand": "Avin", "brand:wikidata": "Q22979634", "brand:wikipedia": "en:Avin International", "name": "AVIN", "operator": "ΜΙΧΑΗΛ ΣΙΜΟΣ"}}, {"type": "node", "id": 8506035119, "lat": 39.2338496, "lon": 26.2101636, "tags": {"amenity": "hospital", "healthcare": "hospital", "name": "COVID Vaccination center"}}, {"type": "node", "id": 8765257508, "lat": 39.2340127, "lon": 26.2080512, "tags": {"amenity": "cafe", "outdoor_seating": "yes"}}, {"type": "node", "id": 9738063847, "lat": 39.2343867, "lon": 26.2080221, "tags": {"information": "board", "tourism": "information"}}, {"type": "node", "id": 9738068599, "lat": 39.233358, "lon": 26.2085313, "tags": {"shop": "convenience"}}, {"type": "node", "id": 9738074946, "lat": 39.2340918, "lon": 26.2082651, "tags": {"information": "board", "name": "Γεωπάρκο Λέσβου", "tourism": "information"}}, {"type": "node", "id": 9738084754, "lat": 39.2332274, "lon": 26.2081879, "tags": {"amenity": "cafe"}}, {"type": "node", "id": 9738102322, "lat": 39.2337659, "lon": 26.2080777, "tags": {"amenity": "pharmacy", "check_date": "2026-01-05", "healthcare": "pharmacy"}}, {"type": "node", "id": 10816985464, "lat": 39.2336798, "lon": 26.2080216, "tags": {"amenity": "restaurant", "check_date": "2023-04-17", "cuisine": "coffee_shop;burger;regional", "name": "Quest", "wheelchair": "yes"}}, {"type": "node", "id": 12773017202, "lat": 39.2337729, "lon": 26.2078498, "tags": {"information": "map", "map_size": "yes", "tourism": "information"}}, {"type": "node", "id": 13432208439, "lat": 39.2339088, "lon": 26.2082543, "tags": {"amenity": "fast_food", "check_date": "2026-01-05", "name": "Gyro's house"}}, {"type": "node", "id": 13432232350, "lat": 39.2340896, "lon": 26.2080829, "tags": {"historic": "memorial", "name": "Ελεύθερος Βενιζελος"}}, {"type": "node", "id": 10873548454, "lat": 39.2585626, "lon": 26.2065359, "tags": {"amenity": "shelter", "bench": "no", "lit": "no", "shelter_type": "gazebo"}}, {"type": "node", "id": 6469370767, "lat": 39.2708565, "lon": 26.2113715, "tags": {"amenity": "drinking_water"}}, {"type": "node", "id": 3165321810, "lat": 39.284831, "lon": 26.1958338, "tags": {"historic": "ruins", "name": "Κλαπάδος", "name:de": "Klapados", "name:el": "Κλαπάδος", "tourism": "attraction"}}, {"type": "node", "id": 9199274904, "lat": 39.2848887, "lon": 26.1959732, "tags": {"ele": "378", "name": "Πηγή Κλαπάδος", "natural": "spring"}}, {"type": "node", "id": 12926020521, "lat": 39.2950502, "lon": 26.1306195, "tags": {"tourism": "viewpoint"}}, {"type": "node", "id": 1307885596, "lat": 39.2910409, "lon": 26.136702, "tags": {"amenity": "drinking_water", "man_made": "water_tap", "name": "Brunnen"}}, {"type": "node", "id": 12828735510, "lat": 39.3104628, "lon": 26.1468158, "tags": {"amenity": "shelter"}}, {"type": "node", "id": 3687734233, "lat": 39.318185, "lon": 26.1485069, "tags": {"addr:city": "Άναξος", "addr:postcode": "81109", "internet_access": "no", "name": "Studios Aquarius", "phone": "+306998302375", "rooms": "4", "smoking": "yes", "tourism": "hotel", "website": "https://sites.google.com/site/aquariustudios/"}}, {"type": "node", "id": 4955574699, "lat": 39.3161108, "lon": 26.1456449, "tags": {"addr:city": "Anaxos", "addr:postcode": "81109", "name": "Stratos Market", "opening_hours": "Mo-Su 09:00-21:00", "shop": "convenience"}}, {"type": "node", "id": 7754311380, "lat": 39.3179662, "lon": 26.1468334, "tags": {"amenity": "cafe", "name": "Europa"}}, {"type": "node", "id": 9123173088, "lat": 39.3165787, "lon": 26.1451003, "tags": {"amenity": "restaurant", "name": "Ο Μούτσος"}}, {"type": "node", "id": 11919525989, "lat": 39.3171705, "lon": 26.1445426, "tags": {"amenity": "restaurant", "cuisine": "greek", "name": "Ακρογιάλι"}}, {"type": "node", "id": 11919525997, "lat": 39.3171756, "lon": 26.1441857, "tags": {"amenity": "restaurant", "cuisine": "greek", "name": "Βότσαλο"}}, {"type": "node", "id": 11924958379, "lat": 39.3173596, "lon": 26.1462006, "tags": {"name": "Fotis Rooms", "tourism": "hotel"}}, {"type": "node", "id": 11924958406, "lat": 39.317237, "lon": 26.1459683, "tags": {"name": "The Coast", "tourism": "hotel"}}, {"type": "node", "id": 3642970913, "lat": 39.3191437, "lon": 26.148329, "tags": {"addr:city": "Άναξος", "amenity": "restaurant", "check_date": "2025-05-13", "internet_access": "wlan", "internet_access:fee": "customers", "name": "Acapulco", "opening_hours": "10:00-23:00", "payment:cash": "yes", "payment:cash:EUR": "yes", "payment:credit_cards": "yes", "payment:debit_cards": "yes", "phone": "+30 2253 042683", "wheelchair": "yes"}}, {"type": "node", "id": 3642975038, "lat": 39.3190603, "lon": 26.148121, "tags": {"addr:city": "Άναξος", "addr:postcode": "81109", "amenity": "restaurant", "capacity": "50", "check_date": "2025-05-13", "name": "Είναι", "name:el": "Είναι", "name:en": "Einai", "opening_hours": "Mo-Su 09:00-21:00", "outdoor_seating": "yes", "website": "https://www.tripadvisor.com/ShowUserReviews-g1191735-d2485279-r217103061-Einai-Anaxos_Lesbos_Northeast_Aegean_Islands.html"}}, {"type": "node", "id": 3687739715, "lat": 39.318596, "lon": 26.1477557, "tags": {"amenity": "cafe", "name": "Κουρσάρος"}}, {"type": "node", "id": 3687739799, "lat": 39.3184177, "lon": 26.1482313, "tags": {"addr:city": "Άναξος", "addr:postcode": "81109", "name": "Studios Nikos", "tourism": "hotel"}}, {"type": "node", "id": 3687740713, "lat": 39.3183412, "lon": 26.1474333, "tags": {"addr:city": "Άναξος", "addr:postcode": "81109", "amenity": "cafe", "cuisine": "regional;pizza;burger;coffee_shop;sandwich;ice_cream;greek", "internet_access": "yes", "internet_access:fee": "no", "name": "Palatino", "opening_hours": "24/7", "outdoor_seating": "yes", "smoking": "separated"}}, {"type": "node", "id": 4954399958, "lat": 39.319383, "lon": 26.1485167, "tags": {"addr:city": "Άναξος", "addr:postcode": "81109", "amenity": "cafe", "check_date": "2025-05-13", "cuisine": "coffee_shop;sandwich;ice_cream", "internet_access": "yes", "internet_access:fee": "no", "name": "Malibu", "opening_hours": "09:00-24:00", "outdoor_seating": "yes", "payment:cash": "yes", "payment:cash:EUR": "yes", "payment:credit_cards": "yes", "payment:debit_cards": "yes", "smoking": "separated", "wheelchair": "limited"}}, {"type": "node", "id": 4955574694, "lat": 39.3168643, "lon": 26.1522367, "tags": {"addr:city": "Anaxos", "addr:postcode": "81109", "amenity": "restaurant", "capacity": "60", "cuisine": "coffee_shop;kebab;chicken;greek;steak_house;sandwich;grill", "delivery": "yes", "name": "Ariston", "opening_hours": "24/7", "outdoor_seating": "yes", "smoking": "separated", "takeaway": "yes", "website": "https://www.tripadvisor.com/ShowUserReviews-g1191735-d3242837-r234178602-Ariston-Anaxos_Lesbos_Northeast_Aegean_Islands.html"}}, {"type": "node", "id": 4955576236, "lat": 39.3164796, "lon": 26.1500463, "tags": {"amenity": "restaurant", "cuisine": "coffee_shop;steak_house;greek;grill", "name": "Omega"}}, {"type": "node", "id": 9989057717, "lat": 39.3176174, "lon": 26.1546932, "tags": {"name:en": "Vassilis Studios", "name:tr": "Vassilis Studios", "tourism": "hostel"}}, {"type": "node", "id": 10067209718, "lat": 39.3176121, "lon": 26.1547167, "tags": {"addr:street": "Anaxos Skoutarou", "name": "Vassilis Studios", "tourism": "hotel"}}, {"type": "node", "id": 10237999481, "lat": 39.3164912, "lon": 26.151502, "tags": {"name": "Michelle's Studios", "tourism": "hotel"}}, {"type": "node", "id": 10238012087, "lat": 39.3167502, "lon": 26.1512232, "tags": {"amenity": "cafe", "name": "Michelle"}}, {"type": "node", "id": 13514280601, "lat": 39.3165366, "lon": 26.1544429, "tags": {"contact:instagram": "villa.anaxos", "email": "anaxos.lesbos@outlook.com", "internet_access": "wlan", "name": "Villa Anaxos", "tourism": "chalet"}}, {"type": "node", "id": 3642954187, "lat": 39.321168, "lon": 26.1498167, "tags": {"addr:city": "Άναξος", "amenity": "restaurant", "name": "Κληματαριά", "name:de": "Klimataria", "name:el": "Κληματαριά", "name:en": "Klimataria"}}, {"type": "node", "id": 4421593149, "lat": 39.3218121, "lon": 26.1507673, "tags": {"name": "Anaxos Hill", "tourism": "hotel"}}, {"type": "node", "id": 4421593150, "lat": 39.3223034, "lon": 26.1544637, "tags": {"name": "Birds Bay", "tourism": "hotel"}}, {"type": "node", "id": 4421593151, "lat": 39.3220197, "lon": 26.1526049, "tags": {"name": "Eleia Seafront Rooms & Villas", "tourism": "hotel"}}, {"type": "node", "id": 4954476016, "lat": 39.3218408, "lon": 26.1499927, "tags": {"tourism": "viewpoint"}}, {"type": "node", "id": 4954699823, "lat": 39.318692, "lon": 26.1495495, "tags": {"addr:city": "Άναξος", "addr:postcode": "81109", "name": "Mini Market", "shop": "convenience"}}, {"type": "node", "id": 4954699824, "lat": 39.3186525, "lon": 26.1497952, "tags": {"addr:city": "Άναξος", "addr:postcode": "81109", "name": "Anaxos Market", "shop": "convenience"}}, {"type": "node", "id": 4954699825, "lat": 39.3185075, "lon": 26.1496097, "tags": {"addr:city": "Άναξος", "addr:postcode": "81109", "name": "Kostas Market", "shop": "convenience"}}, {"type": "node", "id": 4954699826, "lat": 39.3186305, "lon": 26.1491861, "tags": {"addr:city": "Άναξος", "addr:postcode": "81109", "amenity": "cafe", "cuisine": "burger;coffee_shop;sandwich", "internet_access": "yes", "internet_access:fee": "no", "name": "The taste", "opening_hours": "Mo-Su 09:00-21:00", "outdoor_seating": "yes"}}, {"type": "node", "id": 11503841701, "lat": 39.3225569, "lon": 26.1544242, "tags": {"name": "Little birds", "tourism": "hotel"}}, {"type": "node", "id": 11504355679, "lat": 39.3210361, "lon": 26.1526233, "tags": {"name": "King's View", "tourism": "hotel"}}, {"type": "node", "id": 11595655644, "lat": 39.3184919, "lon": 26.1544403, "tags": {"name": "Christina's Garden Hotel", "tourism": "hotel"}}, {"type": "node", "id": 11595655645, "lat": 39.3194203, "lon": 26.1546461, "tags": {"name": "Eleftheria Apartments", "tourism": "hotel"}}, {"type": "node", "id": 11919450480, "lat": 39.3204915, "lon": 26.149633, "tags": {"amenity": "restaurant", "name": "Paradise"}}, {"type": "node", "id": 3642976741, "lat": 39.3190968, "lon": 26.1615555, "tags": {"amenity": "fuel", "brand": "EKO", "brand:wikidata": "Q31283948", "name": "EKO", "operator": "ΜΑΡΓΑΡΙΤΗ ΦΙΛΙΣΙΑ", "phone": "+302253041464"}}, {"type": "node", "id": 3696046097, "lat": 39.3190739, "lon": 26.1614988, "tags": {"shop": "convenience"}}, {"type": "node", "id": 6469343387, "lat": 39.3227556, "lon": 26.160721, "tags": {"leisure": "picnic_table"}}, {"type": "node", "id": 9050567931, "lat": 39.3219931, "lon": 26.1599237, "tags": {"name": "Clara Hotel", "tourism": "hotel"}}, {"type": "node", "id": 12768983483, "lat": 39.3183679, "lon": 26.1559678, "tags": {"check_date": "2025-04-19", "shop": "bakery"}}, {"type": "node", "id": 1307885705, "lat": 39.3027911, "lon": 26.1807525, "tags": {"access": "yes", "amenity": "drinking_water", "fee": "no", "name": "Brunnen", "wheelchair": "limited"}}, {"type": "node", "id": 12830871780, "lat": 39.3027698, "lon": 26.1807352, "tags": {"amenity": "shelter", "bench": "yes", "bin": "no", "shelter_type": "public_transport"}}, {"type": "node", "id": 3696949620, "lat": 39.2969659, "lon": 26.1952305, "tags": {"access": "yes", "amenity": "drinking_water", "fee": "no"}}, {"type": "node", "id": 9741750989, "lat": 39.296996, "lon": 26.1953287, "tags": {"information": "board", "tourism": "information"}}, {"type": "node", "id": 9741757920, "lat": 39.2909717, "lon": 26.2035473, "tags": {"amenity": "drinking_water"}}, {"type": "node", "id": 9979124343, "lat": 39.3021481, "lon": 26.198092, "tags": {"castle_type": "castle", "historic": "castle", "historic:civilization": "byzantine", "image": "https://www.kastra.eu/pics/stypsdi4.jpg", "name": "Καστρέλλι Στύψης", "name:el": "Καστρέλλι Στύψης", "name:en": "Kastreli of Stypsi", "ruins": "yes", "source": "https://www.kastra.eu/castlegr.php?kastro=stypsi", "wikidata": "Q117824022"}}, {"type": "node", "id": 3642982711, "lat": 39.3196474, "lon": 26.1628664, "tags": {"name": "Δευκαλίων", "name:de": "Defkalion", "name:el": "Δευκαλίων", "name:en": "Defkalion", "tourism": "hotel"}}, {"type": "node", "id": 4421574883, "lat": 39.3219744, "lon": 26.1676647, "tags": {"name": "Villa Marianthi", "tourism": "hotel"}}, {"type": "node", "id": 9738096459, "lat": 39.3225887, "lon": 26.1656854, "tags": {"information": "board", "tourism": "information"}}, {"type": "node", "id": 10277357150, "lat": 39.3219294, "lon": 26.1643268, "tags": {"name": "ALMA HOTEL", "tourism": "hotel"}}, {"type": "node", "id": 12768983484, "lat": 39.3197465, "lon": 26.1640685, "tags": {"information": "map", "map_size": "region", "tourism": "information"}}, {"type": "node", "id": 12773017201, "lat": 39.3193556, "lon": 26.1685285, "tags": {"access": "yes", "amenity": "drinking_water", "fee": "no"}}, {"type": "node", "id": 3696949820, "lat": 39.3146723, "lon": 26.1842684, "tags": {"amenity": "fuel"}}, {"type": "node", "id": 9770264643, "lat": 39.3240512, "lon": 26.1828413, "tags": {"amenity": "fuel", "brand": "Shell", "brand:wikidata": "Q110716465", "name": "SHELL", "operator": "ΔΗΜΟΥ ΒΑΣΙΛΙΚΗ", "phone": "+302253041640"}}, {"type": "node", "id": 13065886737, "lat": 39.3221023, "lon": 26.1821758, "tags": {"amenity": "charging_station", "brand:wikidata": "Q5176149", "check_date": "2025-08-12", "name": "ChargePoint", "operator": "Beny.com", "operator:wikidata": "Q5176149", "payment:cash": "yes", "payment:credit_cards": "yes", "payment:debit_cards": "yes"}}, {"type": "node", "id": 13168278596, "lat": 39.3219552, "lon": 26.1824638, "tags": {"access": "yes", "addr:city": "Πέτρα", "addr:country": "GR", "addr:postcode": "81109", "amenity": "charging_station", "authentication:app": "yes", "brand": "EVziiin", "capacity": "2", "contact:email": "customercare@evziiin.com", "contact:website": "https://www.evziiin.com/", "covered": "no", "description": "Station accessible only on working hours", "fee": "yes", "int_name": "EVziiin - Karantonis", "lit": "yes", "motorcar": "yes", "name": "EVziiin - Καραντώνης", "name:el": "EVziiin - Καραντώνης", "name:en": "EVziiin - Karantonis", "note": "Δεν είναι στο μητρώο GR:IDRO", "opening_hours": "Mo,We,Sa 08:00-14:30; Tu,Th,Fr 08:00-14:30,18:00-20:30; PH off", "operator": "Σ. Καραντώνης & ΣΙΑ Ο.Ε.", "parking:fee": "no", "payment:app": "yes", "ref": "4943;7481", "ref:EU:EVSE": "GR*EVZ*E0004943;GR*EVZ*E0007481", "socket:type2": "2", "socket:type2:output": "22"}}, {"type": "node", "id": 3642990487, "lat": 39.3252824, "lon": 26.1725695, "tags": {"addr:city": "Πέτρα", "name": "Miramare", "tourism": "hotel"}}, {"type": "node", "id": 3643002945, "lat": 39.3275299, "lon": 26.1749599, "tags": {"addr:city": "Πέτρα", "name": "Πέτρα και φως", "shop": "convenience"}}, {"type": "node", "id": 4120473185, "lat": 39.3255433, "lon": 26.1739556, "tags": {"name": "Paradise studios", "tourism": "hotel"}}, {"type": "node", "id": 4120473186, "lat": 39.3260827, "lon": 26.1729823, "tags": {"name": "Hotel Τούλα", "name:el": "Hotel Τούλα", "name:en": "Hotel Toula", "tourism": "hotel"}}, {"type": "node", "id": 4120473187, "lat": 39.3261949, "lon": 26.1732018, "tags": {"name": "Michaelia", "tourism": "hotel"}}, {"type": "node", "id": 4120473328, "lat": 39.3260095, "lon": 26.1728937, "tags": {"name": "Studio Ippokratis", "tourism": "hotel"}}, {"type": "node", "id": 4172521797, "lat": 39.3273223, "lon": 26.1745346, "tags": {"amenity": "pharmacy", "healthcare": "pharmacy"}}, {"type": "node", "id": 9006507917, "lat": 39.3258295, "lon": 26.1724848, "tags": {"amenity": "drinking_water"}}, {"type": "node", "id": 9006940170, "lat": 39.3277445, "lon": 26.1750436, "tags": {"name": "Minas Market", "shop": "convenience"}}, {"type": "node", "id": 9123171865, "lat": 39.3273164, "lon": 26.1748963, "tags": {"amenity": "atm", "brand": "Euronet", "brand:wikidata": "Q5412010", "cash_in": "no", "check_date": "2025-05-09", "currency:EUR": "yes", "drive_through": "no", "name": "Euronet", "operator": "Euronet", "operator:wikidata": "Q5412010"}}, {"type": "node", "id": 9738098634, "lat": 39.327389, "lon": 26.1749769, "tags": {"amenity": "restaurant", "check_date": "2025-04-19", "name": "Zorbas"}}, {"type": "node", "id": 11269488262, "lat": 39.3256012, "lon": 26.1733479, "tags": {"name": "Nikis Suites Petra", "tourism": "hotel"}}, {"type": "node", "id": 3029264781, "lat": 39.3277262, "lon": 26.1752064, "tags": {"addr:city": "Πέτρα", "addr:postcode": "81109", "amenity": "restaurant", "balcony": "yes", "check_date": "2025-06-18", "check_date:smoking": "2025-06-18", "cuisine": "greek", "internet_access:ssid": "women coop", "level": "1", "name": "Αγροτοτουριστοκός Συναιτερισμός Γυναικών Πέτρας", "name:en": "The Women's Co-Operative", "opening_hours": "Mo-Su 12:00-23:00", "outdoor_seating": "yes", "phone": "+30 22530 41238", "smoking": "outside", "toilets": "yes", "toilets:wheelchair": "no", "website": "http://www.lesvos-travel.com/womens-cooperative/", "wheelchair": "no"}}, {"type": "node", "id": 3029264831, "lat": 39.3262473, "lon": 26.1791962, "tags": {"baby_feeding": "no", "check_date": "2025-05-10", "level": "0", "name": "Ο Φουρνοσ Της Μαμασ", "name:el": "Ο Φουρνοσ Της Μαμασ", "name:en": "Mama's Little Bakery", "opening_hours": "Mo-Sa 07:00-13:00; Su off", "payment:cash": "yes", "payment:cash:EUR": "yes", "payment:credit_cards": "yes", "payment:debit_cards": "yes", "shop": "bakery", "wheelchair": "no"}}, {"type": "node", "id": 3643006725, "lat": 39.3278381, "lon": 26.1751673, "tags": {"addr:city": "Πέτρα", "amenity": "cafe", "bar": "yes", "check_date": "2025-06-18", "check_date:smoking": "2025-06-18", "indoor_seating": "yes", "internet_access": "wlan", "internet_access:fee": "customers", "name": "Καντίνα", "name:de": "Kantina", "name:el": "Καντίνα", "name:en": "Kantina", "outdoor_seating": "yes", "phone": "+30 2253 041896", "smoking": "outside", "toilets:access": "customers"}}, {"type": "node", "id": 3643007681, "lat": 39.3277822, "lon": 26.1753395, "tags": {"addr:city": "Πέτρα", "amenity": "cafe", "check_date": "2022-05-13", "name": "Beba's Corner", "phone": "+30 2253112260"}}, {"type": "node", "id": 3643008734, "lat": 39.3278157, "lon": 26.1754555, "tags": {"addr:city": "Πέτρα", "addr:postcode": "81109", "amenity": "cafe", "check_date": "2025-05-10", "name": "Πλατεία", "outdoor_seating": "yes", "phone": "00306941640781"}}, {"type": "node", "id": 3812653425, "lat": 39.3264583, "lon": 26.1810546, "tags": {"name": "Theofilos", "tourism": "hotel"}}, {"type": "node", "id": 5669028121, "lat": 39.3295555, "lon": 26.1777002, "tags": {"amenity": "atm", "brand": "Τράπεζα Πειραιώς", "brand:el": "Τράπεζα Πειραιώς", "brand:en": "Piraeus Bank", "brand:wikidata": "Q3312", "name": "Τράπεζα Πειραιώς", "name:el": "Τράπεζα Πειραιώς", "name:en": "Piraeus Bank", "operator": "Τράπεζα Πειραιώς", "operator:wikidata": "Q3312", "short_name": "Πειραιώς", "short_name:el": "Πειραιώς", "short_name:en": "Piraeus"}}, {"type": "node", "id": 6469862977, "lat": 39.3314083, "lon": 26.1805768, "tags": {"amenity": "bicycle_parking"}}, {"type": "node", "id": 6699878785, "lat": 39.3279381, "lon": 26.1754354, "tags": {"amenity": "restaurant", "name:en": "Oe Eatery"}}, {"type": "node", "id": 7754266736, "lat": 39.3314218, "lon": 26.1805321, "tags": {"information": "board", "name": "Γεωπάρκο Λέσβου", "name:el": "Γεωπάρκο Λέσβου", "tourism": "information"}}, {"type": "node", "id": 7754276883, "lat": 39.3268787, "lon": 26.1760033, "tags": {"amenity": "drinking_water"}}, {"type": "node", "id": 7754290735, "lat": 39.32744, "lon": 26.1759415, "tags": {"amenity": "drinking_water"}}, {"type": "node", "id": 7754292329, "lat": 39.3279965, "lon": 26.1752109, "tags": {"access": "yes", "amenity": "drinking_water", "bottle": "yes", "covered": "no", "fee": "no", "man_made": "water_tap"}}, {"type": "node", "id": 9738080950, "lat": 39.3275745, "lon": 26.1757065, "tags": {"amenity": "cafe", "building": "yes", "building:levels": "1", "indoor_seating": "yes", "internet_access": "wlan", "internet_access:fee": "no", "name": "Dak", "opening_hours": "Mo-Su 10:00-24:00", "outdoor_seating": "yes", "roof:shape": "flat", "takeaway": "yes", "toilets": "yes", "toilets:access": "customers", "toilets:wheelchair": "no", "wheelchair": "limited"}}, {"type": "node", "id": 9770264648, "lat": 39.3313188, "lon": 26.1808577, "tags": {"amenity": "fuel", "brand": "BP", "brand:wikidata": "Q152057", "name": "BP", "operator": "ΓΚΡΑΒΑΛΗΣ ΧΡ. - ΓΚΡΑΒΑΛΗΣ Ν. ΟΕ", "phone": "+302253041349"}}, {"type": "node", "id": 10246468586, "lat": 39.3283811, "lon": 26.176271, "tags": {"name": "K.E.M.", "tourism": "artwork"}}, {"type": "node", "id": 10246468592, "lat": 39.3282261, "lon": 26.1759088, "tags": {"amenity": "cafe", "name": "Daily dose"}}, {"type": "node", "id": 12768983475, "lat": 39.3278706, "lon": 26.1755763, "tags": {"amenity": "restaurant", "check_date": "2025-04-19", "cuisine": "barbecue", "name": "Marina Grill House"}}, {"type": "node", "id": 12768983485, "lat": 39.3280662, "lon": 26.175615, "tags": {"hiking": "yes", "information": "map", "map_size": "region", "map_type": "topo", "material": "wood", "name": "Μονοπάτια της Πέτρας", "name:en": "Trekking trails of Petra", "tourism": "information"}}, {"type": "node", "id": 12817558356, "lat": 39.3269601, "lon": 26.1802526, "tags": {"access": "yes", "amenity": "parking", "check_date": "2025-05-07", "opening_hours": "24/7", "parking": "surface", "smoothness": "intermediate", "surface": "dirt", "wheelchair": "no"}}, {"type": "node", "id": 12817936083, "lat": 39.3264489, "lon": 26.1768789, "tags": {"bulk_purchase": "yes", "level": "0", "name": "Καλατζησ Ν. Ιγνατιοσ", "opening_hours": "Mo-Sa 09:00-22:00", "organic": "yes", "shop": "supermarket", "toilets:wheelchair": "no", "wheelchair": "no", "wheelchair:entrance_width": "80", "wheelchair:step_height": "5"}}, {"type": "node", "id": 12825603634, "lat": 39.3303552, "lon": 26.1785626, "tags": {"information": "map", "map_size": "region", "map_type": "topo", "operator": "Municipal Of Western Lesbos", "tourism": "information"}}, {"type": "node", "id": 12825815378, "lat": 39.3272571, "lon": 26.1752077, "tags": {"access": "yes", "amenity": "drinking_water", "fee": "no"}}, {"type": "node", "id": 12837051641, "lat": 39.3262515, "lon": 26.1768735, "tags": {"amenity": "cafe", "check_date": "2025-05-14", "cuisine": "pizza;greek", "internet_access": "wlan", "internet_access:fee": "customers", "name:el": "Ο Μαχαλασ", "payment:cash": "yes", "payment:cash:EUR": "yes", "payment:credit_cards": "yes", "payment:debit_cards": "yes", "source": "survey", "wheelchair": "limited"}}, {"type": "node", "id": 12847199348, "lat": 39.3307664, "lon": 26.1788173, "tags": {"information": "board", "tourism": "information"}}, {"type": "node", "id": 12861560367, "lat": 39.328081, "lon": 26.1756014, "tags": {"bicycle": "yes", "information": "map", "map_size": "region", "name": "Ποδηλατικές διαδρομές Βόρειας Λέσβου", "name:en": "Bike trails in North Lesvos", "tourism": "information"}}, {"type": "node", "id": 12951179635, "lat": 39.3299628, "lon": 26.1781301, "tags": {"amenity": "cafe", "name": "Eden"}}, {"type": "node", "id": 4710353090, "lat": 39.3317888, "lon": 26.1801806, "tags": {"amenity": "cafe"}}, {"type": "node", "id": 9738103346, "lat": 39.3321022, "lon": 26.1806708, "tags": {"information": "board", "tourism": "information"}}, {"type": "node", "id": 12015680359, "lat": 39.331898, "lon": 26.1800137, "tags": {"shop": "convenience"}}, {"type": "node", "id": 12828656896, "lat": 39.3321415, "lon": 26.1808629, "tags": {"amenity": "atm", "cash_in": "no", "check_date": "2025-05-11", "currency:EUR": "yes", "drive_through": "no", "operator": "Euronet"}}, {"type": "node", "id": 12847199390, "lat": 39.3321121, "lon": 26.1806761, "tags": {"amenity": "bicycle_parking"}}, {"type": "node", "id": 12847199391, "lat": 39.3321463, "lon": 26.180612, "tags": {"amenity": "bicycle_parking"}}, {"type": "node", "id": 3009326395, "lat": 39.3344571, "lon": 26.1820322, "tags": {"name": "Cavo Christo", "tourism": "hotel"}}, {"type": "node", "id": 3009326396, "lat": 39.3343478, "lon": 26.1825069, "tags": {"amenity": "parking"}}, {"type": "node", "id": 4470461659, "lat": 39.3326239, "lon": 26.1847104, "tags": {"name": "Theodora Hotel", "tourism": "hotel"}}, {"type": "node", "id": 4470461673, "lat": 39.3332714, "lon": 26.1843834, "tags": {"name": "Sunshine Hotel", "tourism": "hotel"}}, {"type": "node", "id": 10982397079, "lat": 39.3342379, "lon": 26.1854484, "tags": {"addr:city": "Petra Lesvos", "addr:postcode": "81109", "bar": "yes", "check_date": "2026-03-15", "check_date:currency:XBT": "2026-03-15", "contact:facebook": "Sunsethotelpetra", "contact:instagram": "sunsetlesvos", "currency:XBT": "yes", "email": "info@sunset.gr", "internet_access": "yes", "internet_access:fee": "no", "level": "2", "name": "Sunset Hotel", "payment:account_cards": "yes", "payment:american_express": "yes", "payment:apple_pay": "yes", "payment:cash": "yes", "payment:contactless": "yes", "payment:lightning": "yes", "payment:lightning_contactless": "no", "payment:mastercard": "yes", "payment:onchain": "no", "payment:visa": "yes", "phone": "+30 225 304 1003", "reservation": "yes", "rooms": "50", "stars": "3.5", "survey:date": "2022-06-17", "tourism": "hotel", "website": "https://www.sunset.gr", "wheelchair": "yes"}}, {"type": "node", "id": 11002280215, "lat": 39.3363608, "lon": 26.1843928, "tags": {"amenity": "charging_station", "brand": "WATT AND VOLT", "description": "Does not appear on the GR:IDRO registry or the Chargespot app", "fixme": "Does not appear on the GR:IDRO registry or the Chargespot app", "name": "Panorama Hotel", "operator": "WATT AND VOLT"}}, {"type": "node", "id": 12768983477, "lat": 39.3179889, "lon": 26.1975144, "tags": {"information": "map", "tourism": "information"}}, {"type": "node", "id": 12768983478, "lat": 39.3185935, "lon": 26.1978821, "tags": {"access": "yes", "amenity": "drinking_water", "fee": "no"}}, {"type": "node", "id": 12768983479, "lat": 39.3186736, "lon": 26.1980114, "tags": {"access": "yes", "amenity": "drinking_water", "fee": "no"}}, {"type": "node", "id": 12768983480, "lat": 39.3252107, "lon": 26.205441, "tags": {"information": "route_marker", "material": "wood", "tourism": "information"}}, {"type": "node", "id": 12768983481, "lat": 39.3273143, "lon": 26.2101311, "tags": {"information": "route_marker", "material": "wood", "tourism": "information"}}, {"type": "node", "id": 12768983482, "lat": 39.3273169, "lon": 26.2101867, "tags": {"information": "map", "tourism": "information"}}, {"type": "node", "id": 7754334524, "lat": 39.3480913, "lon": 26.1743746, "tags": {"amenity": "drinking_water", "note": "location approximate"}}, {"type": "node", "id": 3165322370, "lat": 39.3517128, "lon": 26.1738409, "tags": {"name": "Panoramic view to Molyvos", "tourism": "viewpoint"}}, {"type": "node", "id": 12770524009, "lat": 39.3513936, "lon": 26.1737475, "tags": {"information": "map", "tourism": "information"}}, {"type": "node", "id": 3854482596, "lat": 39.3554116, "lon": 26.1811835, "tags": {"name": "Mileja Inselgarten", "name:de": "Mileja Inselgarten", "tourism": "hotel"}}, {"type": "node", "id": 3854491276, "lat": 39.3568818, "lon": 26.1784468, "tags": {"name": "Moongarden Village", "name:de": "Moongarden Village", "tourism": "hotel"}}, {"type": "node", "id": 2661279982, "lat": 39.3560299, "lon": 26.1850323, "tags": {"name": "Marianthi Paradise", "phone": "+30 22530 71300", "tourism": "hotel", "website": "https://www.marianthiparadise-molivos.com/"}}, {"type": "node", "id": 3838023478, "lat": 39.3572634, "lon": 26.1840068, "tags": {"name": "Molivos View Studios", "name:de": "Molivos View Studios", "tourism": "hotel"}}, {"type": "node", "id": 1320177779, "lat": 39.3580914, "lon": 26.1767776, "tags": {"addr:postcode": "81108", "name": "Delfinia Hotel & Bungalows", "name:de": "Delfinia Hotel & Bungalows", "tourism": "hotel"}}, {"type": "node", "id": 4172522808, "lat": 39.3623065, "lon": 26.1782215, "tags": {"name": "Σούπερ Μάρκετ", "shop": "convenience"}}, {"type": "node", "id": 10816650515, "lat": 39.362897, "lon": 26.1783941, "tags": {"artwork_type": "painting", "description": "painting on street cabinet", "tourism": "artwork"}}, {"type": "node", "id": 9770261808, "lat": 39.3580856, "lon": 26.181738, "tags": {"amenity": "fuel", "brand": "EKO", "brand:wikidata": "Q31283948", "name": "EKO", "operator": "ΑΣΠΑΣΙΑ & ΚΩΝ/ΝΑ ΜΥΤΖΗΘΡΑ Ο.Ε."}}, {"type": "node", "id": 11491148700, "lat": 39.3617089, "lon": 26.1880892, "tags": {"information": "guidepost", "tourism": "information"}}, {"type": "node", "id": 11491169546, "lat": 39.3617714, "lon": 26.1864575, "tags": {"information": "guidepost", "tourism": "information"}}, {"type": "node", "id": 4268114094, "lat": 39.3537816, "lon": 26.1899897, "tags": {"name": "Marilena", "tourism": "hotel"}}, {"type": "node", "id": 11491150338, "lat": 39.3598344, "lon": 26.1883361, "tags": {"information": "guidepost", "tourism": "information"}}, {"type": "node", "id": 3639596377, "lat": 39.3693637, "lon": 26.1676757, "tags": {"addr:city": "Μόλυβος", "addr:postcode": "81108", "amenity": "restaurant", "name": "Το τραπέζι του καπετάνιου", "name:de": "The Captain's Table", "name:el": "Το τραπέζι του καπετάνιου", "name:en": "The Captain's Table", "opening_hours": "Mo-Sa 17:30-23:59"}}, {"type": "node", "id": 3639596379, "lat": 39.3693814, "lon": 26.1678207, "tags": {"amenity": "restaurant", "check_date": "2025-04-20", "name": "Kismet", "name:de": "Kismet"}}, {"type": "node", "id": 3639596380, "lat": 39.3690719, "lon": 26.1683758, "tags": {"amenity": "restaurant", "name": "Το χταπόδι", "name:el": "Το χταπόδι", "name:en": "The Octopus Restaurant", "website": "http://www.octapus-restaurant.com"}}, {"type": "node", "id": 3639596384, "lat": 39.3692965, "lon": 26.1682388, "tags": {"addr:city": "Μόλυβος", "addr:postcode": "81108", "name": "Sea Horse", "tourism": "hotel"}}, {"type": "node", "id": 4097466250, "lat": 39.3690689, "lon": 26.1684591, "tags": {"amenity": "restaurant", "name": "Ουζάδικο του Μπαμπούκου", "name:el": "Ουζάδικο του Μπαμπούκου", "name:en": "Mpampoukou"}}, {"type": "node", "id": 5092065106, "lat": 39.3692792, "lon": 26.1671324, "tags": {"amenity": "cafe", "check_date": "2025-04-20", "name": "Bazaar"}}, {"type": "node", "id": 9123165672, "lat": 39.3693861, "lon": 26.1680234, "tags": {"amenity": "restaurant", "name": "Απέραντο γαλάζιο"}}, {"type": "node", "id": 9741758369, "lat": 39.369306, "lon": 26.1681849, "tags": {"amenity": "restaurant", "name": "Sea horse"}}, {"type": "node", "id": 9741758817, "lat": 39.3693656, "lon": 26.1675171, "tags": {"amenity": "drinking_water"}}, {"type": "node", "id": 1996946282, "lat": 39.3697042, "lon": 26.1705162, "tags": {"historic": "archaeological_site"}}, {"type": "node", "id": 1996946289, "lat": 39.3680139, "lon": 26.1744694, "tags": {"amenity": "pharmacy", "healthcare": "pharmacy", "name": "Μπαλλιάκα Ελένη"}}, {"type": "node", "id": 1996946293, "lat": 39.3686384, "lon": 26.1747433, "tags": {"amenity": "hospital", "emergency": "yes", "healthcare": "hospital", "name": "First Aid"}}, {"type": "node", "id": 1996946295, "lat": 39.3683507, "lon": 26.1738622, "tags": {"name:en": "Art gallery of Mithymna", "tourism": "artwork"}}, {"type": "node", "id": 1996946296, "lat": 39.3689287, "lon": 26.1712886, "tags": {"historic": "archaeological_site", "name": "Lesbian canon"}}, {"type": "node", "id": 1996946876, "lat": 39.369418, "lon": 26.1725225, "tags": {"historic": "archaeological_site"}}, {"type": "node", "id": 2295958267, "lat": 39.36928, "lon": 26.1691096, "tags": {"amenity": "atm", "brand": "Citibank", "brand:wikidata": "Q857063", "name": "Citibank", "operator": "Citibank", "operator:wikidata": "Q857063", "short_name": "Citi", "source": "mymolivos"}}, {"type": "node", "id": 3165321807, "lat": 39.3681869, "lon": 26.1739151, "tags": {"addr:city": "Μόλυβος", "addr:postcode": "81108", "amenity": "restaurant", "cuisine": "greek", "mobile": "+30 697 6004947", "name": "Martin's", "opening_hours": "09:30-23:00", "outdoor_seating": "yes", "smoking": "outside", "website:menu": "https://citystroll.gr/orders/catalog?url=martins-restaurant-jkxyq3gs&catalog=NMTMrG74BYs"}}, {"type": "node", "id": 3165322399, "lat": 39.3681864, "lon": 26.1734876, "tags": {"amenity": "restaurant", "name:tr": "Sansibal Restaurant", "shop": "gift"}}, {"type": "node", "id": 3696928825, "lat": 39.3686212, "lon": 26.1727099, "tags": {"amenity": "restaurant", "cuisine": "pizza", "name": "Meltemi Ristorante Pizzeria", "opening_hours": "18:00-23:45", "phone": "+30 22530 71689"}}, {"type": "node", "id": 3696928826, "lat": 39.3687578, "lon": 26.171596, "tags": {"amenity": "restaurant", "name": "Dilino"}}, {"type": "node", "id": 3696946792, "lat": 39.3691249, "lon": 26.169877, "tags": {"amenity": "restaurant", "name": "Galiano"}}, {"type": "node", "id": 3777958231, "lat": 39.3691139, "lon": 26.1687256, "tags": {"amenity": "cafe", "name": "Αιγαίον", "name:de": "Cafe Aigaíon", "name:el": "Αιγαίον"}}, {"type": "node", "id": 3777958232, "lat": 39.3691051, "lon": 26.1686414, "tags": {"amenity": "restaurant", "name": "Μαϊστράλι", "name:de": "Maystrali", "name:el": "Μαϊστράλι"}}, {"type": "node", "id": 3778038075, "lat": 39.3691149, "lon": 26.1693465, "tags": {"amenity": "restaurant", "name": "Misirlou"}}, {"type": "node", "id": 4097466249, "lat": 39.36916, "lon": 26.1686419, "tags": {"name": "Sea Melody", "tourism": "hostel"}}, {"type": "node", "id": 5043884936, "lat": 39.3692893, "lon": 26.1732884, "tags": {"artwork_type": "gallery", "name": "Ίστος", "opening_hours": "10:00-15:00,18:00-23:00", "tourism": "artwork"}}, {"type": "node", "id": 5044688006, "lat": 39.3694006, "lon": 26.1733364, "tags": {"amenity": "drinking_water"}}, {"type": "node", "id": 7223046729, "lat": 39.3676406, "lon": 26.1749666, "tags": {"amenity": "restaurant", "cuisine": "greek", "int_name": "gatos", "name": "O Γάτος", "opening_hours": "Mo-Su 10:00-24:00", "outdoor_seating": "balcony;terrace", "phone": "+30 2253 071661", "website": "https://gatos-restaurant.gr/"}}, {"type": "node", "id": 7754266318, "lat": 39.3682804, "lon": 26.1736614, "tags": {"artwork_type": "bust", "material": "metal", "name": "Αργύρης Εφταλιώτης", "tourism": "artwork", "wikidata": "Q116776742"}}, {"type": "node", "id": 7754305333, "lat": 39.3683526, "lon": 26.1730904, "tags": {"information": "office", "tourism": "information"}}, {"type": "node", "id": 9123172214, "lat": 39.3679926, "lon": 26.1742092, "tags": {"amenity": "cafe", "name": "Μπαλκονάκι"}}, {"type": "node", "id": 9123172328, "lat": 39.3692391, "lon": 26.1690552, "tags": {"amenity": "atm", "brand": "Euronet", "brand:wikidata": "Q5412010", "name": "Euronet", "operator": "Euronet", "operator:wikidata": "Q5412010"}}, {"type": "node", "id": 9123172424, "lat": 39.3681746, "lon": 26.1739599, "tags": {"amenity": "cafe", "name": "Το μικρό καφέ", "smoking": "outside"}}, {"type": "node", "id": 9741742344, "lat": 39.3688677, "lon": 26.1747595, "tags": {"amenity": "drinking_water"}}, {"type": "node", "id": 9741746190, "lat": 39.3677622, "lon": 26.1750063, "tags": {"amenity": "drinking_water"}}, {"type": "node", "id": 9741746191, "lat": 39.3683399, "lon": 26.1731136, "tags": {"information": "map", "tourism": "information"}}, {"type": "node", "id": 9741748753, "lat": 39.3679021, "lon": 26.1748141, "tags": {"amenity": "atm", "brand": "Eurobank", "brand:wikidata": "Q951850", "name": "Eurobank", "operator": "Eurobank", "operator:wikidata": "Q951850"}}, {"type": "node", "id": 9741748754, "lat": 39.3683053, "lon": 26.1733212, "tags": {"amenity": "restaurant", "name": "Souvlak bar"}}, {"type": "node", "id": 9741756421, "lat": 39.3689982, "lon": 26.1743556, "tags": {"name": "Μάχη", "tourism": "hostel"}}, {"type": "node", "id": 11107061311, "lat": 39.3678977, "lon": 26.1748938, "tags": {"addr:city": "Mithymna", "addr:postcode": "81108", "addr:street": "Castle Street", "museum": "local", "name": "Ottoman Bath Museum", "tourism": "museum"}}, {"type": "node", "id": 12075902652, "lat": 39.3702928, "lon": 26.1748354, "tags": {"tourism": "hotel"}}, {"type": "node", "id": 12737219363, "lat": 39.3690987, "lon": 26.1685699, "tags": {"amenity": "restaurant", "name": "Porto Molivos"}}, {"type": "node", "id": 12768936164, "lat": 39.368237, "lon": 26.1733474, "tags": {"amenity": "cafe", "check_date": "2025-04-19", "name": "Corner"}}, {"type": "node", "id": 13392436866, "lat": 39.3679578, "lon": 26.1744138, "tags": {"amenity": "atm", "check_date": "2025-12-14"}}, {"type": "node", "id": 13392436871, "lat": 39.3675186, "lon": 26.1746029, "tags": {"tourism": "artwork"}}, {"type": "node", "id": 1307815736, "lat": 39.3666112, "lon": 26.1792802, "tags": {"name": "Mini-Market", "shop": "convenience"}}, {"type": "node", "id": 1320255958, "lat": 39.3657552, "lon": 26.1768227, "tags": {"information": "office", "tourism": "information"}}, {"type": "node", "id": 1990981680, "lat": 39.3686507, "lon": 26.1765704, "tags": {"access": "yes", "amenity": "parking", "capacity": "20", "fee": "no", "name": "Castle Parking", "parking": "surface"}}, {"type": "node", "id": 1996946285, "lat": 39.3657415, "lon": 26.1770775, "tags": {"amenity": "atm", "brand": "Alpha Bank", "brand:wikidata": "Q747394", "operator": "Alpha Bank", "operator:wikidata": "Q747394"}}, {"type": "node", "id": 1996946290, "lat": 39.3643086, "lon": 26.1778922, "tags": {"amenity": "atm"}}, {"type": "node", "id": 1996946299, "lat": 39.3657942, "lon": 26.1767914, "tags": {"amenity": "atm", "brand": "Εθνική Τράπεζα", "brand:el": "Εθνική Τράπεζα", "brand:en": "National Bank of Greece", "brand:wikidata": "Q1816028", "name:el": "Εθνική Τράπεζα", "name:en": "National Bank of Greece", "operator": "Εθνική Τράπεζα", "operator:wikidata": "Q1816028"}}, {"type": "node", "id": 1996946880, "lat": 39.3657146, "lon": 26.1773397, "tags": {"historic": "archaeological_site"}}, {"type": "node", "id": 1996946883, "lat": 39.3661998, "lon": 26.1781819, "tags": {"historic": "archaeological_site"}}, {"type": "node", "id": 1996946888, "lat": 39.3660256, "lon": 26.176932, "tags": {"historic": "archaeological_site"}}, {"type": "node", "id": 3165321809, "lat": 39.3666155, "lon": 26.175927, "tags": {"amenity": "fast_food", "name": "Friends Grill House"}}, {"type": "node", "id": 3165321811, "lat": 39.3672195, "lon": 26.1757558, "tags": {"check_date": "2025-04-19", "name": "Ο Παύλος", "shop": "convenience"}}, {"type": "node", "id": 3165322385, "lat": 39.3666361, "lon": 26.1763473, "tags": {"amenity": "cafe"}}, {"type": "node", "id": 3165322390, "lat": 39.3673154, "lon": 26.1755594, "tags": {"amenity": "restaurant", "name": "Το χάνι"}}, {"type": "node", "id": 3696921632, "lat": 39.3682011, "lon": 26.1763196, "tags": {"amenity": "restaurant", "name": "Panorama"}}, {"type": "node", "id": 3696921634, "lat": 39.3663911, "lon": 26.1763206, "tags": {"name": "ΣΥΝΕΤΑΙΡΙΣΜΟΣ ΓΥΝΑΙΚΩΝ ΜΗΘΥΜΝΑΣ", "shop": "convenience"}}, {"type": "node", "id": 4529351898, "lat": 39.3684059, "lon": 26.1763953, "tags": {"tourism": "viewpoint"}}, {"type": "node", "id": 5058545230, "lat": 39.3674075, "lon": 26.1764042, "tags": {"amenity": "drinking_water", "name": "Βρύση"}}, {"type": "node", "id": 5103119782, "lat": 39.3665679, "lon": 26.1757292, "tags": {"amenity": "restaurant", "name": "Ρόδι και Στάχυ (Συνεταιρισμός Γυναικών Μήθυμνας)"}}, {"type": "node", "id": 7754250181, "lat": 39.3684859, "lon": 26.1767552, "tags": {"information": "board", "tourism": "information"}}, {"type": "node", "id": 7754337522, "lat": 39.3682922, "lon": 26.1765068, "tags": {"tourism": "information"}}, {"type": "node", "id": 7754344703, "lat": 39.3682618, "lon": 26.1780829, "tags": {"tourism": "viewpoint"}}, {"type": "node", "id": 9123171344, "lat": 39.3674014, "lon": 26.1754536, "tags": {"amenity": "cafe", "name": "Το κομπολογάδικο"}}, {"type": "node", "id": 9123171766, "lat": 39.3667703, "lon": 26.1756958, "tags": {"amenity": "cafe", "name": "Το παγκάκι"}}, {"type": "node", "id": 9741747966, "lat": 39.3647119, "lon": 26.1778942, "tags": {"information": "board", "name": "Trekking Trails", "tourism": "information"}}, {"type": "node", "id": 9979124342, "lat": 39.3683006, "lon": 26.1774391, "tags": {"castle_type": "castle", "historic": "castle", "historic:civilization": "medieval", "image": "https://www.kastra.eu/pics/mithymna1.jpg", "name": "Κάστρο Μήθυμνας", "name:el": "Κάστρο Μήθυμνας", "name:en": "Castle of Mithymna", "ruins": "yes", "source": "https://www.kastra.eu/castlegr.php?kastro=mithymna"}}, {"type": "node", "id": 11920169688, "lat": 39.3654546, "lon": 26.1772745, "tags": {"amenity": "atm", "check_date": "2025-04-19", "operator": "Euronet"}}, {"type": "node", "id": 11920169689, "lat": 39.365594, "lon": 26.177322, "tags": {"information": "guidepost", "tourism": "information"}}, {"type": "node", "id": 12006660769, "lat": 39.3663217, "lon": 26.1813383, "tags": {"name": "Super Market", "shop": "supermarket"}}, {"type": "node", "id": 12768936149, "lat": 39.3646721, "lon": 26.1779165, "tags": {"information": "board", "name": "Γεωπάρκο Λέσβου", "tourism": "information"}}, {"type": "node", "id": 12768936150, "lat": 39.3669389, "lon": 26.1751336, "tags": {"amenity": "cafe", "check_date": "2025-04-19", "name": "Utopia"}}, {"type": "node", "id": 12768936156, "lat": 39.3663049, "lon": 26.1810256, "tags": {"information": "board", "tourism": "information"}}, {"type": "node", "id": 13392436857, "lat": 39.3662558, "lon": 26.1809492, "tags": {"information": "board", "tourism": "information"}}, {"type": "node", "id": 3812688486, "lat": 39.3676173, "lon": 26.1858039, "tags": {"building": "yes", "name": "Diamanti", "tourism": "guest_house"}}, {"type": "node", "id": 12075380006, "lat": 39.3711013, "lon": 26.1770828, "tags": {"name": "Vida Balance Garden", "tourism": "hotel"}}, {"type": "node", "id": 1990941350, "lat": 39.3745003, "lon": 26.1845671, "tags": {"name": "Akti Hotel", "source": "http://www.akti-hotel-lesvos.com", "tourism": "hotel"}}, {"type": "node", "id": 11002022935, "lat": 39.375248, "lon": 26.1833953, "tags": {"access": "yes", "addr:city": "Μήθυμνα", "addr:postcode": "81108", "amenity": "charging_station", "authentication:app": "yes", "authentication:membership_card": "yes", "brand": "Chargespot", "capacity": "2", "contact:phone": "18311", "contact:website": "https://www.chargespot.gr/", "covered": "no", "fee": "yes", "lit": "yes", "manufacturer": "Chago", "motorcar": "yes", "name": "Chargespot - Ξενοδοχείο Αφροδίτη", "name:el": "Ξενοδοχείο Αφροδίτη", "name:en": "Chargespot - Aphrodite Hotel", "opening_hours": "24/7", "operator": "Ξενοδοχείο Αφροδίτη", "parking:fee": "no", "payment:app": "yes", "ref:EU:EVSE": "GR*WAV*E70240;GR*WAV*E70241", "ref:GR:IDRO": "GR-WAV-S20", "socket:type2": "2", "socket:type2:output": "22"}}, {"type": "node", "id": 11002284593, "lat": 39.3693978, "lon": 26.1937251, "tags": {"access": "yes", "addr:city": "Μήθυμνα", "addr:postcode": "81108", "amenity": "charging_station", "authentication:app": "yes", "authentication:membership_card": "yes", "brand": "Chargespot", "capacity": "2", "contact:phone": "18311", "contact:website": "https://www.chargespot.gr/", "covered": "no", "fee": "yes", "lit": "yes", "manufacturer": "Chago", "motorcar": "yes", "name": "Chargespot - Mont D’ Olives Villas", "opening_hours": "24/7", "operator": "Mont D’ Olives Luxury Villas", "parking:fee": "no", "payment:app": "yes", "ref:EU:EVSE": "GR*WAV*E88245;GR*WAV*E88246", "ref:GR:IDRO": "GR-WAV-S155", "socket:type2": "2", "socket:type2:output": "22"}}, {"type": "node", "id": 3812685151, "lat": 39.3715976, "lon": 26.1940447, "tags": {"air_conditioning": "yes", "internet_access": "wlan", "name": "Sunrise Resort Hotel", "tourism": "hotel", "wheelchair": "no"}}, {"type": "node", "id": 4268108041, "lat": 39.3728879, "lon": 26.1912882, "tags": {"name": "Belvedere Lesvos", "tourism": "hotel"}}, {"type": "node", "id": 4268108066, "lat": 39.3733104, "lon": 26.1906201, "tags": {"name:en": "Gorgona Hotel", "phone": "+30 2253 071877", "tourism": "hotel", "website": "https://gorgonamolyvos.eu/"}}, {"type": "node", "id": 4275684280, "lat": 39.3758211, "lon": 26.1908713, "tags": {"name": "Angels", "name:de": "Elpis", "name:en": "Elpis", "tourism": "hotel"}}, {"type": "node", "id": 3812676515, "lat": 39.3745291, "lon": 26.2003823, "tags": {"name": "Panselinos", "tourism": "hotel"}}, {"type": "node", "id": 3812685148, "lat": 39.3727734, "lon": 26.1960441, "tags": {"name": "Hotel Eftalou", "tourism": "hotel"}}, {"type": "node", "id": 12955675077, "lat": 39.3730378, "lon": 26.195156, "tags": {"access": "yes", "addr:place": "Μόλυβος", "addr:postcode": "81108", "amenity": "charging_station", "authentication:app": "yes", "brand": "DEI Blue", "capacity": "2", "contact:phone": "+30 2112110900", "contact:website": "https://www.deiblue.gr/", "covered": "no", "fee": "yes", "manufacturer": "Alfen BV", "motorcar": "yes", "name": "DΕΙ blue - Viva Mare Hotel", "opening_hours": "24/7", "operator": "Viva Mare Hotel", "parking:fee": "no", "payment:app": "yes", "ref:EU:EVSE": "GR*PPC*EDEIBLUE*NYS*110*1;GR*PPC*EDEIBLUE*NYS*110*2", "ref:GR:IDRO": "GR-PPC-Scs42367-L", "socket:type2": "2", "socket:type2:output": "22"}}, {"type": "node", "id": 506395165, "lat": 39.3781881, "lon": 26.2135188, "tags": {"amenity": "restaurant", "cuisine": "regional", "name": "Eftalou", "name:el": "Εφταλού"}},