{"id": "-29-153", "latMin": -29, "lonMin": 153, "latMax": -28, "lonMax": 154, "generated": "2026-04-16T18:39:07.201Z", "count": 21, "pois": [{"type": "node", "id": 5270964444, "lat": -28.643176, "lon": 153.615842, "tags": {"amenity": "charging_station", "operator": "Chargefox", "name": "Chargefox", "_source": "worldwide"}}, {"type": "node", "id": 6460563175, "lat": -28.035374, "lon": 153.427103, "tags": {"amenity": "charging_station", "fee": "yes", "access": "yes", "opening_hours": "24/7", "brand": "Tesla Supercharger", "network": "Supercharger", "operator": "Tesla", "name": "Tesla Supercharger", "socket:tesla_supercharger": "8", "capacity": "8", "_source": "worldwide"}}, {"type": "node", "id": 6460580922, "lat": -28.749564, "lon": 153.534704, "tags": {"amenity": "charging_station", "fee": "yes", "access": "yes", "opening_hours": "24/7", "brand": "Tesla Supercharger", "network": "Supercharger", "operator": "Tesla", "name": "Tesla Supercharger", "capacity": "6", "_source": "worldwide"}}, {"type": "node", "id": 6695968988, "lat": -28.636313, "lon": 153.553519, "tags": {"amenity": "charging_station", "fee": "no", "operator": "NRMA", "name": "NRMA", "socket:chademo": "2", "capacity": "4", "_source": "worldwide"}}, {"type": "node", "id": 6773250148, "lat": -28.164066, "lon": 153.514931, "tags": {"amenity": "charging_station", "operator": "Yurika", "name": "Yurika", "_source": "worldwide"}}, {"type": "node", "id": 6907644721, "lat": -28.857635, "lon": 153.561794, "tags": {"amenity": "charging_station", "brand": "Chargefox", "operator": "Chargefox", "name": "Chargefox", "_source": "worldwide"}}, {"type": "node", "id": 6961067090, "lat": -28.870871, "lon": 153.563108, "tags": {"amenity": "charging_station", "fee": "no", "access": "permissive", "brand": "Tesla", "name": "Tesla Destination Charger", "_source": "worldwide"}}, {"type": "node", "id": 8320308514, "lat": -28.029392, "lon": 153.434591, "tags": {"amenity": "charging_station", "name": "EV Charging Station", "_source": "worldwide"}}, {"type": "node", "id": 10011175454, "lat": -28.865913, "lon": 153.04838, "tags": {"amenity": "charging_station", "operator": "NRMA", "name": "NRMA", "_source": "worldwide"}}, {"type": "node", "id": 10208662680, "lat": -28.035315, "lon": 153.427559, "tags": {"amenity": "charging_station", "operator": "Evie Networks", "name": "Evie Networks", "_source": "worldwide"}}, {"type": "node", "id": 10687073170, "lat": -28.861373, "lon": 153.515918, "tags": {"amenity": "charging_station", "operator": "BP Pulse", "name": "BP Pulse", "capacity": "2", "_source": "worldwide"}}, {"type": "node", "id": 11425324344, "lat": -28.173796, "lon": 153.54437, "tags": {"amenity": "charging_station", "brand": "Tesla Supercharger", "operator": "Tesla", "name": "Tesla Supercharger", "_source": "worldwide"}}, {"type": "node", "id": 12586162734, "lat": -28.093057, "lon": 153.391265, "tags": {"amenity": "charging_station", "operator": "AmpCharge", "name": "AmpCharge", "socket:chademo": "1", "capacity": "2", "_source": "worldwide"}}, {"type": "node", "id": 12926990585, "lat": -28.198984, "lon": 153.545946, "tags": {"amenity": "charging_station", "fee": "yes", "operator": "Evie Networks", "name": "Evie Networks", "socket:chademo": "1", "capacity": "4", "_source": "worldwide"}}, {"type": "node", "id": 12989024507, "lat": -28.075819, "lon": 153.387145, "tags": {"amenity": "charging_station", "brand": "Tesla Supercharger", "operator": "Tesla", "name": "Tesla Supercharger", "capacity": "10", "_source": "worldwide"}}, {"type": "node", "id": 13154424198, "lat": -28.08195, "lon": 153.381882, "tags": {"amenity": "charging_station", "operator": "Evie Networks", "name": "Evie Networks", "_source": "worldwide"}}, {"type": "node", "id": 13159632757, "lat": -28.806586, "lon": 153.278719, "tags": {"amenity": "charging_station", "fee": "yes", "brand": "Chargefox", "operator": "Chargefox", "name": "Chargefox", "_source": "worldwide"}}, {"type": "node", "id": 13197398595, "lat": -28.697781, "lon": 153.509038, "tags": {"amenity": "charging_station", "fee": "no", "opening_hours": "24/7", "brand": "Ocular", "name": "Ocular", "capacity": "2", "_source": "worldwide"}}, {"type": "node", "id": 13242756701, "lat": -28.673842, "lon": 153.611967, "tags": {"amenity": "charging_station", "name": "Ingenia Byron Bay", "_source": "worldwide"}}, {"type": "node", "id": 13397009753, "lat": -28.097677, "lon": 153.439448, "tags": {"amenity": "charging_station", "access": "yes", "brand": "Tesla", "name": "Tesla Destination Charger", "_source": "worldwide"}}, {"type": "node", "id": 13410165907, "lat": -28.621478, "lon": 153.003033, "tags": {"amenity": "charging_station", "fee": "yes", "access": "yes", "brand": "Ocular", "network": "Exploren", "operator": "Kyogle Council", "name": "Ocular", "capacity": "2", "_source": "worldwide"}}]}