{"id": "-28-152", "latMin": -28, "lonMin": 152, "latMax": -27, "lonMax": 153, "generated": "2026-04-16T18:39:07.202Z", "count": 33, "pois": [{"type": "node", "id": 4861233240, "lat": -27.551297, "lon": 152.335115, "tags": {"amenity": "charging_station", "fee": "yes", "brand": "Yurika", "operator": "Yurika", "name": "Yurika", "socket:chademo": "1", "capacity": "4", "_source": "worldwide"}}, {"type": "node", "id": 6773252901, "lat": -27.682182, "lon": 152.899745, "tags": {"amenity": "charging_station", "brand": "Yurika", "operator": "Yurika", "name": "Yurika", "socket:chademo": "1", "capacity": "4", "_source": "worldwide"}}, {"type": "node", "id": 7745584029, "lat": -27.676668, "lon": 152.903631, "tags": {"amenity": "charging_station", "fee": "no", "access": "yes", "name": "EV Charging Station", "_source": "worldwide"}}, {"type": "node", "id": 8571382029, "lat": -27.616219, "lon": 152.75861, "tags": {"amenity": "charging_station", "access": "yes", "brand": "Yurika", "operator": "Yurika", "name": "Yurika", "socket:chademo": "1", "capacity": "4", "_source": "worldwide"}}, {"type": "node", "id": 9072216233, "lat": -27.588118, "lon": 152.821933, "tags": {"amenity": "charging_station", "operator": "Evie Networks", "name": "Evie Networks", "_source": "worldwide"}}, {"type": "node", "id": 9765719405, "lat": -27.533862, "lon": 152.948959, "tags": {"amenity": "charging_station", "operator": "Evie Networks", "name": "Evie Networks", "_source": "worldwide"}}, {"type": "node", "id": 10224962961, "lat": -27.229078, "lon": 152.990894, "tags": {"amenity": "charging_station", "fee": "yes", "access": "yes", "brand": "Woolworths", "operator": "Chargefox", "name": "Woolworths", "_source": "worldwide"}}, {"type": "node", "id": 10815638128, "lat": -27.499566, "lon": 152.972314, "tags": {"amenity": "charging_station", "fee": "yes", "access": "yes", "opening_hours": "24/7", "brand": "Tesla Supercharger", "network": "Supercharger", "operator": "Tesla", "name": "Tesla Supercharger", "socket:tesla_supercharger": "9", "capacity": "9", "_source": "worldwide"}}, {"type": "node", "id": 10863607717, "lat": -27.042087, "lon": 152.97542, "tags": {"amenity": "charging_station", "fee": "yes", "access": "yes", "operator": "AmpCharge", "name": "AmpCharge", "_source": "worldwide"}}, {"type": "node", "id": 12196379287, "lat": -27.345735, "lon": 152.968885, "tags": {"amenity": "charging_station", "operator": "Jolt", "name": "Jolt", "_source": "worldwide"}}, {"type": "node", "id": 12541308710, "lat": -27.080268, "lon": 152.965482, "tags": {"amenity": "charging_station", "opening_hours": "24/7", "network": "Exploren", "operator": "Queensland Health", "name": "Queensland Health", "capacity": "9", "_source": "worldwide"}}, {"type": "node", "id": 12583438143, "lat": -27.238984, "lon": 152.420319, "tags": {"amenity": "charging_station", "operator": "Yurika", "name": "Yurika", "socket:chademo": "1", "capacity": "4", "_source": "worldwide"}}, {"type": "node", "id": 12586107375, "lat": -27.59623, "lon": 152.74594, "tags": {"amenity": "charging_station", "operator": "AmpCharge", "name": "AmpCharge", "socket:chademo": "1", "capacity": "2", "_source": "worldwide"}}, {"type": "node", "id": 12586111987, "lat": -27.563078, "lon": 152.424324, "tags": {"amenity": "charging_station", "operator": "Evie Networks", "name": "Evie Networks", "capacity": "4", "_source": "worldwide"}}, {"type": "node", "id": 12586119545, "lat": -27.57919, "lon": 152.713291, "tags": {"amenity": "charging_station", "brand": "bp pulse", "operator": "bp pulse", "name": "bp pulse", "capacity": "2", "_source": "worldwide"}}, {"type": "node", "id": 12586128498, "lat": -27.609731, "lon": 152.902732, "tags": {"amenity": "charging_station", "brand": "bp pulse", "operator": "bp pulse", "name": "bp pulse", "socket:chademo": "1", "capacity": "4", "_source": "worldwide"}}, {"type": "node", "id": 12586141460, "lat": -27.608615, "lon": 152.759722, "tags": {"amenity": "charging_station", "operator": "Evie Networks", "name": "Evie Networks", "capacity": "5", "_source": "worldwide"}}, {"type": "node", "id": 12586218066, "lat": -27.989707, "lon": 152.999185, "tags": {"amenity": "charging_station", "operator": "Evie Networks", "name": "Evie Networks", "capacity": "4", "_source": "worldwide"}}, {"type": "node", "id": 12774923334, "lat": -27.042064, "lon": 152.974065, "tags": {"amenity": "charging_station", "fee": "yes", "operator": "Chargefox", "name": "Chargefox", "capacity": "2", "_source": "worldwide"}}, {"type": "node", "id": 12791260758, "lat": -27.394267, "lon": 152.996885, "tags": {"amenity": "charging_station", "opening_hours": "24/7", "name": "PEV Charging - McDowell/Dawg Boys", "capacity": "4", "_source": "worldwide"}}, {"type": "node", "id": 12794311786, "lat": -27.270788, "lon": 152.978351, "tags": {"amenity": "charging_station", "opening_hours": "24/7", "name": "PEV Charging - Building Carpark", "capacity": "4", "_source": "worldwide"}}, {"type": "node", "id": 12832897649, "lat": -27.677254, "lon": 152.902023, "tags": {"amenity": "charging_station", "opening_hours": "24/7", "name": "PEV Charging- Orion Shopping Center Carpark", "capacity": "1", "_source": "worldwide"}}, {"type": "node", "id": 12832940626, "lat": -27.449219, "lon": 152.989062, "tags": {"amenity": "charging_station", "opening_hours": "24/7", "name": "PEV Charging - Civosity Park", "capacity": "2", "_source": "worldwide"}}, {"type": "node", "id": 12832952526, "lat": -27.645881, "lon": 152.861633, "tags": {"amenity": "charging_station", "opening_hours": "24/7", "name": "PEV Charging - Redbank Plains", "capacity": "2", "_source": "worldwide"}}, {"type": "node", "id": 12832952713, "lat": -27.493548, "lon": 152.912612, "tags": {"amenity": "charging_station", "opening_hours": "24/7", "name": "PEV Charging - Brookfield General store", "capacity": "2", "_source": "worldwide"}}, {"type": "node", "id": 13111686756, "lat": -27.155716, "lon": 152.975831, "tags": {"amenity": "charging_station", "fee": "yes", "opening_hours": "24/7", "brand": "Evie", "operator": "Evie Networks", "name": "Evie", "capacity": "5", "_source": "worldwide"}}, {"type": "node", "id": 13111718768, "lat": -27.123612, "lon": 152.976474, "tags": {"amenity": "charging_station", "fee": "yes", "opening_hours": "24/7", "brand": "bp pulse", "operator": "bp pulse", "name": "bp pulse", "socket:chademo": "1", "capacity": "4", "_source": "worldwide"}}, {"type": "node", "id": 13111718769, "lat": -27.124059, "lon": 152.978084, "tags": {"amenity": "charging_station", "fee": "yes", "opening_hours": "24/7", "brand": "bp pulse", "operator": "bp pulse", "name": "bp pulse", "capacity": "3", "_source": "worldwide"}}, {"type": "node", "id": 13140372383, "lat": -27.532373, "lon": 152.948189, "tags": {"amenity": "charging_station", "fee": "yes", "brand": "Evie", "operator": "Evie Networks", "name": "Evie", "socket:chademo": "2", "capacity": "4", "_source": "worldwide"}}, {"type": "node", "id": 13140384679, "lat": -27.549055, "lon": 152.937332, "tags": {"amenity": "charging_station", "fee": "yes", "brand": "Elanga", "name": "Elanga", "capacity": "4", "_source": "worldwide"}}, {"type": "node", "id": 13406903527, "lat": -27.973633, "lon": 152.99466, "tags": {"amenity": "charging_station", "fee": "yes", "access": "yes", "opening_hours": "24/7", "operator": "Chargefox", "name": "Chargefox", "addr:street": "Brisbane Street", "capacity": "2", "_source": "worldwide"}}, {"type": "node", "id": 13502753849, "lat": -27.549934, "lon": 152.116654, "tags": {"amenity": "charging_station", "brand": "Tesla Supercharger", "operator": "Tesla", "name": "Tesla Supercharger", "capacity": "6", "_source": "worldwide"}}, {"type": "node", "id": 13531537889, "lat": -27.418897, "lon": 152.920295, "tags": {"amenity": "charging_station", "operator": "Evie Networks", "name": "Evie Charging Station", "_source": "worldwide"}}]}