{"id": "46-1", "latMin": 46, "lonMin": 1, "latMax": 47, "lonMax": 2, "generated": "2026-04-16T18:39:08.124Z", "count": 111, "pois": [{"type": "node", "id": 1338286073, "lat": 46.031671, "lon": 1.295476, "tags": {"amenity": "charging_station", "access": "customers", "operator": "Borne recharge voiture electrique", "name": "Ladestation Borne recharge voiture electrique", "addr:country": "FR", "_source": "worldwide"}}, {"type": "node", "id": 1339466091, "lat": 46.107941, "lon": 1.36601, "tags": {"amenity": "charging_station", "access": "yes", "addr:country": "FR", "_source": "worldwide"}}, {"type": "node", "id": 12409639462, "lat": 46.109383, "lon": 1.369707, "tags": {"amenity": "charging_station", "access": "yes", "operator": "SEHV", "name": "Ladestation SEHV", "addr:country": "FR", "capacity": "2", "_source": "worldwide"}}, {"type": "node", "id": 1428177798, "lat": 46.806441, "lon": 1.697898, "tags": {"amenity": "charging_station", "access": "yes", "fee": "yes", "brand": "Carrefour énergie", "operator": "Carrefour énergie", "name": "Carrefour énergie - Carrefour énergie", "addr:country": "FR", "_source": "worldwide"}}, {"type": "node", "id": 8929213606, "lat": 46.314257, "lon": 1.419495, "tags": {"amenity": "charging_station", "access": "yes", "fee": "yes", "opening_hours": "24/7", "operator": "Izivia", "name": "Ladestation Izivia", "addr:country": "FR", "socket:type2": "1", "socket:type2:output": "22 kW", "socket:type2_combo": "1", "socket:type2_combo:output": "50 kW", "socket:chademo": "1", "socket:chademo:output": "50 kW", "charging_station:output": "50 kW", "capacity": "2", "_source": "worldwide"}}, {"type": "node", "id": 4195770977, "lat": 46.705162, "lon": 1.111623, "tags": {"amenity": "charging_station", "addr:country": "FR", "_source": "worldwide"}}, {"type": "node", "id": 4338237431, "lat": 46.863055, "lon": 1.716089, "tags": {"amenity": "charging_station", "access": "customers", "fee": "yes", "brand": "Tesla Supercharger", "opening_hours": "24/7", "operator": "Tesla", "name": "Châteauroux Supercharger", "addr:street": "Route Départementale 920", "addr:postcode": "36130", "addr:city": "Coings", "addr:country": "FR", "socket:type2_combo": "8", "socket:type2_combo:output": "150.0 kW", "socket:tesla_supercharger": "8", "socket:tesla_supercharger:output": "150.0 kW", "charging_station:output": "150.0 kW", "capacity": "8", "_source": "worldwide"}}, {"type": "node", "id": 4340703119, "lat": 46.800692, "lon": 1.353559, "tags": {"amenity": "charging_station", "addr:country": "FR", "_source": "worldwide"}}, {"type": "node", "id": 4503091596, "lat": 46.440939, "lon": 1.583649, "tags": {"amenity": "charging_station", "operator": "Chargelec36", "name": "Ladestation Chargelec36", "addr:country": "FR", "capacity": "1", "_source": "worldwide"}}, {"type": "node", "id": 5275002946, "lat": 46.580097, "lon": 1.987928, "tags": {"amenity": "charging_station", "fee": "yes", "opening_hours": "24/7", "operator": "SDEI36", "name": "Place du Marché", "addr:country": "FR", "socket:type2": "1", "socket:type2:output": "22.0 kW", "socket:type2_combo": "1", "socket:type2_combo:output": "22.0 kW", "charging_station:output": "22.0 kW", "capacity": "2", "_source": "worldwide"}}, {"type": "node", "id": 5275160141, "lat": 46.584249, "lon": 1.988346, "tags": {"amenity": "charging_station", "fee": "yes", "opening_hours": "24/7", "operator": "SDEI36", "name": "Rue Ernest Nivet", "addr:country": "FR", "socket:type2": "1", "socket:type2:output": "22.0 kW", "socket:type2_combo": "1", "socket:type2_combo:output": "22.0 kW", "charging_station:output": "22.0 kW", "capacity": "2", "_source": "worldwide"}}, {"type": "node", "id": 12784319551, "lat": 46.585167, "lon": 1.988435, "tags": {"amenity": "charging_station", "brand": "Schneider Evlink", "name": "Ladestation Schneider Evlink", "addr:country": "FR", "capacity": "1", "_source": "worldwide"}}, {"type": "node", "id": 5552293053, "lat": 46.791764, "lon": 1.735026, "tags": {"amenity": "charging_station", "operator": "Auchan", "name": "Ladestation Auchan", "addr:country": "FR", "capacity": "2", "_source": "worldwide"}}, {"type": "node", "id": 5948573420, "lat": 46.166151, "lon": 1.852909, "tags": {"amenity": "charging_station", "access": "yes", "fee": "yes", "network": "MOBIVE", "opening_hours": "24/7", "operator": "MOBIVE", "name": "Creuse - Parking de Courtille", "addr:country": "FR", "socket:type2": "2", "socket:type2:output": "22.0 kW", "socket:schuko": "2", "socket:schuko:output": "3.6 kW", "charging_station:output": "22.0 kW", "capacity": "2", "_source": "worldwide"}}, {"type": "node", "id": 5948573421, "lat": 46.168352, "lon": 1.872093, "tags": {"amenity": "charging_station", "access": "yes", "fee": "yes", "network": "MOBIVE", "opening_hours": "24/7", "operator": "MOBIVE", "name": "Creuse - Place Bonnyaud", "addr:country": "FR", "socket:type2": "1", "socket:type2:output": "22.0 kW", "socket:type2_combo": "1", "socket:type2_combo:output": "50.0 kW", "socket:chademo": "1", "socket:chademo:output": "43.0 kW", "charging_station:output": "50.0 kW", "capacity": "2", "_source": "worldwide"}}, {"type": "node", "id": 7255549085, "lat": 46.16759, "lon": 1.871366, "tags": {"amenity": "charging_station", "access": "private", "fee": "no", "addr:country": "FR", "capacity": "1", "_source": "worldwide"}}, {"type": "node", "id": 5948573422, "lat": 46.127154, "lon": 1.889568, "tags": {"amenity": "charging_station", "access": "yes", "fee": "yes", "opening_hours": "24/7", "operator": "Mobive", "name": "Creuse - Parc animalier des monts de Guéret", "addr:country": "FR", "socket:type2": "2", "socket:type2:output": "22.0 kW", "charging_station:output": "22.0 kW", "capacity": "2", "_source": "worldwide"}}, {"type": "node", "id": 5948573423, "lat": 46.139305, "lon": 1.915106, "tags": {"amenity": "charging_station", "access": "yes", "fee": "yes", "opening_hours": "24/7", "operator": "Mobive", "name": "Creuse - Mairie de Sainte-Feyre", "addr:country": "FR", "socket:type2": "2", "socket:type2:output": "22.0 kW", "charging_station:output": "22.0 kW", "capacity": "2", "_source": "worldwide"}}, {"type": "node", "id": 5948573424, "lat": 46.204366, "lon": 1.756234, "tags": {"amenity": "charging_station", "access": "yes", "fee": "yes", "opening_hours": "24/7", "operator": "Mobive", "name": "Creuse - Mairie de Saint-Vaury", "addr:country": "FR", "socket:type2": "2", "socket:type2:output": "22.0 kW", "charging_station:output": "22.0 kW", "capacity": "2", "_source": "worldwide"}}, {"type": "node", "id": 5948573425, "lat": 46.182488, "lon": 1.847191, "tags": {"amenity": "charging_station", "access": "yes", "fee": "yes", "opening_hours": "24/7", "operator": "Mobive", "name": "Creuse - Aire des monts de Guéret", "addr:country": "FR", "socket:type2": "2", "socket:type2:output": "22.0 kW", "charging_station:output": "22.0 kW", "capacity": "2", "_source": "worldwide"}}, {"type": "node", "id": 5948573426, "lat": 46.180649, "lon": 1.874619, "tags": {"amenity": "charging_station", "access": "yes", "fee": "yes", "network": "MOBIVE", "opening_hours": "24/7", "operator": "MOBIVE", "name": "Creuse - Espace André Lejeune", "addr:country": "FR", "socket:type2": "2", "socket:type2:output": "22.0 kW", "socket:schuko": "2", "socket:schuko:output": "3.6 kW", "charging_station:output": "22.0 kW", "capacity": "2", "_source": "worldwide"}}, {"type": "node", "id": 13347444512, "lat": 46.177983, "lon": 1.877344, "tags": {"amenity": "charging_station", "access": "yes", "fee": "yes", "network": "Leclerc", "operator": "Leclerc", "name": "Ladestation Leclerc", "addr:country": "FR", "socket:type2": "8", "socket:type2:output": "22.0 kW", "socket:schuko": "4", "socket:schuko:output": "3.6 kW", "charging_station:output": "22.0 kW", "capacity": "8", "_source": "worldwide"}}, {"type": "node", "id": 6391516672, "lat": 46.238664, "lon": 1.483626, "tags": {"amenity": "charging_station", "addr:country": "FR", "_source": "worldwide"}}, {"type": "node", "id": 6879121943, "lat": 46.651086, "lon": 1.975702, "tags": {"amenity": "charging_station", "fee": "yes", "opening_hours": "24/7", "operator": "SDEI36", "name": "Rue de Maitres Sonneurs", "addr:country": "FR", "socket:type2": "1", "socket:type2:output": "22.0 kW", "socket:type2_combo": "1", "socket:type2_combo:output": "22.0 kW", "charging_station:output": "22.0 kW", "capacity": "2", "_source": "worldwide"}}, {"type": "node", "id": 6919527102, "lat": 46.786365, "lon": 1.658907, "tags": {"amenity": "charging_station", "access": "customers", "fee": "no", "operator": "Lidl Cap Sud", "name": "Borne de recharge \"Énergie verte\"", "addr:country": "FR", "capacity": "2", "_source": "worldwide"}}, {"type": "node", "id": 11251769289, "lat": 46.786316, "lon": 1.651805, "tags": {"amenity": "charging_station", "access": "yes", "fee": "yes", "brand": "Freshmile", "network": "Freshmile France", "opening_hours": "Th,We,Tu,Mo 09:00-19:30,Fr,Sa 09:00-20:00", "operator": "Freshmile | FR*FR1", "name": "Freshmile | FR*FR1 - Freshmile", "addr:country": "FR", "socket:type2": "4", "socket:type2:output": "22 kW", "socket:type2_combo": "4", "socket:type2_combo:output": "50 kW", "socket:chademo": "4", "socket:chademo:output": "50 kW", "charging_station:output": "50 kW", "capacity": "4", "_source": "worldwide"}}, {"type": "node", "id": 7100681053, "lat": 46.733052, "lon": 1.964562, "tags": {"amenity": "charging_station", "fee": "yes", "opening_hours": "24/7", "operator": "SDEI36", "name": "Champ de Foire", "addr:country": "FR", "socket:type2": "1", "socket:type2:output": "22.0 kW", "socket:type2_combo": "1", "socket:type2_combo:output": "22.0 kW", "charging_station:output": "22.0 kW", "capacity": "2", "_source": "worldwide"}}, {"type": "node", "id": 7291861844, "lat": 46.466929, "lon": 1.042802, "tags": {"amenity": "charging_station", "fee": "yes", "network": "ALTERBASE86", "opening_hours": "24/7", "operator": "Sorégies", "name": "B047", "addr:country": "FR", "socket:type2": "1", "socket:type2:output": "22 kW", "charging_station:output": "22 kW", "capacity": "2", "_source": "worldwide"}}, {"type": "node", "id": 7617795349, "lat": 46.798548, "lon": 1.305776, "tags": {"amenity": "charging_station", "addr:country": "FR", "_source": "worldwide"}}, {"type": "node", "id": 8554797693, "lat": 46.743706, "lon": 1.830376, "tags": {"amenity": "charging_station", "fee": "yes", "opening_hours": "24/7", "operator": "SDEI36", "name": "Victor Hugo", "addr:country": "FR", "socket:type2": "1", "socket:type2:output": "22.0 kW", "socket:type2_combo": "1", "socket:type2_combo:output": "22.0 kW", "charging_station:output": "22.0 kW", "capacity": "2", "_source": "worldwide"}}, {"type": "node", "id": 8572652988, "lat": 46.777531, "lon": 1.782747, "tags": {"amenity": "charging_station", "fee": "yes", "opening_hours": "24/7", "operator": "SDEI36", "name": "Chemin de la Croix", "addr:country": "FR", "socket:type2": "1", "socket:type2:output": "22.0 kW", "socket:type2_combo": "1", "socket:type2_combo:output": "22.0 kW", "charging_station:output": "22.0 kW", "capacity": "2", "_source": "worldwide"}}, {"type": "node", "id": 8572652994, "lat": 46.434061, "lon": 1.825772, "tags": {"amenity": "charging_station", "fee": "yes", "opening_hours": "24/7", "operator": "SDEI36", "name": "Champ de Foire", "addr:country": "FR", "socket:type2": "1", "socket:type2:output": "22.0 kW", "socket:type2_combo": "1", "socket:type2_combo:output": "22.0 kW", "charging_station:output": "22.0 kW", "capacity": "2", "_source": "worldwide"}}, {"type": "node", "id": 8572652999, "lat": 46.424115, "lon": 1.726256, "tags": {"amenity": "charging_station", "fee": "yes", "opening_hours": "24/7", "operator": "SDEI36", "name": "Croisement RD87-VC2", "addr:country": "FR", "socket:type2": "1", "socket:type2:output": "22.0 kW", "socket:type2_combo": "1", "socket:type2_combo:output": "22.0 kW", "charging_station:output": "22.0 kW", "capacity": "2", "_source": "worldwide"}}, {"type": "node", "id": 8572653000, "lat": 46.441295, "lon": 1.392498, "tags": {"amenity": "charging_station", "fee": "yes", "opening_hours": "24/7", "operator": "SDEI36", "name": "Champ de Foire", "addr:country": "FR", "socket:type2": "1", "socket:type2:output": "22.0 kW", "socket:type2_combo": "1", "socket:type2_combo:output": "22.0 kW", "charging_station:output": "22.0 kW", "capacity": "2", "_source": "worldwide"}}, {"type": "node", "id": 8572653005, "lat": 46.509638, "lon": 1.308917, "tags": {"amenity": "charging_station", "fee": "yes", "opening_hours": "24/7", "operator": "SDEI36", "name": "Place des Flandres-Dunkerque", "addr:country": "FR", "socket:type2": "1", "socket:type2:output": "22.0 kW", "socket:type2_combo": "1", "socket:type2_combo:output": "22.0 kW", "charging_station:output": "22.0 kW", "capacity": "2", "_source": "worldwide"}}, {"type": "node", "id": 8572653006, "lat": 46.551089, "lon": 1.156553, "tags": {"amenity": "charging_station", "fee": "yes", "opening_hours": "24/7", "operator": "SDEI36", "name": "Avenue Jean Jaurès", "addr:country": "FR", "socket:type2": "1", "socket:type2:output": "22.0 kW", "socket:type2_combo": "1", "socket:type2_combo:output": "22.0 kW", "charging_station:output": "22.0 kW", "capacity": "2", "_source": "worldwide"}}, {"type": "node", "id": 8572653013, "lat": 46.701028, "lon": 1.214378, "tags": {"amenity": "charging_station", "fee": "yes", "opening_hours": "24/7", "operator": "SDEI36", "name": "Place Verdun", "addr:country": "FR", "socket:type2": "1", "socket:type2:output": "22.0 kW", "socket:type2_combo": "1", "socket:type2_combo:output": "22.0 kW", "charging_station:output": "22.0 kW", "capacity": "2", "_source": "worldwide"}}, {"type": "node", "id": 8572653015, "lat": 46.864088, "lon": 1.77444, "tags": {"amenity": "charging_station", "fee": "yes", "opening_hours": "24/7", "operator": "SDEI36", "name": "Chemin du Mée", "addr:country": "FR", "socket:type2": "1", "socket:type2:output": "22.0 kW", "socket:type2_combo": "1", "socket:type2_combo:output": "22.0 kW", "charging_station:output": "22.0 kW", "capacity": "2", "_source": "worldwide"}}, {"type": "node", "id": 8572653218, "lat": 46.819147, "lon": 1.207947, "tags": {"amenity": "charging_station", "fee": "yes", "opening_hours": "24/7", "operator": "SDEI36", "name": "Place Jean Moulin", "addr:country": "FR", "socket:type2": "1", "socket:type2:output": "22.0 kW", "socket:type2_combo": "1", "socket:type2_combo:output": "22.0 kW", "charging_station:output": "22.0 kW", "capacity": "2", "_source": "worldwide"}}, {"type": "node", "id": 8572653219, "lat": 46.807733, "lon": 1.043239, "tags": {"amenity": "charging_station", "fee": "yes", "opening_hours": "24/7", "operator": "SDEI36", "name": "Champ de Foire", "addr:country": "FR", "socket:type2": "1", "socket:type2:output": "22.0 kW", "socket:type2_combo": "1", "socket:type2_combo:output": "22.0 kW", "charging_station:output": "22.0 kW", "capacity": "2", "_source": "worldwide"}}, {"type": "node", "id": 8572653221, "lat": 46.914413, "lon": 1.03825, "tags": {"amenity": "charging_station", "fee": "yes", "opening_hours": "24/7", "operator": "SDEI36", "name": "Rue Jean Delalez", "addr:country": "FR", "socket:type2": "1", "socket:type2:output": "22.0 kW", "socket:type2_combo": "1", "socket:type2_combo:output": "22.0 kW", "charging_station:output": "22.0 kW", "capacity": "2", "_source": "worldwide"}}, {"type": "node", "id": 8575804581, "lat": 46.797567, "lon": 1.696637, "tags": {"amenity": "charging_station", "fee": "yes", "opening_hours": "24/7", "operator": "SDEI36", "name": "Parking Hôpital", "addr:country": "FR", "socket:type2": "1", "socket:type2:output": "22 kW", "socket:type2_combo": "1", "socket:type2_combo:output": "50 kW", "charging_station:output": "50 kW", "capacity": "2", "_source": "worldwide"}}, {"type": "node", "id": 8575804586, "lat": 46.803067, "lon": 1.719817, "tags": {"amenity": "charging_station", "fee": "yes", "opening_hours": "24/7", "operator": "SDEI36", "name": "Allée du Stade Gaston Petit", "addr:country": "FR", "socket:type2": "1", "socket:type2:output": "22 kW", "socket:type2_combo": "1", "socket:type2_combo:output": "50 kW", "charging_station:output": "50 kW", "capacity": "2", "_source": "worldwide"}}, {"type": "node", "id": 8575804587, "lat": 46.811053, "lon": 1.704181, "tags": {"amenity": "charging_station", "fee": "yes", "opening_hours": "24/7", "operator": "SDEI36", "name": "Colbert", "addr:country": "FR", "socket:type2": "1", "socket:type2:output": "22 kW", "socket:type2_combo": "1", "socket:type2_combo:output": "50 kW", "charging_station:output": "50 kW", "capacity": "2", "_source": "worldwide"}}, {"type": "node", "id": 8575804588, "lat": 46.811893, "lon": 1.700462, "tags": {"amenity": "charging_station", "fee": "yes", "opening_hours": "24/7", "operator": "SDEI36", "name": "Place Voltaire", "addr:country": "FR", "socket:type2": "1", "socket:type2:output": "22 kW", "socket:type2_combo": "1", "socket:type2_combo:output": "50 kW", "charging_station:output": "50 kW", "capacity": "2", "_source": "worldwide"}}, {"type": "node", "id": 8575804589, "lat": 46.812713, "lon": 1.696982, "tags": {"amenity": "charging_station", "fee": "yes", "opening_hours": "24/7", "operator": "SDEI36", "name": "Rond-Point Raymond Picard", "addr:country": "FR", "socket:type2": "1", "socket:type2:output": "22 kW", "socket:type2_combo": "1", "socket:type2_combo:output": "50 kW", "charging_station:output": "50 kW", "capacity": "2", "_source": "worldwide"}}, {"type": "node", "id": 8575804590, "lat": 46.812064, "lon": 1.694795, "tags": {"amenity": "charging_station", "fee": "yes", "opening_hours": "24/7", "operator": "SDEI36", "name": "Place Gambetta", "addr:country": "FR", "socket:type2": "1", "socket:type2:output": "22 kW", "socket:type2_combo": "1", "socket:type2_combo:output": "50 kW", "charging_station:output": "50 kW", "capacity": "2", "_source": "worldwide"}}, {"type": "node", "id": 8575804591, "lat": 46.808676, "lon": 1.69308, "tags": {"amenity": "charging_station", "fee": "yes", "opening_hours": "24/7", "operator": "SDEI36", "name": "Palais de Justice", "addr:country": "FR", "socket:type2": "1", "socket:type2:output": "22 kW", "socket:type2_combo": "1", "socket:type2_combo:output": "50 kW", "charging_station:output": "50 kW", "capacity": "2", "_source": "worldwide"}}, {"type": "node", "id": 13195454406, "lat": 46.810221, "lon": 1.702388, "tags": {"amenity": "charging_station", "fee": "yes", "brand": "e-Vadea", "opening_hours": "24/7", "name": "Ladestation e-Vadea", "addr:country": "FR", "socket:type2": "2", "socket:type2:output": "180.0 kW", "charging_station:output": "180.0 kW", "capacity": "2", "authentication:none": "", "_source": "worldwide"}}, {"type": "node", "id": 8575804592, "lat": 46.810792, "lon": 1.690549, "tags": {"amenity": "charging_station", "fee": "yes", "opening_hours": "24/7", "operator": "SDEI36", "name": "Chargelec 36", "addr:country": "FR", "socket:type2": "1", "socket:type2:output": "22 kW", "socket:type2_combo": "1", "socket:type2_combo:output": "50 kW", "charging_station:output": "50 kW", "capacity": "2", "_source": "worldwide"}}, {"type": "node", "id": 8575804593, "lat": 46.811711, "lon": 1.676521, "tags": {"amenity": "charging_station", "fee": "yes", "opening_hours": "24/7", "operator": "SDEI36", "name": "Allée Jean Vaillé", "addr:country": "FR", "socket:type2": "1", "socket:type2:output": "22.0 kW", "socket:type2_combo": "1", "socket:type2_combo:output": "22.0 kW", "charging_station:output": "22.0 kW", "capacity": "2", "_source": "worldwide"}}, {"type": "node", "id": 9796422418, "lat": 46.81244, "lon": 1.674595, "tags": {"amenity": "charging_station", "fee": "yes", "operator": "Chargelec 36", "name": "Ladestation Chargelec 36", "addr:country": "FR", "capacity": "2", "_source": "worldwide"}}, {"type": "node", "id": 9931461719, "lat": 46.810213, "lon": 1.675874, "tags": {"amenity": "charging_station", "fee": "yes", "operator": "EVlink", "name": "Ladestation EVlink", "addr:country": "FR", "capacity": "1", "_source": "worldwide"}}, {"type": "node", "id": 12857827821, "lat": 46.808022, "lon": 1.67675, "tags": {"amenity": "charging_station", "fee": "yes", "network": "e-Vadea", "opening_hours": "24/7", "operator": "SPIE CityNetworks", "name": "SPIE CityNetworks - e-Vadea", "addr:country": "FR", "socket:type2": "1", "socket:type2:output": "22 kW", "socket:type2_combo": "4", "socket:type2_combo:output": "50 kW", "charging_station:output": "50 kW", "capacity": "5", "wheelchair": "yes", "authentication:none": "yes", "_source": "worldwide"}}, {"type": "node", "id": 8575804594, "lat": 46.817149, "lon": 1.683986, "tags": {"amenity": "charging_station", "fee": "yes", "opening_hours": "24/7", "operator": "SDEI36", "name": "Place Saint-Christophe", "addr:country": "FR", "socket:type2": "1", "socket:type2:output": "22 kW", "socket:type2_combo": "1", "socket:type2_combo:output": "50 kW", "charging_station:output": "50 kW", "capacity": "2", "_source": "worldwide"}}, {"type": "node", "id": 8575804595, "lat": 46.824717, "lon": 1.703956, "tags": {"amenity": "charging_station", "fee": "yes", "opening_hours": "24/7", "operator": "SDEI36", "name": "Avenue Paul Langevin", "addr:country": "FR", "socket:type2": "1", "socket:type2:output": "22 kW", "socket:type2_combo": "1", "socket:type2_combo:output": "50 kW", "charging_station:output": "50 kW", "capacity": "2", "_source": "worldwide"}}, {"type": "node", "id": 8575804600, "lat": 46.826852, "lon": 1.703933, "tags": {"amenity": "charging_station", "fee": "yes", "opening_hours": "24/7", "operator": "SDEI36", "name": "Place Lafayette", "addr:country": "FR", "socket:type2": "1", "socket:type2:output": "22 kW", "socket:type2_combo": "1", "socket:type2_combo:output": "50 kW", "charging_station:output": "50 kW", "capacity": "2", "_source": "worldwide"}}, {"type": "node", "id": 8575804601, "lat": 46.852268, "lon": 1.711277, "tags": {"amenity": "charging_station", "fee": "yes", "opening_hours": "24/7", "operator": "SDEI36", "name": "Restaurant Escale", "addr:country": "FR", "socket:type2": "1", "socket:type2:output": "22 kW", "socket:type2_combo": "1", "socket:type2_combo:output": "50 kW", "charging_station:output": "50 kW", "capacity": "2", "_source": "worldwide"}}, {"type": "node", "id": 8575804602, "lat": 46.87047, "lon": 1.631788, "tags": {"amenity": "charging_station", "fee": "yes", "opening_hours": "24/7", "operator": "SDEI36", "name": "Ladestation SDEI36", "addr:country": "FR", "socket:type2": "1", "socket:type2:output": "22 kW", "socket:type2_combo": "1", "socket:type2_combo:output": "50 kW", "charging_station:output": "50 kW", "capacity": "2", "_source": "worldwide"}}, {"type": "node", "id": 8575804607, "lat": 46.82998, "lon": 1.563726, "tags": {"amenity": "charging_station", "fee": "yes", "opening_hours": "24/7", "operator": "SDEI36", "name": "Rue Louis Girard", "addr:country": "FR", "socket:type2": "1", "socket:type2:output": "22 kW", "socket:type2_combo": "1", "socket:type2_combo:output": "50 kW", "charging_station:output": "50 kW", "capacity": "2", "_source": "worldwide"}}, {"type": "node", "id": 8575804608, "lat": 46.847183, "lon": 1.539755, "tags": {"amenity": "charging_station", "fee": "yes", "opening_hours": "24/7", "operator": "SDEI36", "name": "Rue du Général de Gaulle", "addr:country": "FR", "socket:type2": "1", "socket:type2:output": "22 kW", "socket:type2_combo": "1", "socket:type2_combo:output": "50 kW", "charging_station:output": "50 kW", "capacity": "2", "_source": "worldwide"}}, {"type": "node", "id": 8575804609, "lat": 46.939198, "lon": 1.43674, "tags": {"amenity": "charging_station", "fee": "yes", "opening_hours": "24/7", "operator": "SDEI36", "name": "Place de la Mairie", "addr:country": "FR", "socket:type2": "1", "socket:type2:output": "22 kW", "socket:type2_combo": "1", "socket:type2_combo:output": "50 kW", "charging_station:output": "50 kW", "capacity": "2", "_source": "worldwide"}}, {"type": "node", "id": 8575804611, "lat": 46.978612, "lon": 1.611005, "tags": {"amenity": "charging_station", "fee": "yes", "opening_hours": "24/7", "operator": "SDEI36", "name": "Rue du Collège", "addr:country": "FR", "socket:type2": "1", "socket:type2:output": "22 kW", "socket:type2_combo": "1", "socket:type2_combo:output": "50 kW", "charging_station:output": "50 kW", "capacity": "2", "_source": "worldwide"}}, {"type": "node", "id": 8592873303, "lat": 46.626144, "lon": 1.973257, "tags": {"amenity": "charging_station", "fee": "yes", "opening_hours": "24/7", "operator": "SDEI36", "name": "Parking Maison George Sand", "addr:country": "FR", "socket:type2": "1", "socket:type2:output": "22.0 kW", "socket:type2_combo": "1", "socket:type2_combo:output": "22.0 kW", "charging_station:output": "22.0 kW", "capacity": "2", "_source": "worldwide"}}, {"type": "node", "id": 8592873304, "lat": 46.595942, "lon": 1.806647, "tags": {"amenity": "charging_station", "fee": "yes", "opening_hours": "24/7", "operator": "SDEI36", "name": "Ladestation SDEI36", "addr:country": "FR", "socket:type2": "1", "socket:type2:output": "22.0 kW", "socket:type2_combo": "1", "socket:type2_combo:output": "22.0 kW", "charging_station:output": "22.0 kW", "capacity": "2", "_source": "worldwide"}}, {"type": "node", "id": 8592873305, "lat": 46.54658, "lon": 1.74796, "tags": {"amenity": "charging_station", "fee": "yes", "opening_hours": "24/7", "operator": "SDEI36", "name": "Champ de Foire", "addr:country": "FR", "socket:type2": "1", "socket:type2:output": "22.0 kW", "socket:type2_combo": "1", "socket:type2_combo:output": "22.0 kW", "charging_station:output": "22.0 kW", "capacity": "2", "_source": "worldwide"}}, {"type": "node", "id": 8592873306, "lat": 46.476821, "lon": 1.682748, "tags": {"amenity": "charging_station", "fee": "yes", "opening_hours": "24/7", "operator": "SDEI36", "name": "Rue de la Poste", "addr:country": "FR", "socket:type2": "1", "socket:type2:output": "22.0 kW", "socket:type2_combo": "1", "socket:type2_combo:output": "22.0 kW", "charging_station:output": "22.0 kW", "capacity": "2", "_source": "worldwide"}}, {"type": "node", "id": 8592873307, "lat": 46.477972, "lon": 1.607923, "tags": {"amenity": "charging_station", "fee": "yes", "opening_hours": "24/7", "operator": "SDEI36", "name": "Rue du Lavoir", "addr:country": "FR", "socket:type2": "1", "socket:type2:output": "22.0 kW", "socket:type2_combo": "1", "socket:type2_combo:output": "22.0 kW", "charging_station:output": "22.0 kW", "capacity": "2", "_source": "worldwide"}}, {"type": "node", "id": 9013968465, "lat": 46.198569, "lon": 1.297896, "tags": {"amenity": "charging_station", "access": "yes", "fee": "no", "opening_hours": "24/7", "addr:country": "FR", "socket:type2": "1", "socket:type2:output": "22 kW", "charging_station:output": "22 kW", "_source": "worldwide"}}, {"type": "node", "id": 9714418495, "lat": 46.582707, "lon": 1.999798, "tags": {"amenity": "charging_station", "access": "yes", "operator": "Lidl La Châtre", "name": "Ladestation Lidl La Châtre", "addr:country": "FR", "capacity": "2", "_source": "worldwide"}}, {"type": "node", "id": 9815862466, "lat": 46.313119, "lon": 1.417133, "tags": {"amenity": "charging_station", "access": "yes", "fee": "yes", "brand": "Ionity", "network": "Ionity", "opening_hours": "24/7", "operator": "IONITY", "name": "IONITY - Ionity", "addr:country": "FR", "socket:type2_combo": "1", "socket:type2_combo:output": "50.0 kW", "socket:chademo": "1", "socket:chademo:output": "50.0 kW", "charging_station:output": "50.0 kW", "capacity": "2", "authentication:none": "", "_source": "worldwide"}}, {"type": "node", "id": 10028231451, "lat": 46.120422, "lon": 1.050887, "tags": {"amenity": "charging_station", "fee": "yes", "network": "MOBIVE - SEHV87", "operator": "MOBIVE - SEHV87", "name": "Ladestation MOBIVE - SEHV87", "addr:country": "FR", "capacity": "2", "authentication:none": "yes", "_source": "worldwide"}}, {"type": "node", "id": 10060062127, "lat": 46.715897, "lon": 1.59349, "tags": {"amenity": "charging_station", "access": "yes", "fee": "yes", "operator": "Total Energies", "name": "Relais Mille Etangs", "addr:country": "FR", "capacity": "2", "_source": "worldwide"}}, {"type": "node", "id": 11153311805, "lat": 46.167879, "lon": 1.885381, "tags": {"amenity": "charging_station", "access": "yes", "fee": "yes", "network": "Allego", "opening_hours": "24/7", "operator": "Allego", "name": "Borne de recharge auto", "addr:country": "FR", "socket:type2": "4", "socket:type2:output": "22.0 kW", "socket:type2_combo": "2", "socket:type2_combo:output": "150.0 kW", "charging_station:output": "150.0 kW", "capacity": "2", "_source": "worldwide"}}, {"type": "node", "id": 10577413047, "lat": 46.850635, "lon": 1.70523, "tags": {"amenity": "charging_station", "access": "yes", "fee": "yes", "brand": "Ionity", "network": "ENGIE Vianeo", "opening_hours": "24/7", "operator": "GreenFlux", "name": "Ionity Chateauroux Nord", "addr:country": "FR", "socket:type2": "6", "socket:type2:output": "22 kW", "socket:type2_combo": "6", "socket:type2_combo:output": "350.0 kW", "socket:chademo": "1", "socket:chademo:output": "50 kW", "charging_station:output": "350.0 kW", "capacity": "7", "authentication:none": "yes", "_source": "worldwide"}}, {"type": "node", "id": 10697432886, "lat": 46.173741, "lon": 1.878874, "tags": {"amenity": "charging_station", "access": "yes", "fee": "yes", "network": "MOBIVE", "opening_hours": "24/7", "operator": "MOBIVE", "name": "Ladestation MOBIVE", "addr:country": "FR", "socket:type2": "2", "socket:type2:output": "22.0 kW", "socket:type2_combo": "2", "socket:type2_combo:output": "24.0 kW", "charging_station:output": "24.0 kW", "capacity": "2", "_source": "worldwide"}}, {"type": "node", "id": 11343510412, "lat": 46.840501, "lon": 1.707054, "tags": {"amenity": "charging_station", "fee": "yes", "network": "Stations-e", "opening_hours": "24/7", "operator": "STATIONS-E", "name": "STATIONS-E - Stations-e", "addr:country": "FR", "socket:type2": "2", "socket:type2:output": "22 kW", "socket:type2_combo": "2", "socket:type2_combo:output": "50 kW", "charging_station:output": "50 kW", "authentication:none": "yes", "_source": "worldwide"}}, {"type": "node", "id": 11885929269, "lat": 46.577966, "lon": 1.547495, "tags": {"amenity": "charging_station", "opening_hours": "Mo-Su 09:00-23:00", "name": "Eco-gîte chambres table d'hôtes 1001nuitsenberry", "addr:street": "Rue du Manoir", "addr:postcode": "36200", "_source": "worldwide"}}, {"type": "node", "id": 11958597420, "lat": 46.034061, "lon": 1.298096, "tags": {"amenity": "charging_station", "addr:country": "FR", "capacity": "2", "_source": "worldwide"}}, {"type": "node", "id": 12337551921, "lat": 46.572883, "lon": 1.502691, "tags": {"amenity": "charging_station", "fee": "yes", "brand": "Tesla Supercharger", "opening_hours": "24/7", "operator": "Tesla", "name": "Supercharger Argenton sur Creuse", "addr:country": "FR", "capacity": "16", "_source": "worldwide"}}, {"type": "node", "id": 12407265428, "lat": 46.128696, "lon": 1.054393, "tags": {"amenity": "charging_station", "fee": "no", "addr:country": "FR", "capacity": "4", "_source": "worldwide"}}, {"type": "node", "id": 12407270943, "lat": 46.134053, "lon": 1.276453, "tags": {"amenity": "charging_station", "fee": "yes", "addr:country": "FR", "capacity": "1", "_source": "worldwide"}}, {"type": "node", "id": 12407276179, "lat": 46.214595, "lon": 1.166523, "tags": {"amenity": "charging_station", "access": "yes", "fee": "yes", "brand": "MObiVE", "network": "Mobive", "opening_hours": "24/7", "operator": "MObiVE", "name": "MObiVE - MObiVE", "addr:country": "FR", "socket:type2": "2", "socket:type2:output": "22 kW", "charging_station:output": "22 kW", "capacity": "2", "authentication:none": "yes", "_source": "worldwide"}}, {"type": "node", "id": 12407305748, "lat": 46.217778, "lon": 1.077489, "tags": {"amenity": "charging_station", "fee": "yes", "network": "Mobive", "opening_hours": "24/7", "operator": "Mobive", "name": "Ladestation Mobive", "addr:country": "FR", "socket:type2": "2", "socket:type2:output": "22 kW", "charging_station:output": "22 kW", "capacity": "2", "authentication:none": "yes", "_source": "worldwide"}}, {"type": "node", "id": 12443538204, "lat": 46.173563, "lon": 1.45063, "tags": {"amenity": "charging_station", "access": "private", "fee": "yes", "addr:country": "FR", "capacity": "2", "_source": "worldwide"}}, {"type": "node", "id": 12469009575, "lat": 46.033662, "lon": 1.345506, "tags": {"amenity": "charging_station", "fee": "yes", "addr:country": "FR", "capacity": "2", "_source": "worldwide"}}, {"type": "node", "id": 12500607604, "lat": 46.160324, "lon": 1.873305, "tags": {"amenity": "charging_station", "access": "yes", "fee": "yes", "brand": "Powerdot", "network": "Powerdot", "opening_hours": "24/7", "operator": "Powerdot", "name": "Powerdot", "addr:country": "FR", "socket:type2": "3", "socket:type2:output": "22.0 kW", "socket:type2_combo": "3", "socket:type2_combo:output": "50.0 kW", "socket:chademo": "3", "socket:chademo:output": "50.0 kW", "charging_station:output": "50.0 kW", "capacity": "3", "_source": "worldwide"}}, {"type": "node", "id": 12697369489, "lat": 46.229061, "lon": 1.505791, "tags": {"amenity": "charging_station", "access": "yes", "fee": "yes", "brand": "Izivia", "network": "IZIVIA FAST", "opening_hours": "24/7", "operator": "Izivia", "name": "IZIVIA FAST - McDonald's - La Souterraine", "addr:country": "FR", "socket:type2": "1", "socket:type2:output": "22.0 kW", "socket:type2_combo": "2", "socket:type2_combo:output": "180.0 kW", "charging_station:output": "180.0 kW", "capacity": "2", "_source": "worldwide"}}, {"type": "node", "id": 12699019718, "lat": 46.048834, "lon": 1.480036, "tags": {"amenity": "charging_station", "addr:country": "FR", "capacity": "2", "_source": "worldwide"}}, {"type": "node", "id": 12699172606, "lat": 46.076246, "lon": 1.476019, "tags": {"amenity": "charging_station", "addr:country": "FR", "capacity": "2", "_source": "worldwide"}}, {"type": "node", "id": 12784210133, "lat": 46.588521, "lon": 1.985677, "tags": {"amenity": "charging_station", "brand": "Etotem - Freshmile", "name": "Ladestation Etotem - Freshmile", "addr:country": "FR", "capacity": "2", "_source": "worldwide"}}, {"type": "node", "id": 12797431359, "lat": 46.575196, "lon": 1.975753, "tags": {"amenity": "charging_station", "brand": "Hager", "opening_hours": "24/7", "name": "Ladestation Hager", "addr:country": "FR", "capacity": "2", "_source": "worldwide"}}, {"type": "node", "id": 12942873537, "lat": 46.803518, "lon": 1.629533, "tags": {"amenity": "charging_station", "fee": "yes", "network": "chargelec36", "operator": "chargelec36", "name": "Ladestation chargelec36", "addr:country": "FR", "capacity": "2", "_source": "worldwide"}}, {"type": "node", "id": 13026866807, "lat": 46.433532, "lon": 1.609703, "tags": {"amenity": "charging_station", "addr:country": "FR", "_source": "worldwide"}}, {"type": "node", "id": 13043342915, "lat": 46.600503, "lon": 1.514187, "tags": {"amenity": "charging_station", "name": "Chargelec36", "addr:country": "FR", "_source": "worldwide"}}, {"type": "node", "id": 13072294670, "lat": 46.948537, "lon": 1.996511, "tags": {"amenity": "charging_station", "operator": "SDEI Chargelec 36", "name": "Issoudun Place de la Libération", "addr:country": "FR", "socket:type2": "1", "socket:type2:output": "22.0 kW", "charging_station:output": "22.0 kW", "capacity": "2", "_source": "worldwide"}}, {"type": "node", "id": 13094123354, "lat": 46.968583, "lon": 1.026241, "tags": {"amenity": "charging_station", "fee": "yes", "opening_hours": "24/7", "operator": "Freshmile", "name": "Saint-Flovier - Rue du Général de Gaulle 8", "addr:country": "FR", "socket:type2": "2", "socket:type2:output": "18.0 kW", "socket:schuko": "1", "socket:schuko:output": "4.0 kW", "charging_station:output": "18.0 kW", "capacity": "1", "authentication:none": "yes", "_source": "worldwide"}}, {"type": "node", "id": 13159868369, "lat": 46.825133, "lon": 1.81451, "tags": {"amenity": "charging_station", "fee": "yes", "addr:country": "FR", "_source": "worldwide"}}, {"type": "node", "id": 13192454632, "lat": 46.586588, "lon": 1.991902, "tags": {"amenity": "charging_station", "addr:country": "FR", "_source": "worldwide"}}, {"type": "node", "id": 13204734482, "lat": 46.888477, "lon": 1.575403, "tags": {"amenity": "charging_station", "fee": "yes", "addr:country": "FR", "_source": "worldwide"}}, {"type": "node", "id": 13244828035, "lat": 46.868703, "lon": 1.722047, "tags": {"amenity": "charging_station", "fee": "yes", "network": "Freshmile", "opening_hours": "24/7", "operator": "Freshmile", "name": "Ladestation Freshmile", "addr:country": "FR", "socket:type2": "2", "socket:type2:output": "22 kW", "charging_station:output": "22 kW", "capacity": "2", "_source": "worldwide"}}, {"type": "node", "id": 13244828037, "lat": 46.869038, "lon": 1.721177, "tags": {"amenity": "charging_station", "fee": "yes", "network": "Freshmile", "opening_hours": "24/7", "operator": "Freshmile", "name": "Ladestation Freshmile", "addr:country": "FR", "socket:type2": "2", "socket:type2:output": "22 kW", "charging_station:output": "22 kW", "_source": "worldwide"}}, {"type": "node", "id": 13347371896, "lat": 46.183552, "lon": 1.88054, "tags": {"amenity": "charging_station", "fee": "yes", "network": "Kia", "operator": "Kia", "name": "Ladestation Kia", "addr:country": "FR", "socket:type2": "1", "socket:type2:output": "22.0 kW", "socket:type2_combo": "1", "socket:type2_combo:output": "24.0 kW", "socket:chademo": "1", "socket:chademo:output": "24.0 kW", "charging_station:output": "24.0 kW", "_source": "worldwide"}}, {"type": "node", "id": 13347385218, "lat": 46.183528, "lon": 1.888594, "tags": {"amenity": "charging_station", "access": "yes", "fee": "yes", "network": "ROSSINI ENERGY", "opening_hours": "24/7", "operator": "ROSSINI ENERGY", "name": "Ladestation ROSSINI ENERGY", "addr:country": "FR", "socket:type2": "2", "socket:type2:output": "22.0 kW", "charging_station:output": "22.0 kW", "capacity": "2", "_source": "worldwide"}}, {"type": "node", "id": 13347446951, "lat": 46.182356, "lon": 1.885482, "tags": {"amenity": "charging_station", "access": "yes", "fee": "yes", "network": "Powerdot", "opening_hours": "24/7", "operator": "Powerdot", "name": "Ladestation Powerdot", "addr:country": "FR", "socket:type2": "3", "socket:type2:output": "22.0 kW", "socket:type2_combo": "3", "socket:type2_combo:output": "200.0 kW", "socket:chademo": "3", "socket:chademo:output": "50.0 kW", "charging_station:output": "200.0 kW", "capacity": "3", "_source": "worldwide"}}, {"type": "node", "id": 13347466747, "lat": 46.183826, "lon": 1.877161, "tags": {"amenity": "charging_station", "access": "yes", "fee": "yes", "network": "Izivia", "operator": "Izivia", "name": "Ladestation Izivia", "addr:country": "FR", "socket:type2": "1", "socket:type2:output": "22.0 kW", "socket:type2_combo": "1", "socket:type2_combo:output": "180.0 kW", "charging_station:output": "180.0 kW", "capacity": "1", "_source": "worldwide"}}, {"type": "node", "id": 13347470332, "lat": 46.176026, "lon": 1.898456, "tags": {"amenity": "charging_station", "access": "yes", "fee": "yes", "opening_hours": "24/7", "addr:country": "FR", "socket:type2": "2", "socket:type2:output": "22.0 kW", "charging_station:output": "22.0 kW", "capacity": "2", "_source": "worldwide"}}, {"type": "node", "id": 13347470869, "lat": 46.186717, "lon": 1.877434, "tags": {"amenity": "charging_station", "addr:country": "FR", "socket:type2": "1", "socket:type2:output": "22.0 kW", "charging_station:output": "22.0 kW", "_source": "worldwide"}}, {"type": "node", "id": 13468928985, "lat": 46.74431, "lon": 1.043204, "tags": {"amenity": "charging_station", "fee": "yes", "addr:country": "FR", "_source": "worldwide"}}, {"type": "node", "id": 13469108498, "lat": 46.629241, "lon": 1.245693, "tags": {"amenity": "charging_station", "fee": "yes", "addr:country": "FR", "_source": "worldwide"}}, {"type": "node", "id": 13637960489, "lat": 46.598953, "lon": 1.776598, "tags": {"amenity": "charging_station", "addr:country": "FR", "_source": "worldwide"}}]}