{"id": "-33--61", "latMin": -33, "lonMin": -61, "latMax": -32, "lonMax": -60, "generated": "2026-04-16T18:39:07.197Z", "count": 6, "pois": [{"type": "node", "id": 6497633653, "lat": -32.652474, "lon": -60.822733, "tags": {"amenity": "charging_station", "fee": "no", "operator": "Empresa Provincial de la Energía Santa Fe", "name": "Estación 02 La Ribera", "_source": "worldwide"}}, {"type": "node", "id": 8980776203, "lat": -32.933966, "lon": -60.820158, "tags": {"amenity": "charging_station", "fee": "yes", "access": "yes", "opening_hours": "24/7", "brand": "Shell", "network": "Shell Recharge Solutions", "operator": "Shell Recharge Solutions", "name": "Shell Recharge", "socket:chademo": "1", "capacity": "3", "_source": "worldwide"}}, {"type": "node", "id": 9045751925, "lat": -32.922512, "lon": -60.803173, "tags": {"amenity": "charging_station", "fee": "no", "access": "yes", "opening_hours": "24/7", "operator": "Sux Solar SRL", "name": "Sux Solar SRL", "charging_station:output": "7.4 kW", "capacity": "1", "_source": "worldwide"}}, {"type": "node", "id": 11240085828, "lat": -32.929367, "lon": -60.805129, "tags": {"amenity": "charging_station", "fee": "yes", "access": "yes", "opening_hours": "24/7", "network": "YPF Punto Eléctrico", "operator": "YPF", "name": "YPF", "socket:chademo": "1", "capacity": "53", "_source": "worldwide"}}, {"type": "node", "id": 11705763078, "lat": -32.930151, "lon": -60.72706, "tags": {"amenity": "charging_station", "fee": "yes", "access": "yes", "network": "YPF Punto Eléctrico", "operator": "YPF", "name": "YPF", "socket:chademo": "1", "capacity": "3", "_source": "worldwide"}}, {"type": "node", "id": 12557855202, "lat": -32.949894, "lon": -60.655692, "tags": {"amenity": "charging_station", "fee": "yes", "opening_hours": "24/7", "operator": "Empresa Provincial de la Energía de Santa Fe", "name": "Estación 01 Bv. Oroño", "capacity": "2", "_source": "worldwide"}}]}