{"id": "39--121", "latMin": 39, "lonMin": -121, "latMax": 40, "lonMax": -120, "generated": "2026-04-16T18:39:07.700Z", "count": 17, "pois": [{"type": "node", "id": 3746606531, "lat": 39.327428, "lon": -120.207398, "tags": {"amenity": "charging_station", "fee": "yes", "access": "customers", "opening_hours": "24/7", "brand": "Tesla Supercharger", "network": "Supercharger", "operator": "Tesla, Inc.", "name": "Tesla Supercharger", "addr:street": "Donner Pass Road", "addr:housenumber": "11290", "addr:postcode": "96161", "addr:city": "Truckee", "addr:country": "US", "capacity": "11", "_source": "worldwide"}}, {"type": "node", "id": 3746622125, "lat": 39.327342, "lon": -120.214906, "tags": {"amenity": "charging_station", "name": "EV Charging Station", "_source": "worldwide"}}, {"type": "node", "id": 6122471309, "lat": 39.32187, "lon": -120.1621, "tags": {"amenity": "charging_station", "fee": "yes", "access": "customers", "opening_hours": "24/7", "brand": "Tesla Supercharger", "network": "Supercharger", "operator": "Tesla, Inc.", "name": "Tesla Supercharger", "addr:postcode": "96161", "addr:city": "Truckee", "addr:country": "US", "capacity": "8", "_source": "worldwide"}}, {"type": "node", "id": 7108190182, "lat": 39.100636, "lon": -120.95294, "tags": {"amenity": "charging_station", "name": "EV Charging Station", "_source": "worldwide"}}, {"type": "node", "id": 10124011932, "lat": 39.08521, "lon": -120.95544, "tags": {"amenity": "charging_station", "name": "EV Charging Station", "_source": "worldwide"}}, {"type": "node", "id": 10127128236, "lat": 39.197109, "lon": -120.231123, "tags": {"amenity": "charging_station", "fee": "yes", "access": "customers", "brand": "EV Range", "name": "EV Range", "_source": "worldwide"}}, {"type": "node", "id": 10295574496, "lat": 39.287166, "lon": -120.10723, "tags": {"amenity": "charging_station", "name": "EV Charging Station", "_source": "worldwide"}}, {"type": "node", "id": 11087510951, "lat": 39.099079, "lon": -120.953264, "tags": {"amenity": "charging_station", "name": "EV Charging Station", "_source": "worldwide"}}, {"type": "node", "id": 11229714636, "lat": 39.313613, "lon": -120.339778, "tags": {"amenity": "charging_station", "access": "private", "opening_hours": "24/7", "operator": "Sugar Bowl", "name": "Sugar Bowl", "_source": "worldwide"}}, {"type": "node", "id": 11229762845, "lat": 39.308506, "lon": -120.545739, "tags": {"amenity": "charging_station", "fee": "yes", "operator": "Chargepoint", "name": "Chargepoint", "_source": "worldwide"}}, {"type": "node", "id": 12063782467, "lat": 39.50287, "lon": -120.00007, "tags": {"amenity": "charging_station", "fee": "yes", "access": "yes", "opening_hours": "24/7", "brand": "Tesla Supercharger", "network": "Supercharger", "operator": "Tesla, Inc.", "name": "Verdi Supercharger", "addr:street": "Gold Ranch Road", "addr:housenumber": "350", "addr:postcode": "89439", "addr:city": "Verdi", "addr:country": "US", "capacity": "16", "_source": "worldwide"}}, {"type": "node", "id": 12176904997, "lat": 39.328539, "lon": -120.182378, "tags": {"amenity": "charging_station", "brand": "ChargePoint", "operator": "ChargePoint", "name": "ChargePoint", "_source": "worldwide"}}, {"type": "node", "id": 12208993922, "lat": 39.32283, "lon": -120.22577, "tags": {"amenity": "charging_station", "fee": "yes", "access": "yes", "opening_hours": "24/7", "brand": "Tesla Supercharger", "network": "Supercharger", "operator": "Tesla, Inc.", "name": "Tesla Supercharger", "addr:street": "Deerfield Drive", "addr:housenumber": "12277", "addr:postcode": "96161", "addr:city": "Truckee", "addr:country": "US", "capacity": "12", "_source": "worldwide"}}, {"type": "node", "id": 12463872451, "lat": 39.187316, "lon": -120.832664, "tags": {"amenity": "charging_station", "name": "EV Charging Station", "_source": "worldwide"}}, {"type": "node", "id": 12944743577, "lat": 39.16779, "lon": -120.14453, "tags": {"amenity": "charging_station", "fee": "yes", "access": "customers", "opening_hours": "24/7", "brand": "Tesla Supercharger", "network": "Supercharger", "operator": "Tesla, Inc.", "name": "Tahoe City Supercharger", "addr:street": "North. Lake Boulevard", "addr:housenumber": "140", "addr:postcode": "96145", "addr:city": "Tahoe City", "addr:country": "US", "capacity": "6", "_source": "worldwide"}}, {"type": "node", "id": 12944744002, "lat": 39.3195, "lon": -120.15583, "tags": {"amenity": "charging_station", "fee": "yes", "access": "yes", "opening_hours": "24/7", "brand": "Tesla Supercharger", "network": "Supercharger", "operator": "Tesla, Inc.", "name": "Tesla Supercharger", "addr:street": "Soaring Way", "addr:housenumber": "10001", "addr:postcode": "96161", "addr:city": "Truckee", "addr:country": "US", "capacity": "16", "_source": "worldwide"}}, {"type": "node", "id": 13140119077, "lat": 39.937249, "lon": -120.936007, "tags": {"amenity": "charging_station", "fee": "yes", "access": "yes", "opening_hours": "24/7", "brand": "Tesla Supercharger", "network": "Supercharger", "operator": "Tesla", "name": "Tesla Supercharger", "addr:street": "East Main Street", "addr:housenumber": "60", "addr:postcode": "95971", "addr:city": "Quincy", "addr:country": "US", "capacity": "8", "_source": "worldwide"}}]}