{"id": "37-26", "latMin": 37, "lonMin": 26, "latMax": 38, "lonMax": 27, "generated": "2026-04-16T18:39:07.587Z", "count": 25, "pois": [{"type": "node", "id": 12972926369, "lat": 37.769415, "lon": 26.726672, "tags": {"amenity": "charging_station", "access": "yes", "fee": "yes", "brand": "DEI Blue", "opening_hours": "24/7", "operator": "Οινοποιείο Βακάκη", "name": "DEI blue - Οινοποιείο Βακάκη", "addr:postcode": "83200", "addr:city": "Καρλόβασι", "socket:type2": "2", "socket:type2:output": "22.0 kW", "charging_station:output": "22.0 kW", "capacity": "2", "authentication:none": "", "_source": "worldwide"}}, {"type": "node", "id": 12972937130, "lat": 37.625499, "lon": 26.187496, "tags": {"amenity": "charging_station", "access": "yes", "fee": "yes", "brand": "nrg incharge", "opening_hours": "24/7", "operator": "Kerame Hotel", "name": "nrg - Kerame Hotel", "addr:postcode": "83302", "addr:city": "Ικαρία", "socket:type2": "1", "socket:type2:output": "22.0 kW", "charging_station:output": "22.0 kW", "capacity": "1", "authentication:none": "", "_source": "worldwide"}}, {"type": "node", "id": 12972948202, "lat": 37.794415, "lon": 26.700968, "tags": {"amenity": "charging_station", "access": "yes", "fee": "yes", "brand": "DEI Blue", "opening_hours": "24/7", "operator": "Σφάντος Suzuki", "name": "DΕΙ blue - Σφάντος Suzuki", "addr:street": "Πυθαγόρα 12", "addr:postcode": "83200", "addr:city": "Καρλόβασι", "addr:country": "GR", "socket:type2": "1", "socket:type2:output": "22.0 kW", "charging_station:output": "22.0 kW", "capacity": "1", "authentication:none": "", "_source": "worldwide"}}, {"type": "node", "id": 12972948204, "lat": 37.799014, "lon": 26.701405, "tags": {"amenity": "charging_station", "access": "yes", "fee": "yes", "brand": "EKO Charge&Go", "opening_hours": "Mo-Su 06:00-22:00", "operator": "EKO ΚΑΛΥΨΩ 122", "name": "EKO Charge&Go - EKO Όρμος", "addr:postcode": "83200", "addr:city": "Νέο Καρλόβασι", "socket:type2_combo": "2", "socket:type2_combo:output": "120.0 kW", "charging_station:output": "120.0 kW", "capacity": "2", "authentication:none": "", "_source": "worldwide"}}, {"type": "node", "id": 12972948205, "lat": 37.795584, "lon": 26.691272, "tags": {"amenity": "charging_station", "access": "yes", "fee": "yes", "brand": "DEI Blue", "opening_hours": "24/7", "operator": "ΑΒ Βασιλόπουλος", "name": "DEI blue - ΑΒ Βασιλόπουλος", "addr:postcode": "83200", "addr:city": "Καρλόβασι", "socket:type2": "2", "socket:type2:output": "22.0 kW", "charging_station:output": "22.0 kW", "capacity": "2", "authentication:none": "", "_source": "worldwide"}}, {"type": "node", "id": 12972963244, "lat": 37.668014, "lon": 26.875794, "tags": {"amenity": "charging_station", "access": "yes", "fee": "yes", "brand": "Blink", "opening_hours": "24/7", "operator": "Zeus Hotel", "name": "Blink - Zeus Hotel", "addr:postcode": "83103", "addr:city": "Σάμος", "capacity": "1", "authentication:none": "", "_source": "worldwide"}}, {"type": "node", "id": 12972963938, "lat": 37.778976, "lon": 26.876488, "tags": {"amenity": "charging_station", "access": "yes", "fee": "yes", "brand": "Joltie", "opening_hours": "24/7", "operator": "Arion Hotel", "name": "Joltie - Arion Hotel", "addr:postcode": "83100", "addr:city": "Σάμος", "capacity": "1", "authentication:none": "", "_source": "worldwide"}}, {"type": "node", "id": 12972993131, "lat": 37.692195, "lon": 26.946109, "tags": {"amenity": "charging_station", "access": "yes", "fee": "yes", "brand": "Blink", "opening_hours": "24/7", "operator": "Lithos Hotel", "name": "Blink - Lithos Hotel", "addr:postcode": "83103", "addr:city": "Σάμος", "capacity": "1", "authentication:none": "", "_source": "worldwide"}}, {"type": "node", "id": 12972993133, "lat": 37.690442, "lon": 26.94209, "tags": {"amenity": "charging_station", "access": "yes", "fee": "yes", "brand": "Joltie", "opening_hours": "24/7", "operator": "HERA Super Market", "name": "Joltie - HERA Super Market", "addr:street": "Αιγαίου Πελάγους", "addr:postcode": "83103", "addr:city": "Πυθαγόρειο", "socket:type2_combo": "1", "socket:type2_combo:output": "30.0 kW", "charging_station:output": "30.0 kW", "capacity": "1", "authentication:none": "", "_source": "worldwide"}}, {"type": "node", "id": 12972993132, "lat": 37.690596, "lon": 26.929134, "tags": {"amenity": "charging_station", "access": "yes", "fee": "yes", "brand": "Blink", "opening_hours": "24/7", "operator": "Doryssa Seaside Resort", "name": "Blink - Doryssa Resort", "addr:postcode": "83103", "addr:city": "Πυθαγόρειο", "capacity": "3", "authentication:none": "", "_source": "worldwide"}}, {"type": "node", "id": 12972993134, "lat": 37.699711, "lon": 26.911384, "tags": {"amenity": "charging_station", "access": "yes", "fee": "yes", "brand": "nrg incharge", "opening_hours": "Mo-Sa 06:00-22:00; Su 07:00-20:00", "operator": "Shell 496", "name": "nrg - Shell 496", "addr:postcode": "83103", "addr:city": "Πυθαγόρειο", "socket:type2_combo": "2", "socket:type2_combo:output": "60.0 kW", "charging_station:output": "60.0 kW", "capacity": "2", "authentication:none": "", "_source": "worldwide"}}, {"type": "node", "id": 12972993135, "lat": 37.692171, "lon": 26.89866, "tags": {"amenity": "charging_station", "access": "yes", "fee": "yes", "brand": "EKO Charge&Go", "opening_hours": "24/7", "operator": "EKO ΚΑΛΥΨΩ 121", "name": "EKO Charge&Go - EKO Αεροδρόμιο", "addr:postcode": "83100", "addr:city": "Πυθαγόρειο", "socket:type2_combo": "2", "socket:type2_combo:output": "120.0 kW", "charging_station:output": "120.0 kW", "capacity": "2", "authentication:none": "", "_source": "worldwide"}}, {"type": "node", "id": 12973023863, "lat": 37.750718, "lon": 26.979891, "tags": {"amenity": "charging_station", "access": "yes", "fee": "yes", "brand": "Joltie", "opening_hours": "24/7", "operator": "VKD Market City", "name": "Joltie - VKD Market City", "addr:postcode": "83100", "addr:city": "Σάμος", "socket:type2": "1", "socket:type2:output": "22.0 kW", "charging_station:output": "22.0 kW", "capacity": "1", "authentication:none": "", "_source": "worldwide"}}, {"type": "node", "id": 12973023864, "lat": 37.74868, "lon": 26.963015, "tags": {"amenity": "charging_station", "access": "yes", "fee": "yes", "brand": "EKO Charge&Go", "opening_hours": "Mo-Su 06:00-23:59", "operator": "BP Βαθύ", "name": "EKO Charge&Go - BP Βαθύ", "addr:postcode": "83100", "addr:city": "Βαθύ", "socket:type2_combo": "1", "socket:type2_combo:output": "50.0 kW", "socket:chademo": "1", "socket:chademo:output": "50.0 kW", "charging_station:output": "50.0 kW", "capacity": "2", "authentication:none": "", "_source": "worldwide"}}, {"type": "node", "id": 12973036700, "lat": 37.737246, "lon": 26.98508, "tags": {"amenity": "charging_station", "access": "yes", "fee": "yes", "brand": "nrg incharge", "opening_hours": "24/7", "operator": "Shell ΕΡΜΗΣ 396", "name": "nrg - Shell Βαρελλά", "addr:postcode": "83100", "addr:city": "Βαθύ", "socket:type2": "1", "socket:type2:output": "22.0 kW", "socket:type2_combo": "2", "socket:type2_combo:output": "40.0 kW", "charging_station:output": "40.0 kW", "capacity": "2", "authentication:none": "", "_source": "worldwide"}}, {"type": "node", "id": 12979287244, "lat": 37.325672, "lon": 26.542608, "tags": {"amenity": "charging_station", "access": "yes", "fee": "no", "brand": "Joltie", "opening_hours": "24/7", "operator": "Δήμος Πάτμου", "name": "Joltie - Σκάλα Πάτμου", "capacity": "2", "authentication:none": "", "_source": "worldwide"}}, {"type": "node", "id": 12979331963, "lat": 37.144633, "lon": 26.859078, "tags": {"amenity": "charging_station", "access": "customers", "fee": "yes", "brand": "nrg incharge", "opening_hours": "24/7", "operator": "Tony's Beach Hotel", "name": "nrg - Tony's Beach Hotel", "addr:postcode": "85400", "addr:city": "Λέρος", "socket:type2": "1", "socket:type2:output": "22.0 kW", "charging_station:output": "22.0 kW", "capacity": "1", "authentication:none": "", "_source": "worldwide"}}, {"type": "node", "id": 12979359318, "lat": 37.304339, "lon": 26.561324, "tags": {"amenity": "charging_station", "access": "yes", "fee": "yes", "brand": "Chargespot", "opening_hours": "24/7", "operator": "Patmos Aktis Suites & Spa", "name": "Chargespot - Patmos Aktis Suites", "addr:postcode": "85500", "addr:city": "Πάτμος", "socket:type2": "2", "socket:type2:output": "22.0 kW", "charging_station:output": "22.0 kW", "capacity": "2", "authentication:none": "", "_source": "worldwide"}}, {"type": "node", "id": 13122858967, "lat": 37.695363, "lon": 26.960034, "tags": {"amenity": "charging_station", "access": "yes", "fee": "yes", "brand": "nrg incharge", "opening_hours": "24/7", "operator": "Proteas Blu Resort", "name": "nrg - Proteas Blu Resort", "addr:postcode": "83103", "addr:city": "Πυθαγόρειο", "socket:type2": "2", "socket:type2:output": "22.0 kW", "charging_station:output": "22.0 kW", "capacity": "2", "authentication:none": "", "_source": "worldwide"}}, {"type": "node", "id": 13134891879, "lat": 37.690339, "lon": 26.926682, "tags": {"amenity": "charging_station", "access": "yes", "fee": "yes", "brand": "nrg incharge", "opening_hours": "24/7", "operator": "Fito Aqua Bleu Resort", "name": "nrg - Fito Aqua Bleu Resort", "addr:postcode": "83103", "addr:city": "Πυθαγόρειο", "socket:type2": "2", "socket:type2:output": "22.0 kW", "charging_station:output": "22.0 kW", "capacity": "2", "authentication:none": "", "_source": "worldwide"}}, {"type": "node", "id": 13168831792, "lat": 37.130251, "lon": 26.848282, "tags": {"amenity": "charging_station", "access": "yes", "fee": "no", "brand": "EVziiin", "opening_hours": "24/7", "operator": "Δήμος Λέρου", "name": "EVziiin - Μαρίνα Λακκί", "addr:postcode": "85400", "addr:city": "Λέρος", "addr:country": "GR", "socket:type2": "1", "socket:type2:output": "22.0 kW", "charging_station:output": "22.0 kW", "capacity": "1", "authentication:none": "", "_source": "worldwide"}}, {"type": "node", "id": 13168877923, "lat": 37.165854, "lon": 26.836105, "tags": {"amenity": "charging_station", "access": "yes", "fee": "no", "brand": "EVziiin", "opening_hours": "24/7", "operator": "Δήμος Λέρου", "name": "EVziiin - Άλινδα παραλία", "addr:postcode": "85400", "addr:city": "Λέρος", "addr:country": "GR", "socket:type2": "1", "socket:type2:output": "22.0 kW", "charging_station:output": "22.0 kW", "capacity": "1", "authentication:none": "", "_source": "worldwide"}}, {"type": "node", "id": 13266980420, "lat": 37.779055, "lon": 26.890007, "tags": {"amenity": "charging_station", "access": "yes", "fee": "yes", "brand": "EV Loader", "network": "EV Loader", "opening_hours": "24/7", "operator": "Autoland rent services", "name": "EV Loader - Autoland", "addr:postcode": "83100", "addr:city": "Σάμος", "socket:type2": "1", "socket:type2:output": "22.0 kW", "charging_station:output": "22.0 kW", "capacity": "1", "authentication:none": "", "_source": "worldwide"}}, {"type": "node", "id": 13266980421, "lat": 37.698996, "lon": 26.744722, "tags": {"amenity": "charging_station", "access": "yes", "fee": "yes", "brand": "EV Loader", "network": "EV Loader", "opening_hours": "24/7", "operator": "Akrogiali Restaurant", "name": "EV Loader - Akrogiali Restaurant", "addr:postcode": "83104", "addr:city": "Σάμος", "socket:type2": "1", "socket:type2:output": "11.0 kW", "charging_station:output": "11.0 kW", "capacity": "1", "authentication:none": "", "_source": "worldwide"}}, {"type": "node", "id": 13670992119, "lat": 37.309644, "lon": 26.548691, "tags": {"amenity": "charging_station", "access": "yes", "fee": "no", "brand": "Joltie", "opening_hours": "24/7", "operator": "Δήμος Πάτμου", "name": "Joltie - Χώρα Πάτμου", "capacity": "2", "authentication:none": "", "_source": "worldwide"}}]}