{"id": "36--82", "latMin": 36, "lonMin": -82, "latMax": 37, "lonMax": -81, "generated": "2026-04-16T18:39:07.377Z", "count": 20, "pois": [{"type": "node", "id": 2178794917, "lat": 36.211977, "lon": -81.68065, "tags": {"amenity": "charging_station", "fee": "no", "opening_hours": "24/7", "name": "EV Charging Station", "socket:type1": "4", "capacity": "4", "_source": "worldwide"}}, {"type": "node", "id": 4276291708, "lat": 36.219177, "lon": -81.683787, "tags": {"amenity": "charging_station", "fee": "no", "opening_hours": "24/7", "name": "EV Charging Station", "socket:chademo": "1", "capacity": "1", "_source": "worldwide"}}, {"type": "node", "id": 4276334896, "lat": 36.214936, "lon": -81.67517, "tags": {"amenity": "charging_station", "name": "GE WattStation", "socket:type1": "4", "capacity": "4", "_source": "worldwide"}}, {"type": "node", "id": 4276362371, "lat": 36.19562, "lon": -81.654377, "tags": {"amenity": "charging_station", "name": "EV Charging Station", "socket:type1": "1", "capacity": "3", "_source": "worldwide"}}, {"type": "node", "id": 8475990509, "lat": 36.084806, "lon": -81.845833, "tags": {"amenity": "charging_station", "name": "ChargePoint Charging Station", "_source": "worldwide"}}, {"type": "node", "id": 9938204812, "lat": 36.090217, "lon": -81.834984, "tags": {"amenity": "charging_station", "name": "ChargePoint Charging Station", "_source": "worldwide"}}, {"type": "node", "id": 11383237516, "lat": 36.959566, "lon": -81.095209, "tags": {"amenity": "charging_station", "operator": "Electrify America", "name": "Electrify America", "_source": "worldwide"}}, {"type": "node", "id": 11493817310, "lat": 36.86455, "lon": -81.43353, "tags": {"amenity": "charging_station", "fee": "yes", "access": "yes", "opening_hours": "24/7", "brand": "Tesla Supercharger", "network": "Supercharger", "operator": "Tesla, Inc.", "name": "Atkins Supercharger", "addr:street": "Lee Highway", "addr:housenumber": "5558", "addr:postcode": "34311", "addr:city": "Atkins", "addr:country": "US", "capacity": "8", "_source": "worldwide"}}, {"type": "node", "id": 12056194536, "lat": 36.708022, "lon": -81.980431, "tags": {"amenity": "charging_station", "fee": "no", "opening_hours": "24/7", "name": "EV Charging Station", "socket:chademo": "1", "socket:type1_combo": "1", "capacity": "2", "_source": "worldwide"}}, {"type": "node", "id": 12070377114, "lat": 36.712433, "lon": -81.928985, "tags": {"amenity": "charging_station", "name": "EV Charging Station", "_source": "worldwide"}}, {"type": "node", "id": 12079289052, "lat": 36.140012, "lon": -81.670792, "tags": {"amenity": "charging_station", "access": "yes", "name": "EV Charging Station", "_source": "worldwide"}}, {"type": "node", "id": 12363656042, "lat": 36.196737, "lon": -81.655879, "tags": {"amenity": "charging_station", "access": "yes", "brand": "Circle K", "operator": "Circle K", "name": "Circle K", "_source": "worldwide"}}, {"type": "node", "id": 12405406127, "lat": 36.144672, "lon": -81.150743, "tags": {"amenity": "charging_station", "fee": "yes", "access": "yes", "name": "EV Charging Station", "socket:chademo": "2", "socket:type1_combo": "2", "capacity": "4", "_source": "worldwide"}}, {"type": "node", "id": 12420690800, "lat": 36.142183, "lon": -81.670129, "tags": {"amenity": "charging_station", "brand": "Rivian Waypoints", "name": "Rivian Waypoints", "_source": "worldwide"}}, {"type": "node", "id": 12420691308, "lat": 36.139256, "lon": -81.674254, "tags": {"amenity": "charging_station", "fee": "no", "access": "customers", "operator": "Chetola Resort at Blowing Rock", "name": "Chetola Resort at Blowing Rock", "socket:tesla_destination": "2", "capacity": "3", "_source": "worldwide"}}, {"type": "node", "id": 12446568194, "lat": 36.223481, "lon": -81.635714, "tags": {"amenity": "charging_station", "fee": "yes", "access": "yes", "operator": "Blue Ridge Energy", "name": "Blue Ridge Energy", "socket:chademo": "2", "capacity": "4", "_source": "worldwide"}}, {"type": "node", "id": 12566467777, "lat": 36.215948, "lon": -81.670982, "tags": {"amenity": "charging_station", "fee": "yes", "name": "EV Charging Station", "socket:tesla_destination": "2", "capacity": "2", "_source": "worldwide"}}, {"type": "node", "id": 12826439231, "lat": 36.219958, "lon": -81.663495, "tags": {"amenity": "charging_station", "name": "EV Charging Station", "_source": "worldwide"}}, {"type": "node", "id": 12944743657, "lat": 36.94579, "lon": -81.05441, "tags": {"amenity": "charging_station", "fee": "yes", "access": "customers", "opening_hours": "24/7", "brand": "Tesla Supercharger", "network": "Supercharger", "operator": "Tesla, Inc.", "name": "Wytheville Supercharger", "addr:street": "Malin Drive", "addr:housenumber": "165", "addr:postcode": "24382", "addr:city": "Wytheville", "addr:country": "US", "capacity": "6", "_source": "worldwide"}}, {"type": "node", "id": 12944744362, "lat": 36.71229, "lon": -81.9287, "tags": {"amenity": "charging_station", "fee": "yes", "access": "customers", "opening_hours": "24/7", "brand": "Tesla Supercharger", "network": "Supercharger", "operator": "Tesla, Inc.", "name": "Tesla Supercharger", "addr:street": "Lee Highway", "addr:housenumber": "25016", "addr:postcode": "24211", "addr:city": "Abingdon", "addr:country": "US", "capacity": "8", "_source": "worldwide"}}]}