{"id": "10-76", "latMin": 10, "lonMin": 76, "latMax": 11, "lonMax": 77, "generated": "2026-04-16T18:39:07.225Z", "count": 38, "pois": [{"type": "node", "id": 4434163189, "lat": 10.179696, "lon": 76.267321, "tags": {"amenity": "charging_station", "operator": "KSEB", "name": "Elanthikkara", "_source": "worldwide"}}, {"type": "node", "id": 7123744187, "lat": 10.648832, "lon": 76.071061, "tags": {"amenity": "charging_station", "name": "EV Charging Station", "_source": "worldwide"}}, {"type": "node", "id": 8919511936, "lat": 10.855973, "lon": 76.862448, "tags": {"amenity": "charging_station", "fee": "yes", "access": "yes", "operator": "Zeon", "name": "Zeon Charging Navakkarai", "_source": "worldwide"}}, {"type": "node", "id": 9524427359, "lat": 10.077302, "lon": 76.337644, "tags": {"amenity": "charging_station", "access": "yes", "operator": "TATA", "name": "TATA Charging Station", "_source": "worldwide"}}, {"type": "node", "id": 10617217605, "lat": 10.24563, "lon": 76.369849, "tags": {"amenity": "charging_station", "opening_hours": "24/7", "operator": "Tata Power", "name": "Tata EZ power Charging station", "addr:street": "Salem - Kochi - Kanyakumari Highway", "_source": "worldwide"}}, {"type": "node", "id": 11111611044, "lat": 10.597268, "lon": 76.487229, "tags": {"amenity": "charging_station", "brand": "KSEB Charging Station", "name": "KSEB Charging Station", "_source": "worldwide"}}, {"type": "node", "id": 11116285790, "lat": 10.002999, "lon": 76.361699, "tags": {"amenity": "charging_station", "name": "ATHER Fast Charger", "_source": "worldwide"}}, {"type": "node", "id": 11157574366, "lat": 10.774037, "lon": 76.698222, "tags": {"amenity": "charging_station", "name": "EV Super charging station", "_source": "worldwide"}}, {"type": "node", "id": 11288409893, "lat": 10.331491, "lon": 76.215273, "tags": {"amenity": "charging_station", "name": "KSEB", "_source": "worldwide"}}, {"type": "node", "id": 11574632419, "lat": 10.535217, "lon": 76.215611, "tags": {"amenity": "charging_station", "access": "yes", "brand": "OLA Electric", "name": "Ola Hypercharger", "_source": "worldwide"}}, {"type": "node", "id": 11964375344, "lat": 10.116666, "lon": 76.445759, "tags": {"amenity": "charging_station", "brand": "GOEC", "name": "GOEC", "_source": "worldwide"}}, {"type": "node", "id": 11964400670, "lat": 10.099556, "lon": 76.347416, "tags": {"amenity": "charging_station", "name": "EV Charging Station", "_source": "worldwide"}}, {"type": "node", "id": 11964404840, "lat": 10.072278, "lon": 76.333776, "tags": {"amenity": "charging_station", "brand": "Exicom", "name": "Exicom", "_source": "worldwide"}}, {"type": "node", "id": 11964404990, "lat": 10.081985, "lon": 76.339999, "tags": {"amenity": "charging_station", "name": "EVOK Charging Station", "_source": "worldwide"}}, {"type": "node", "id": 11964409805, "lat": 10.088934, "lon": 76.42305, "tags": {"amenity": "charging_station", "brand": "KSEB", "name": "KSEB", "_source": "worldwide"}}, {"type": "node", "id": 11964604757, "lat": 10.033478, "lon": 76.221057, "tags": {"amenity": "charging_station", "brand": "KSEB", "name": "KSEB", "_source": "worldwide"}}, {"type": "node", "id": 11964630608, "lat": 10.07582, "lon": 76.270491, "tags": {"amenity": "charging_station", "brand": "KSEB", "name": "KSEB", "_source": "worldwide"}}, {"type": "node", "id": 11970079921, "lat": 10.018704, "lon": 76.313113, "tags": {"amenity": "charging_station", "name": "EV Charging Station", "_source": "worldwide"}}, {"type": "node", "id": 11970092378, "lat": 10.062893, "lon": 76.321141, "tags": {"amenity": "charging_station", "name": "EV Charging Station", "_source": "worldwide"}}, {"type": "node", "id": 11970092379, "lat": 10.034821, "lon": 76.323089, "tags": {"amenity": "charging_station", "name": "EV Charging Station", "_source": "worldwide"}}, {"type": "node", "id": 11970095292, "lat": 10.046329, "lon": 76.339378, "tags": {"amenity": "charging_station", "brand": "EVOK", "name": "EVOK", "_source": "worldwide"}}, {"type": "node", "id": 11970103073, "lat": 10.01533, "lon": 76.306108, "tags": {"amenity": "charging_station", "name": "EV Charging Station", "_source": "worldwide"}}, {"type": "node", "id": 11970662648, "lat": 10.020881, "lon": 76.344716, "tags": {"amenity": "charging_station", "name": "EV Charging Station", "_source": "worldwide"}}, {"type": "node", "id": 11970671706, "lat": 10.032415, "lon": 76.336454, "tags": {"amenity": "charging_station", "name": "EV Charging Station", "_source": "worldwide"}}, {"type": "node", "id": 11970686660, "lat": 10.023153, "lon": 76.341238, "tags": {"amenity": "charging_station", "name": "EV Charging Station", "_source": "worldwide"}}, {"type": "node", "id": 11970703533, "lat": 10.040476, "lon": 76.33858, "tags": {"amenity": "charging_station", "name": "EV Charging Station", "_source": "worldwide"}}, {"type": "node", "id": 11970703598, "lat": 10.017359, "lon": 76.348896, "tags": {"amenity": "charging_station", "name": "EV Charging Station", "_source": "worldwide"}}, {"type": "node", "id": 11970725379, "lat": 10.0541, "lon": 76.32683, "tags": {"amenity": "charging_station", "name": "EV Charging Station", "_source": "worldwide"}}, {"type": "node", "id": 11970726776, "lat": 10.021577, "lon": 76.334191, "tags": {"amenity": "charging_station", "name": "EV Charging Station", "_source": "worldwide"}}, {"type": "node", "id": 12197027554, "lat": 10.770255, "lon": 76.637782, "tags": {"amenity": "charging_station", "access": "private", "brand": "Ather Grid Charging Stationed", "operator": "Ather", "name": "Ather Grid Charging Stationed", "_source": "worldwide"}}, {"type": "node", "id": 12327155403, "lat": 10.380689, "lon": 76.297593, "tags": {"amenity": "charging_station", "name": "EV Point", "_source": "worldwide"}}, {"type": "node", "id": 12791449753, "lat": 10.773663, "lon": 76.664726, "tags": {"amenity": "charging_station", "fee": "yes", "brand": "Pulse", "operator": "Jio Bp", "name": "Pulse", "_source": "worldwide"}}, {"type": "node", "id": 12828589994, "lat": 10.771951, "lon": 76.65726, "tags": {"amenity": "charging_station", "brand": "Esygo", "name": "Esygo", "_source": "worldwide"}}, {"type": "node", "id": 13040660047, "lat": 10.522057, "lon": 76.227662, "tags": {"amenity": "charging_station", "fee": "yes", "name": "EV Charging Station", "_source": "worldwide"}}, {"type": "node", "id": 13249124236, "lat": 10.773112, "lon": 76.279474, "tags": {"amenity": "charging_station", "operator": "Exiom Charging Station", "name": "Exiom Charging Station", "_source": "worldwide"}}, {"type": "node", "id": 13556517113, "lat": 10.784488, "lon": 76.65613, "tags": {"amenity": "charging_station", "fee": "yes", "operator": "EZYGO", "name": "EZYGO", "_source": "worldwide"}}, {"type": "node", "id": 13586349702, "lat": 10.431598, "lon": 76.142475, "tags": {"amenity": "charging_station", "operator": "EVOK ( Electric Vehicle Owners Kerala )", "name": "EVOK ( Electric Vehicle Owners Kerala )", "_source": "worldwide"}}, {"type": "node", "id": 13609193888, "lat": 10.116898, "lon": 76.487094, "tags": {"amenity": "charging_station", "brand": "Indian Oil", "name": "Indian Oil", "capacity": "2", "_source": "worldwide"}}]}