{"id": "37--119", "latMin": 37, "lonMin": -119, "latMax": 38, "lonMax": -118, "generated": "2026-04-16T18:39:07.474Z", "count": 6, "pois": [{"type": "node", "id": 5910635525, "lat": 37.644509, "lon": -118.965479, "tags": {"amenity": "charging_station", "fee": "yes", "access": "customers", "opening_hours": "24/7", "brand": "Tesla Supercharger", "network": "Supercharger", "operator": "Tesla, Inc.", "name": "Mammoth Lakes Supercharger", "addr:street": "Tavern Road", "addr:housenumber": "1475", "addr:postcode": "93546", "addr:city": "Mammoth Lakes", "addr:country": "US", "capacity": "8", "_source": "worldwide"}}, {"type": "node", "id": 11250338386, "lat": 37.369014, "lon": -118.395813, "tags": {"amenity": "charging_station", "access": "yes", "brand": "Rivian", "operator": "Rivian", "name": "Rivian", "_source": "worldwide"}}, {"type": "node", "id": 11393203921, "lat": 37.360664, "lon": -118.396555, "tags": {"amenity": "charging_station", "fee": "yes", "access": "yes", "opening_hours": "24/7", "brand": "Tesla Supercharger", "network": "Supercharger", "operator": "Tesla", "name": "Bishop Supercharger", "addr:street": "South Warren Street", "addr:housenumber": "151", "addr:postcode": "93514", "addr:city": "Bishop", "addr:country": "US", "capacity": "12", "_source": "worldwide"}}, {"type": "node", "id": 11393232898, "lat": 37.63619, "lon": -118.96797, "tags": {"amenity": "charging_station", "fee": "yes", "access": "yes", "opening_hours": "24/7", "brand": "Tesla Supercharger", "network": "Supercharger", "operator": "Tesla, Inc.", "name": "Mammoth Lakes Old Mammoth Road Supercharger", "addr:street": "Old Mammoth Road", "addr:housenumber": "686", "addr:postcode": "93546", "addr:city": "Mammoth Lakes", "addr:country": "US", "capacity": "12", "_source": "worldwide"}}, {"type": "node", "id": 11393232913, "lat": 37.636217, "lon": -118.967631, "tags": {"amenity": "charging_station", "fee": "yes", "access": "yes", "brand": "Tesla, Inc.", "name": "Mammoth Lakes Old Mammoth Road Tesla Destination Charger", "addr:street": "Old Mammoth Road", "addr:housenumber": "686", "addr:postcode": "93546", "addr:city": "Mammoth Lakes", "socket:type1": "4", "capacity": "4", "_source": "worldwide"}}, {"type": "node", "id": 11393234278, "lat": 37.37729, "lon": -118.4226, "tags": {"amenity": "charging_station", "fee": "yes", "access": "yes", "opening_hours": "24/7", "brand": "Tesla Supercharger", "network": "Supercharger", "operator": "Tesla, Inc.", "name": "Bishop Rocking W Drive Supercharger", "addr:street": "Rocking West Drive", "addr:housenumber": "1331", "addr:postcode": "93514", "addr:city": "Bishop", "addr:country": "US", "capacity": "24", "_source": "worldwide"}}]}