{"id": "54-11", "latMin": 54, "lonMin": 11, "latMax": 55, "lonMax": 12, "generated": "2026-04-16T18:39:08.729Z", "count": 73, "pois": [{"type": "node", "id": 2166704152, "lat": 54.140244, "lon": 11.840564, "tags": {"amenity": "charging_station", "addr:country": "DE", "capacity": "1", "_source": "worldwide"}}, {"type": "node", "id": 4815515320, "lat": 54.462184, "lon": 11.119504, "tags": {"amenity": "charging_station", "fee": "no", "operator": "http://windenergie-fehmarn.de", "name": "E-Bike-Lader", "addr:country": "DE", "socket:schuko": "4", "socket:schuko:output": "2.3 kW", "charging_station:output": "2.3 kW", "capacity": "4", "_source": "worldwide"}}, {"type": "node", "id": 4826566174, "lat": 54.464944, "lon": 11.141431, "tags": {"amenity": "charging_station", "fee": "no", "operator": "http://windenergie-fehmarn.de", "name": "Ladestation http://windenergie-fehmarn.de", "addr:country": "DE", "socket:schuko": "4", "socket:schuko:output": "2.3 kW", "charging_station:output": "2.3 kW", "_source": "worldwide"}}, {"type": "node", "id": 4826566175, "lat": 54.426799, "lon": 11.108357, "tags": {"amenity": "charging_station", "fee": "no", "operator": "http://windenergie-fehmarn.de", "name": "Ladestation http://windenergie-fehmarn.de", "addr:country": "DE", "socket:schuko": "4", "socket:schuko:output": "2.3 kW", "charging_station:output": "2.3 kW", "_source": "worldwide"}}, {"type": "node", "id": 4826566176, "lat": 54.462942, "lon": 11.242876, "tags": {"amenity": "charging_station", "fee": "no", "operator": "http://windenergie-fehmarn.de", "name": "Ladestation http://windenergie-fehmarn.de", "addr:country": "DE", "socket:schuko": "4", "socket:schuko:output": "2.3 kW", "charging_station:output": "2.3 kW", "_source": "worldwide"}}, {"type": "node", "id": 4908221859, "lat": 54.438146, "lon": 11.199992, "tags": {"amenity": "charging_station", "fee": "yes", "operator": "E.ON", "name": "Ladestation E.ON", "addr:country": "DE", "socket:type2": "2", "socket:type2:output": "22 kW", "charging_station:output": "22 kW", "capacity": "2", "_source": "worldwide"}}, {"type": "node", "id": 12518713962, "lat": 54.438035, "lon": 11.196174, "tags": {"amenity": "charging_station", "addr:country": "DE", "_source": "worldwide"}}, {"type": "node", "id": 4909720259, "lat": 54.443055, "lon": 11.17844, "tags": {"amenity": "charging_station", "operator": "Clever", "name": "Ladestation Clever", "addr:country": "DE", "socket:type2": "1", "socket:type2:output": "22 kW", "socket:type2_combo": "1", "socket:type2_combo:output": "50 kW", "socket:chademo": "1", "socket:chademo:output": "50 kW", "charging_station:output": "50 kW", "capacity": "2", "_source": "worldwide"}}, {"type": "node", "id": 11499376162, "lat": 54.445521, "lon": 11.180046, "tags": {"amenity": "charging_station", "fee": "yes", "operator": "GP JOULE Connect", "name": "GP JOULE Connect - GP JOULE Connect GmbH", "addr:country": "DE", "socket:type2_combo": "4", "socket:type2_combo:output": "300.0 kW", "charging_station:output": "300.0 kW", "capacity": "8", "_source": "worldwide"}}, {"type": "node", "id": 12949297915, "lat": 54.444784, "lon": 11.182629, "tags": {"amenity": "charging_station", "fee": "yes", "operator": "ALDI Nord Charing Station", "name": "Ladestation ALDI Nord Charing Station", "addr:street": "Ehlers Kamp 8", "socket:type2_combo": "2", "socket:type2_combo:output": "50.0 kW", "charging_station:output": "50.0 kW", "capacity": "2", "_source": "worldwide"}}, {"type": "node", "id": 5455372724, "lat": 54.000893, "lon": 11.444154, "tags": {"amenity": "charging_station", "fee": "no", "opening_hours": "Mo-Sa 07:00-20:00; Su 07:00-20:00", "operator": "Netto", "name": "Ladestation Netto", "addr:country": "DE", "capacity": "2", "_source": "worldwide"}}, {"type": "node", "id": 6362690931, "lat": 54.207487, "lon": 11.089902, "tags": {"amenity": "charging_station", "network": "bike-energy", "operator": "DJH Jugendherberge Dahme", "name": "bike-energy Ladestation", "addr:street": "Dahmeshöved 1", "addr:postcode": "23747", "addr:city": "Dahme", "addr:country": "DE", "capacity": "4", "_source": "worldwide"}}, {"type": "node", "id": 6588180502, "lat": 54.440438, "lon": 11.194146, "tags": {"amenity": "charging_station", "operator": "E.ON", "name": "Ladestation E.ON", "addr:country": "DE", "socket:type2": "2", "socket:type2:output": "22 kW", "charging_station:output": "22 kW", "capacity": "2", "_source": "worldwide"}}, {"type": "node", "id": 8948471054, "lat": 54.438046, "lon": 11.193361, "tags": {"amenity": "charging_station", "fee": "yes", "operator": "E.ON", "name": "Ladestation E.ON", "addr:country": "DE", "socket:type2": "2", "socket:type2:output": "22 kW", "charging_station:output": "22 kW", "capacity": "2", "_source": "worldwide"}}, {"type": "node", "id": 6720869737, "lat": 54.108423, "lon": 11.906207, "tags": {"amenity": "charging_station", "fee": "yes", "opening_hours": "24/7", "operator": "Stadtwerke Rostock", "name": "Ladestation Stadtwerke Rostock", "addr:country": "DE", "socket:type2": "2", "socket:type2:output": "22 kW", "charging_station:output": "22 kW", "capacity": "2", "_source": "worldwide"}}, {"type": "node", "id": 6864163445, "lat": 54.36502, "lon": 11.008137, "tags": {"amenity": "charging_station", "fee": "yes", "network": "E.ON", "operator": "E.ON", "name": "Ladestation E.ON", "addr:country": "DE", "socket:type2_combo": "1", "socket:type2_combo:output": "50.0 kW", "socket:chademo": "1", "socket:chademo:output": "50.0 kW", "charging_station:output": "50.0 kW", "capacity": "2", "authentication:none": "", "_source": "worldwide"}}, {"type": "node", "id": 7822969403, "lat": 54.002327, "lon": 11.163456, "tags": {"amenity": "charging_station", "addr:country": "DE", "socket:schuko": "4", "socket:schuko:output": "2.3 kW", "charging_station:output": "2.3 kW", "_source": "worldwide"}}, {"type": "node", "id": 8069868745, "lat": 54.766765, "lon": 11.877241, "tags": {"amenity": "charging_station", "addr:country": "DE", "_source": "worldwide"}}, {"type": "node", "id": 8100417036, "lat": 54.147848, "lon": 11.755075, "tags": {"amenity": "charging_station", "fee": "yes", "operator": "WEMAG", "name": "Ladestation WEMAG", "addr:country": "DE", "socket:type2": "2", "socket:type2:output": "22 kW", "charging_station:output": "22 kW", "capacity": "2", "_source": "worldwide"}}, {"type": "node", "id": 8829827786, "lat": 54.503759, "lon": 11.224994, "tags": {"amenity": "charging_station", "fee": "yes", "operator": "E.ON", "name": "Ladestation E.ON", "addr:country": "DE", "socket:type2": "2", "socket:type2:output": "22 kW", "charging_station:output": "22 kW", "capacity": "2", "_source": "worldwide"}}, {"type": "node", "id": 8948490391, "lat": 54.442477, "lon": 11.181826, "tags": {"amenity": "charging_station", "fee": "yes", "operator": "ENERGIZED", "name": "Ladestation ENERGIZED", "addr:country": "DE", "socket:type2": "1", "socket:type2:output": "22 kW", "socket:type2_combo": "1", "socket:type2_combo:output": "50 kW", "socket:chademo": "1", "socket:chademo:output": "50 kW", "charging_station:output": "50 kW", "capacity": "2", "_source": "worldwide"}}, {"type": "node", "id": 8948541394, "lat": 54.452768, "lon": 11.012161, "tags": {"amenity": "charging_station", "access": "yes", "fee": "yes", "opening_hours": "24/7", "operator": "ENERGIZED", "name": "Ladestation ENERGIZED", "addr:country": "DE", "socket:type2": "2", "socket:type2:output": "22.0 kW", "charging_station:output": "22.0 kW", "capacity": "2", "_source": "worldwide"}}, {"type": "node", "id": 9913697445, "lat": 54.690431, "lon": 11.967316, "tags": {"amenity": "charging_station", "access": "yes", "network": "Guldborgsund Kommune", "opening_hours": "24/7", "operator": "Guldborgsund Kommune", "name": "Ladestation Guldborgsund Kommune", "addr:country": "DE", "capacity": "4", "authentication:none": "", "_source": "worldwide"}}, {"type": "node", "id": 11061925774, "lat": 54.102152, "lon": 11.91998, "tags": {"amenity": "charging_station", "addr:country": "DE", "_source": "worldwide"}}, {"type": "node", "id": 11092045089, "lat": 54.372912, "lon": 11.085399, "tags": {"amenity": "charging_station", "addr:country": "DE", "capacity": "2", "_source": "worldwide"}}, {"type": "node", "id": 11116608941, "lat": 54.449626, "lon": 11.095682, "tags": {"amenity": "charging_station", "fee": "no", "addr:country": "DE", "_source": "worldwide"}}, {"type": "node", "id": 11155447673, "lat": 54.012993, "lon": 11.424626, "tags": {"amenity": "charging_station", "access": "yes", "operator": "Stadtwerke Wismar", "name": "Ladestation Stadtwerke Wismar", "addr:country": "DE", "socket:type2": "2", "socket:type2:output": "22 kW", "charging_station:output": "22 kW", "capacity": "2", "wheelchair": "yes", "_source": "worldwide"}}, {"type": "node", "id": 11200403322, "lat": 54.723035, "lon": 11.799691, "tags": {"amenity": "charging_station", "access": "yes", "fee": "no", "network": "Naturlandet", "opening_hours": "24/7", "operator": "Naturlandet", "name": "Ladestation Naturlandet", "addr:country": "DE", "capacity": "4", "authentication:none": "yes", "_source": "worldwide"}}, {"type": "node", "id": 11367089632, "lat": 54.106852, "lon": 11.653528, "tags": {"amenity": "charging_station", "access": "yes", "fee": "yes", "brand": "JoinOn", "name": "Ladestation JoinOn", "addr:country": "DE", "capacity": "2", "_source": "worldwide"}}, {"type": "node", "id": 11369452629, "lat": 54.779441, "lon": 11.479787, "tags": {"amenity": "charging_station", "fee": "yes", "brand": "Clever", "operator": "Clever", "name": "Clever - Maribo Erhvervspark", "addr:country": "DE", "socket:type2_combo": "18", "socket:type2_combo:output": "300.0 kW", "charging_station:output": "300.0 kW", "capacity": "18", "_source": "worldwide"}}, {"type": "node", "id": 11837371587, "lat": 54.779161, "lon": 11.477754, "tags": {"amenity": "charging_station", "access": "yes", "brand": "Allego", "name": "Ladestation Allego", "addr:country": "DE", "socket:type2_combo": "6", "socket:type2_combo:output": "50 kW", "charging_station:output": "50 kW", "capacity": "6", "_source": "worldwide"}}, {"type": "node", "id": 1182593895, "lat": 54.780063, "lon": 11.478523, "tags": {"amenity": "charging_station", "fee": "yes", "brand": "OK", "name": "OK - Maribo Erhvervspark", "addr:country": "DE", "socket:type2_combo": "2", "socket:type2_combo:output": "175.0 kW", "socket:chademo": "1", "socket:chademo:output": "63.0 kW", "charging_station:output": "175.0 kW", "capacity": "2", "_source": "worldwide"}}, {"type": "node", "id": 1393013080, "lat": 54.779257, "lon": 11.476893, "tags": {"amenity": "charging_station", "access": "yes", "fee": "yes", "brand": "Tesla Supercharger", "opening_hours": "24/7", "operator": "Tesla", "name": "Maribo Erhvervspark Supercharger", "addr:country": "DE", "socket:type2_combo": "20", "socket:type2_combo:output": "250.0 kW", "charging_station:output": "250.0 kW", "capacity": "24", "_source": "worldwide"}}, {"type": "node", "id": 11499376163, "lat": 54.407582, "lon": 11.174333, "tags": {"amenity": "charging_station", "fee": "yes", "operator": "MVV Energie", "name": "MVV Energie - MVV Energie AG", "addr:country": "DE", "socket:type2": "6", "socket:type2:output": "22.0 kW", "socket:type2_combo": "2", "socket:type2_combo:output": "100.0 kW", "charging_station:output": "100.0 kW", "capacity": "8", "_source": "worldwide"}}, {"type": "node", "id": 11705030142, "lat": 54.661637, "lon": 11.340445, "tags": {"amenity": "charging_station", "addr:country": "DE", "_source": "worldwide"}}, {"type": "node", "id": 12032115746, "lat": 54.766593, "lon": 11.865597, "tags": {"amenity": "charging_station", "access": "yes", "fee": "yes", "opening_hours": "24/7", "addr:country": "DE", "socket:type2": "1", "socket:type2:output": "22 kW", "charging_station:output": "22 kW", "capacity": "2", "_source": "worldwide"}}, {"type": "node", "id": 12076922121, "lat": 54.149568, "lon": 11.735591, "tags": {"amenity": "charging_station", "operator": "WEMAG", "name": "Ladestation WEMAG", "addr:country": "DE", "socket:type2": "4", "socket:type2:output": "22 kW", "charging_station:output": "22 kW", "capacity": "4", "_source": "worldwide"}}, {"type": "node", "id": 12096713411, "lat": 54.226288, "lon": 11.084893, "tags": {"amenity": "charging_station", "name": "Monta Ladestation", "addr:street": "Strandwiese 11", "capacity": "2", "_source": "worldwide"}}, {"type": "node", "id": 12102725106, "lat": 54.575128, "lon": 11.929627, "tags": {"amenity": "charging_station", "access": "yes", "addr:country": "DE", "capacity": "4", "_source": "worldwide"}}, {"type": "node", "id": 12168189030, "lat": 54.717848, "lon": 11.226486, "tags": {"amenity": "charging_station", "access": "yes", "fee": "yes", "brand": "Drivee", "name": "Hummingen Camping", "addr:country": "DE", "capacity": "2", "_source": "worldwide"}}, {"type": "node", "id": 12168195205, "lat": 54.773722, "lon": 11.501822, "tags": {"amenity": "charging_station", "access": "yes", "fee": "yes", "operator": "Clever", "name": "Rådhus", "addr:country": "DE", "capacity": "8", "_source": "worldwide"}}, {"type": "node", "id": 13006285879, "lat": 54.775509, "lon": 11.499649, "tags": {"amenity": "charging_station", "operator": "Clever", "name": "Ladestation Clever", "addr:country": "DE", "capacity": "6", "_source": "worldwide"}}, {"type": "node", "id": 13121574811, "lat": 54.776099, "lon": 11.500905, "tags": {"amenity": "charging_station", "operator": "Clever", "name": "Ladestation Clever", "addr:country": "DE", "capacity": "6", "_source": "worldwide"}}, {"type": "node", "id": 1304896803, "lat": 54.774659, "lon": 11.496449, "tags": {"amenity": "charging_station", "addr:country": "DE", "capacity": "10", "wheelchair": "yes", "_source": "worldwide"}}, {"type": "node", "id": 12312321499, "lat": 54.435494, "lon": 11.279278, "tags": {"amenity": "charging_station", "access": "customers", "addr:country": "DE", "capacity": "8", "_source": "worldwide"}}, {"type": "node", "id": 12462599494, "lat": 54.444851, "lon": 11.185581, "tags": {"amenity": "charging_station", "fee": "yes", "operator": "team", "name": "Ladestation team", "addr:country": "DE", "socket:type2_combo": "2", "socket:type2_combo:output": "400.0 kW", "charging_station:output": "400.0 kW", "capacity": "2", "_source": "worldwide"}}, {"type": "node", "id": 12635656440, "lat": 54.52106, "lon": 11.052243, "tags": {"amenity": "charging_station", "addr:country": "DE", "_source": "worldwide"}}, {"type": "node", "id": 12635700370, "lat": 54.453241, "lon": 11.068443, "tags": {"amenity": "charging_station", "operator": "windenergie-fehmarn.de", "name": "Ladestation windenergie-fehmarn.de", "addr:country": "DE", "_source": "worldwide"}}, {"type": "node", "id": 12816925763, "lat": 54.114765, "lon": 11.910705, "tags": {"amenity": "charging_station", "brand": "Allego", "operator": "Allego", "name": "Allego - Allego", "addr:country": "DE", "capacity": "4", "_source": "worldwide"}}, {"type": "node", "id": 12816928530, "lat": 54.113248, "lon": 11.902816, "tags": {"amenity": "charging_station", "addr:country": "DE", "capacity": "2", "_source": "worldwide"}}, {"type": "node", "id": 12945948118, "lat": 54.114109, "lon": 11.908135, "tags": {"amenity": "charging_station", "access": "yes", "operator": "Stadtwerke Rostock", "name": "Stadtwerke Rostock - Stadtwerke Rostock AG", "addr:country": "DE", "capacity": "2", "_source": "worldwide"}}, {"type": "node", "id": 12818185805, "lat": 54.032565, "lon": 11.670232, "tags": {"amenity": "charging_station", "fee": "no", "opening_hours": "Di-Fr 10:00-16:00", "operator": "Heinrich Schliemann-Gedenkstätte", "name": "Ladestation Heinrich Schliemann-Gedenkstätte", "addr:country": "DE", "capacity": "3", "_source": "worldwide"}}, {"type": "node", "id": 12888199344, "lat": 54.105955, "lon": 11.928456, "tags": {"amenity": "charging_station", "brand": "Shell Recharge", "operator": "Shell Recharge", "name": "Shell Recharge - Shell Recharge", "addr:country": "DE", "capacity": "4", "_source": "worldwide"}}, {"type": "node", "id": 12912753139, "lat": 54.128872, "lon": 11.645326, "tags": {"amenity": "charging_station", "operator": "ABB", "name": "Ladestation ABB", "addr:country": "DE", "capacity": "2", "_source": "worldwide"}}, {"type": "node", "id": 12960763905, "lat": 54.70974, "lon": 11.91955, "tags": {"amenity": "charging_station", "opening_hours": "24/7", "name": "E.ON Drive Charging Station", "addr:country": "DE", "capacity": "2", "_source": "worldwide"}}, {"type": "node", "id": 13095728442, "lat": 54.411848, "lon": 11.199718, "tags": {"amenity": "charging_station", "fee": "yes", "operator": "stadtraum Deutschland", "name": "Ladestation stadtraum Deutschland", "addr:country": "DE", "socket:type2": "2", "socket:type2:output": "22.0 kW", "charging_station:output": "22.0 kW", "capacity": "2", "_source": "worldwide"}}, {"type": "node", "id": 13142517812, "lat": 54.999501, "lon": 11.907059, "tags": {"amenity": "charging_station", "brand": "Clever", "operator": "Clever", "name": "Clever - Clever", "addr:country": "DE", "capacity": "10", "_source": "worldwide"}}, {"type": "node", "id": 13152768214, "lat": 54.681139, "lon": 11.948651, "tags": {"amenity": "charging_station", "addr:country": "DE", "_source": "worldwide"}}, {"type": "node", "id": 13306045952, "lat": 54.667008, "lon": 11.329168, "tags": {"amenity": "charging_station", "operator": "Clever", "name": "Ladestation Clever", "addr:country": "DE", "capacity": "12", "_source": "worldwide"}}, {"type": "node", "id": 13331483936, "lat": 54.108257, "lon": 11.918413, "tags": {"amenity": "charging_station", "fee": "yes", "addr:country": "DE", "_source": "worldwide"}}, {"type": "node", "id": 13426352046, "lat": 54.11523, "lon": 11.993927, "tags": {"amenity": "charging_station", "operator": "Ökoblick", "name": "Ladestation Ökoblick", "addr:country": "DE", "_source": "worldwide"}}, {"type": "node", "id": 13541079030, "lat": 54.76822, "lon": 11.86728, "tags": {"amenity": "charging_station", "addr:country": "DE", "_source": "worldwide"}}, {"type": "node", "id": 13566659736, "lat": 54.666214, "lon": 11.72975, "tags": {"amenity": "charging_station", "access": "yes", "addr:country": "DE", "socket:type2": "4", "socket:type2:output": "22.0 kW", "charging_station:output": "22.0 kW", "capacity": "4", "_source": "worldwide"}}, {"type": "node", "id": 1214801954, "lat": 54.899402, "lon": 11.918193, "tags": {"amenity": "charging_station", "fee": "yes", "brand": "Clever", "opening_hours": "24/7", "operator": "Clever", "name": "Nørre Alslev - Clever", "addr:country": "DE", "socket:type2_combo": "18", "socket:type2_combo:output": "300.0 kW", "charging_station:output": "300.0 kW", "capacity": "18", "_source": "worldwide"}}, {"type": "node", "id": 1259418360, "lat": 54.89893, "lon": 11.917998, "tags": {"amenity": "charging_station", "brand": "Allego", "operator": "Allego", "name": "Allego - Allego", "addr:country": "DE", "socket:type2_combo": "4", "socket:type2_combo:output": "300.0 kW", "charging_station:output": "300.0 kW", "capacity": "4", "_source": "worldwide"}}, {"type": "node", "id": 1250551583, "lat": 54.899835, "lon": 11.89692, "tags": {"amenity": "charging_station", "access": "yes", "fee": "yes", "brand": "Tesla Supercharger", "opening_hours": "24/7", "operator": "Tesla", "name": "Nørre Alslev Supercharger - Tesla", "addr:country": "DE", "socket:type2_combo": "8", "socket:type2_combo:output": "150.0 kW", "socket:tesla_supercharger": "8", "socket:tesla_supercharger:output": "150.0 kW", "charging_station:output": "150.0 kW", "capacity": "8", "_source": "worldwide"}}, {"type": "node", "id": 1304891797, "lat": 54.948662, "lon": 11.988137, "tags": {"amenity": "charging_station", "access": "yes", "fee": "yes", "opening_hours": "24/7", "operator": "E.ON", "name": "Ladestation E.ON", "addr:country": "DE", "socket:type2_combo": "4", "socket:type2_combo:output": "300.0 kW", "socket:chademo": "1", "socket:chademo:output": "75.0 kW", "charging_station:output": "300.0 kW", "capacity": "4", "_source": "worldwide"}}, {"type": "node", "id": 1416156504, "lat": 54.948347, "lon": 11.987537, "tags": {"amenity": "charging_station", "access": "yes", "fee": "yes", "brand": "E.ON Drive", "opening_hours": "24/7", "operator": "E.ON", "name": "E.ON - E.ON Drive", "addr:country": "DE", "socket:type2": "1", "socket:type2:output": "22.0 kW", "socket:type2_combo": "2", "socket:type2_combo:output": "110.0 kW", "socket:chademo": "1", "socket:chademo:output": "62.0 kW", "charging_station:output": "110.0 kW", "capacity": "2", "_source": "worldwide"}}, {"type": "node", "id": 1306594230, "lat": 54.324611, "lon": 11.070116, "tags": {"amenity": "charging_station", "access": "yes", "fee": "yes", "brand": "LAN1", "operator": "LAN1", "name": "LAN1 - LAN1", "addr:country": "DE", "capacity": "4", "_source": "worldwide"}}, {"type": "node", "id": 1306594231, "lat": 54.325022, "lon": 11.069443, "tags": {"amenity": "charging_station", "access": "yes", "fee": "yes", "addr:country": "DE", "capacity": "4", "_source": "worldwide"}}, {"type": "node", "id": 1442863296, "lat": 54.776531, "lon": 11.515448, "tags": {"amenity": "charging_station", "brand": "Q8", "operator": "Q8", "name": "Q8 Østre Landevej 46", "addr:country": "DE", "socket:type2_combo": "2", "socket:type2_combo:output": "150.0 kW", "charging_station:output": "150.0 kW", "capacity": "2", "_source": "worldwide"}}, {"type": "node", "id": 1442883505, "lat": 54.898891, "lon": 11.87161, "tags": {"amenity": "charging_station", "brand": "Q8", "operator": "Q8", "name": "Q8 Gåbensevej 1, Nørre Alslev", "addr:country": "DE", "socket:type2_combo": "2", "socket:type2_combo:output": "150.0 kW", "charging_station:output": "150.0 kW", "capacity": "2", "_source": "worldwide"}}, {"type": "node", "id": 1492845321, "lat": 54.673606, "lon": 11.331944, "tags": {"amenity": "charging_station", "operator": "Clever", "name": "Ladestation Clever", "addr:country": "DE", "capacity": "10", "_source": "worldwide"}}]}