{"id": "63-11", "latMin": 63, "lonMin": 11, "latMax": 64, "lonMax": 12, "generated": "2026-04-16T18:39:08.803Z", "count": 21, "pois": [{"type": "node", "id": 4081358960, "lat": 63.873849, "lon": 11.290525, "tags": {"amenity": "charging_station", "access": "yes", "opening_hours": "Mo-Fr 07:00-22:00; Sa 09:00-20:00", "operator": "Coop", "name": "Coop Extra Inderøy", "addr:country": "SE", "socket:type2": "1", "socket:type2:output": "22.0 kW", "charging_station:output": "22.0 kW", "capacity": "1", "_source": "worldwide"}}, {"type": "node", "id": 12777025939, "lat": 63.873487, "lon": 11.289164, "tags": {"amenity": "charging_station", "access": "yes", "brand": "St1 Charge", "name": "St1 Lading Inderøy", "addr:country": "SE", "socket:type2_combo": "6", "socket:type2_combo:output": "400.0 kW", "charging_station:output": "400.0 kW", "capacity": "6", "_source": "worldwide"}}, {"type": "node", "id": 5018849947, "lat": 63.749166, "lon": 11.302848, "tags": {"amenity": "charging_station", "access": "yes", "brand": "Recharge", "opening_hours": "24/7", "name": "Recharge Kiwi Levanger", "addr:country": "SE", "socket:type2": "2", "socket:type2:output": "22.0 kW", "socket:type2_combo": "1", "socket:type2_combo:output": "50.0 kW", "socket:chademo": "1", "socket:chademo:output": "50.0 kW", "charging_station:output": "50.0 kW", "capacity": "3", "_source": "worldwide"}}, {"type": "node", "id": 6051230305, "lat": 63.466402, "lon": 11.094655, "tags": {"amenity": "charging_station", "access": "yes", "opening_hours": "24/7", "operator": "Best Hegra", "name": "Best Hegra", "addr:country": "SE", "socket:type2": "2", "socket:type2:output": "22.0 kW", "charging_station:output": "22.0 kW", "capacity": "2", "_source": "worldwide"}}, {"type": "node", "id": 6051230307, "lat": 63.73784, "lon": 11.28169, "tags": {"amenity": "charging_station", "access": "yes", "brand": "Mer", "opening_hours": "24/7", "name": "Mer NAF Moafjæra", "addr:country": "SE", "socket:type2": "2", "socket:type2:output": "22.0 kW", "socket:type2_combo": "1", "socket:type2_combo:output": "50.0 kW", "socket:chademo": "1", "socket:chademo:output": "50.0 kW", "charging_station:output": "50.0 kW", "capacity": "3", "_source": "worldwide"}}, {"type": "node", "id": 6051230325, "lat": 63.435541, "lon": 11.705956, "tags": {"amenity": "charging_station", "access": "yes", "brand": "Mer", "opening_hours": "24/7", "name": "Mer Autoline åker", "addr:country": "SE", "socket:type2": "2", "socket:type2:output": "22.0 kW", "socket:type2_combo": "1", "socket:type2_combo:output": "50.0 kW", "socket:chademo": "1", "socket:chademo:output": "50.0 kW", "charging_station:output": "50.0 kW", "capacity": "3", "_source": "worldwide"}}, {"type": "node", "id": 6051230327, "lat": 63.734014, "lon": 11.282419, "tags": {"amenity": "charging_station", "access": "yes", "fee": "yes", "brand": "Recharge", "name": "Recharge Magneten", "addr:country": "SE", "socket:type2_combo": "8", "socket:type2_combo:output": "200.0 kW", "socket:chademo": "2", "socket:chademo:output": "50.0 kW", "charging_station:output": "200.0 kW", "capacity": "8", "_source": "worldwide"}}, {"type": "node", "id": 6677810575, "lat": 63.734363, "lon": 11.281415, "tags": {"amenity": "charging_station", "access": "yes", "fee": "yes", "brand": "Tesla Supercharger", "opening_hours": "24/7", "operator": "Tesla", "name": "Tesla Levanger Supercharger", "addr:country": "SE", "socket:type2_combo": "12", "socket:type2_combo:output": "150.0 kW", "socket:tesla_supercharger": "12", "socket:tesla_supercharger:output": "150.0 kW", "charging_station:output": "150.0 kW", "capacity": "12", "_source": "worldwide"}}, {"type": "node", "id": 12824028673, "lat": 63.735039, "lon": 11.281991, "tags": {"amenity": "charging_station", "access": "yes", "brand": "Kople", "name": "Kople Coop Extra Moan Levanger", "addr:country": "SE", "socket:type2_combo": "8", "socket:type2_combo:output": "200.0 kW", "socket:chademo": "1", "socket:chademo:output": "62.0 kW", "charging_station:output": "200.0 kW", "capacity": "8", "_source": "worldwide"}}, {"type": "node", "id": 6762237263, "lat": 63.044714, "lon": 11.656984, "tags": {"amenity": "charging_station", "access": "yes", "brand": "Recharge", "name": "Recharge Tydal kommune", "addr:country": "SE", "socket:type2": "3", "socket:type2:output": "11.0 kW", "socket:type2_combo": "2", "socket:type2_combo:output": "50.0 kW", "socket:chademo": "2", "socket:chademo:output": "50.0 kW", "charging_station:output": "50.0 kW", "capacity": "5", "_source": "worldwide"}}, {"type": "node", "id": 6970018233, "lat": 63.788953, "lon": 11.47921, "tags": {"amenity": "charging_station", "access": "yes", "brand": "Mer", "name": "Mer Extra & YX Verdal", "addr:country": "SE", "socket:type2": "2", "socket:type2:output": "22.0 kW", "socket:type2_combo": "4", "socket:type2_combo:output": "150.0 kW", "socket:chademo": "4", "socket:chademo:output": "62.0 kW", "charging_station:output": "150.0 kW", "capacity": "6", "_source": "worldwide"}}, {"type": "node", "id": 11146764735, "lat": 63.222593, "lon": 11.035113, "tags": {"amenity": "charging_station", "access": "yes", "brand": "Mer", "name": "Mer Extra Selbu", "addr:country": "SE", "socket:type2": "1", "socket:type2:output": "22.0 kW", "socket:type2_combo": "2", "socket:type2_combo:output": "50.0 kW", "socket:chademo": "2", "socket:chademo:output": "50.0 kW", "charging_station:output": "50.0 kW", "capacity": "3", "_source": "worldwide"}}, {"type": "node", "id": 11146764737, "lat": 63.717457, "lon": 11.227931, "tags": {"amenity": "charging_station", "access": "yes", "brand": "Mer", "name": "Mer YX Gråmyra", "addr:country": "SE", "socket:type2": "1", "socket:type2:output": "22.0 kW", "socket:type2_combo": "8", "socket:type2_combo:output": "150.0 kW", "socket:chademo": "2", "socket:chademo:output": "50.0 kW", "charging_station:output": "150.0 kW", "capacity": "9", "_source": "worldwide"}}, {"type": "node", "id": 11146764738, "lat": 63.937819, "lon": 11.422211, "tags": {"amenity": "charging_station", "access": "yes", "brand": "Mer", "name": "Mer Extra Mære", "addr:country": "SE", "socket:type2": "1", "socket:type2:output": "22.0 kW", "socket:type2_combo": "5", "socket:type2_combo:output": "150.0 kW", "socket:chademo": "2", "socket:chademo:output": "50.0 kW", "charging_station:output": "150.0 kW", "capacity": "6", "_source": "worldwide"}}, {"type": "node", "id": 11169096773, "lat": 63.417805, "lon": 11.739, "tags": {"amenity": "charging_station", "access": "yes", "brand": "Eviny", "name": "Eviny Meråker", "addr:country": "SE", "socket:type2": "1", "socket:type2:output": "22.0 kW", "socket:type2_combo": "5", "socket:type2_combo:output": "200.0 kW", "socket:chademo": "3", "socket:chademo:output": "50.0 kW", "charging_station:output": "200.0 kW", "capacity": "6", "_source": "worldwide"}}, {"type": "node", "id": 11169096851, "lat": 63.782571, "lon": 11.469291, "tags": {"amenity": "charging_station", "access": "yes", "brand": "Eviny", "name": "Eviny Alti Verdal", "addr:country": "SE", "socket:type2_combo": "8", "socket:type2_combo:output": "200.0 kW", "socket:chademo": "2", "socket:chademo:output": "50.0 kW", "charging_station:output": "200.0 kW", "capacity": "8", "_source": "worldwide"}}, {"type": "node", "id": 11172580324, "lat": 63.769304, "lon": 11.46512, "tags": {"amenity": "charging_station", "access": "yes", "brand": "Recharge", "name": "Recharge St1 Verdal", "addr:country": "SE", "socket:type2_combo": "6", "socket:type2_combo:output": "200.0 kW", "socket:chademo": "2", "socket:chademo:output": "62.0 kW", "charging_station:output": "200.0 kW", "capacity": "6", "_source": "worldwide"}}, {"type": "node", "id": 11172580325, "lat": 63.917888, "lon": 11.433253, "tags": {"amenity": "charging_station", "access": "yes", "brand": "Recharge", "name": "Recharge St1 Sparbu", "addr:country": "SE", "socket:type2_combo": "4", "socket:type2_combo:output": "225.0 kW", "socket:chademo": "2", "socket:chademo:output": "62.0 kW", "charging_station:output": "225.0 kW", "capacity": "4", "_source": "worldwide"}}, {"type": "node", "id": 12786814450, "lat": 63.79182, "lon": 11.48635, "tags": {"amenity": "charging_station", "access": "yes", "brand": "Mer", "name": "Mer Amfi Verdal", "addr:country": "SE", "socket:type2_combo": "4", "socket:type2_combo:output": "30.0 kW", "socket:chademo": "4", "socket:chademo:output": "30.0 kW", "charging_station:output": "30.0 kW", "capacity": "4", "_source": "worldwide"}}, {"type": "node", "id": 12824028670, "lat": 63.848233, "lon": 11.401814, "tags": {"amenity": "charging_station", "access": "yes", "brand": "Kople", "name": "Kople Røra Inderøy", "addr:country": "SE", "socket:type2_combo": "7", "socket:type2_combo:output": "400.0 kW", "socket:chademo": "2", "socket:chademo:output": "62.0 kW", "charging_station:output": "400.0 kW", "capacity": "7", "_source": "worldwide"}}, {"type": "node", "id": 12914358580, "lat": 63.792938, "lon": 11.489352, "tags": {"amenity": "charging_station", "access": "yes", "fee": "yes", "brand": "Tesla Supercharger", "opening_hours": "24/7", "operator": "Tesla", "name": "Tesla Verdal Supercharger", "addr:country": "SE", "socket:type2_combo": "12", "socket:type2_combo:output": "250.0 kW", "charging_station:output": "250.0 kW", "capacity": "12", "_source": "worldwide"}}]}