{"id": "41--91", "latMin": 41, "lonMin": -91, "latMax": 42, "lonMax": -90, "generated": "2026-04-16T18:39:07.821Z", "count": 11, "pois": [{"type": "node", "id": 6356918837, "lat": 41.52718, "lon": -90.581222, "tags": {"amenity": "charging_station", "access": "customers", "operator": "Beiderbecke Bed and Breakfast", "name": "Beiderbecke Inn Destination Charger", "_source": "worldwide"}}, {"type": "node", "id": 6356932364, "lat": 41.528802, "lon": -90.481814, "tags": {"amenity": "charging_station", "operator": "Teriyaki Madness", "name": "Teriyaki Madness Destination Charger", "_source": "worldwide"}}, {"type": "node", "id": 8871364406, "lat": 41.432632, "lon": -90.157034, "tags": {"amenity": "charging_station", "fee": "no", "name": "EV Charging Station", "_source": "worldwide"}}, {"type": "node", "id": 10946091737, "lat": 41.590664, "lon": -90.462993, "tags": {"amenity": "charging_station", "fee": "yes", "operator": "Shell Greenlots", "name": "Shell Greenlots", "socket:chademo": "1", "socket:type1_combo": "1", "capacity": "2", "_source": "worldwide"}}, {"type": "node", "id": 10947708700, "lat": 41.563792, "lon": -90.525535, "tags": {"amenity": "charging_station", "operator": "Shell Green Lots", "name": "Shell Green Lots", "socket:type1_combo": "1", "capacity": "1", "_source": "worldwide"}}, {"type": "node", "id": 10947826194, "lat": 41.454573, "lon": -90.506558, "tags": {"amenity": "charging_station", "fee": "no", "name": "EV Charging Station", "socket:type1": "2", "capacity": "2", "_source": "worldwide"}}, {"type": "node", "id": 11047439462, "lat": 41.619716, "lon": -90.782677, "tags": {"amenity": "charging_station", "name": "EV Charging Station", "_source": "worldwide"}}, {"type": "node", "id": 11047439463, "lat": 41.61979, "lon": -90.78243, "tags": {"amenity": "charging_station", "fee": "yes", "access": "yes", "opening_hours": "24/7", "brand": "Tesla Supercharger", "network": "Supercharger", "operator": "Tesla", "name": "Walcott Supercharger", "addr:street": "West Iowa 80 Road", "addr:housenumber": "755", "addr:postcode": "52773", "addr:city": "Walcott", "addr:country": "US", "capacity": "8", "_source": "worldwide"}}, {"type": "node", "id": 12944744328, "lat": 41.59196, "lon": -90.46275, "tags": {"amenity": "charging_station", "fee": "yes", "access": "yes", "opening_hours": "24/7", "brand": "Tesla Supercharger", "network": "Supercharger", "operator": "Tesla, Inc.", "name": "Bettendorf Supercharger", "addr:street": "Competition Drive", "addr:housenumber": "4850", "addr:postcode": "52722", "addr:city": "Bettendorf", "addr:country": "US", "capacity": "12", "_source": "worldwide"}}, {"type": "node", "id": 12996485419, "lat": 41.861428, "lon": -90.165509, "tags": {"amenity": "charging_station", "brand": "Red E", "operator": "Red E", "name": "Red E", "_source": "worldwide"}}, {"type": "node", "id": 13667902301, "lat": 41.488958, "lon": -90.475184, "tags": {"amenity": "charging_station", "fee": "yes", "access": "yes", "opening_hours": "24/7", "brand": "Tesla Supercharger", "network": "Supercharger", "operator": "Tesla", "name": "Moline Supercharger", "_source": "worldwide"}}]}