{"id": "41--1", "latMin": 41, "lonMin": -1, "latMax": 42, "lonMax": 0, "generated": "2026-04-16T18:39:07.834Z", "count": 19, "pois": [{"type": "node", "id": 5624302944, "lat": 41.626011, "lon": -1.009502, "tags": {"amenity": "charging_station", "access": "yes", "fee": "yes", "brand": "Tesla Supercharger", "opening_hours": "24/7", "operator": "Tesla", "name": "Zaragoza Supercharger", "addr:street": "Km 309 A-2", "addr:postcode": "50012", "addr:city": "Zaragoza", "socket:type2_combo": "20", "socket:type2_combo:output": "250.0 kW", "charging_station:output": "250.0 kW", "capacity": "20", "_source": "worldwide"}}, {"type": "node", "id": 7887924879, "lat": 41.516056, "lon": -1.289509, "tags": {"amenity": "charging_station", "operator": "Cargacoches", "name": "Ladestation Cargacoches", "addr:country": "ES", "socket:type2_combo": "2", "socket:type2_combo:output": "22.0 kW", "charging_station:output": "22.0 kW", "_source": "worldwide"}}, {"type": "node", "id": 12791828390, "lat": 41.516632, "lon": -1.288218, "tags": {"amenity": "charging_station", "operator": "Repsol", "name": "Ladestation Repsol", "addr:country": "ES", "capacity": "1", "_source": "worldwide"}}, {"type": "node", "id": 10289647136, "lat": 41.3251, "lon": -1.667568, "tags": {"amenity": "charging_station", "operator": "Endesa", "name": "Endesa", "addr:country": "ES", "capacity": "2", "_source": "worldwide"}}, {"type": "node", "id": 10289654932, "lat": 41.325066, "lon": -1.667568, "tags": {"amenity": "charging_station", "operator": "Endesa", "name": "Endesa", "addr:country": "ES", "capacity": "2", "_source": "worldwide"}}, {"type": "node", "id": 11124977092, "lat": 41.540069, "lon": -1.23725, "tags": {"amenity": "charging_station", "brand": "Wenea", "operator": "Wenea", "name": "Wenea - Wenea", "addr:country": "ES", "capacity": "4", "_source": "worldwide"}}, {"type": "node", "id": 11917566439, "lat": 41.538923, "lon": -1.241341, "tags": {"amenity": "charging_station", "fee": "yes", "brand": "Zunder", "network": "Zunder", "opening_hours": "24/7", "operator": "Zunder", "name": "Zunder", "addr:country": "ES", "socket:type2_combo": "12", "socket:type2_combo:output": "250.0 kW", "socket:chademo": "12", "socket:chademo:output": "50 kW", "charging_station:output": "250.0 kW", "capacity": "12", "_source": "worldwide"}}, {"type": "node", "id": 11917566440, "lat": 41.307027, "lon": -1.964402, "tags": {"amenity": "charging_station", "brand": "Zunder", "operator": "Zunder", "name": "Zunder - Zunder", "addr:country": "ES", "_source": "worldwide"}}, {"type": "node", "id": 11920709275, "lat": 41.81926, "lon": -1.609429, "tags": {"amenity": "charging_station", "brand": "Acciona", "operator": "Acciona", "name": "Acciona - Acciona", "addr:country": "ES", "_source": "worldwide"}}, {"type": "node", "id": 11920709276, "lat": 41.831756, "lon": -1.523325, "tags": {"amenity": "charging_station", "brand": "Wenea", "operator": "Wenea", "name": "Wenea - Wenea", "addr:country": "ES", "_source": "worldwide"}}, {"type": "node", "id": 11920709277, "lat": 41.836163, "lon": -1.176859, "tags": {"amenity": "charging_station", "access": "yes", "brand": "Acciona", "operator": "Acciona Recarga", "name": "Acciona Recarga - Acciona", "addr:country": "ES", "capacity": "2", "_source": "worldwide"}}, {"type": "node", "id": 12124662059, "lat": 41.316278, "lon": -1.642984, "tags": {"amenity": "charging_station", "brand": "Acciona", "operator": "Acciona", "name": "Acciona - Acciona", "addr:country": "ES", "_source": "worldwide"}}, {"type": "node", "id": 12366302554, "lat": 41.193854, "lon": -1.781195, "tags": {"amenity": "charging_station", "fee": "yes", "operator": "Endesa", "name": "Monasterio de Piedra", "addr:country": "ES", "socket:type2": "2", "socket:type2:output": "22.0 kW", "charging_station:output": "22.0 kW", "_source": "worldwide"}}, {"type": "node", "id": 12465366033, "lat": 41.993089, "lon": -1.67607, "tags": {"amenity": "charging_station", "brand": "Repsol", "operator": "Repsol", "name": "Repsol - Repsol", "addr:country": "ES", "_source": "worldwide"}}, {"type": "node", "id": 12465366034, "lat": 41.993816, "lon": -1.686819, "tags": {"amenity": "charging_station", "addr:country": "ES", "_source": "worldwide"}}, {"type": "node", "id": 13032082620, "lat": 41.63988, "lon": -1.007822, "tags": {"amenity": "charging_station", "access": "yes", "fee": "yes", "brand": "Milence", "name": "Milence Charging Hub Zaragoza", "addr:country": "ES", "socket:type2_combo": "4", "socket:type2_combo:output": "400.0 kW", "charging_station:output": "400.0 kW", "capacity": "4", "_source": "worldwide"}}, {"type": "node", "id": 13376723804, "lat": 41.552943, "lon": -1.210729, "tags": {"amenity": "charging_station", "fee": "yes", "addr:country": "ES", "_source": "worldwide"}}, {"type": "node", "id": 13376723805, "lat": 41.553341, "lon": -1.210132, "tags": {"amenity": "charging_station", "fee": "yes", "addr:country": "ES", "_source": "worldwide"}}, {"type": "node", "id": 1443219750, "lat": 41.76155, "lon": -1.473787, "tags": {"amenity": "charging_station", "fee": "yes", "addr:country": "ES", "_source": "worldwide"}}]}