{"id": "47-2", "latMin": 47, "lonMin": 2, "latMax": 48, "lonMax": 3, "generated": "2026-04-16T18:39:08.152Z", "count": 97, "pois": [{"type": "node", "id": 1026398721, "lat": 47.874285, "lon": 2.046426, "tags": {"amenity": "charging_station", "access": "yes", "fee": "yes", "network": "SDE22", "opening_hours": "24/7", "operator": "Izivia", "name": "Izivia - SDE22", "addr:country": "FR", "socket:type2": "2", "socket:type2:output": "22 kW", "charging_station:output": "22 kW", "capacity": "2", "_source": "worldwide"}}, {"type": "node", "id": 1084477621, "lat": 47.245903, "lon": 2.069601, "tags": {"amenity": "charging_station", "access": "yes", "fee": "yes", "brand": "Tesla Supercharger", "opening_hours": "24/7", "operator": "Tesla", "name": "Vierzon Supercharger", "addr:street": "Parc Technologique de Sologne - Le Batonnet", "addr:postcode": "18100", "addr:city": "Vierzon", "addr:country": "FR", "socket:type2_combo": "48", "socket:type2_combo:output": "250.0 kW", "charging_station:output": "250.0 kW", "capacity": "48", "_source": "worldwide"}}, {"type": "node", "id": 4318514927, "lat": 47.245477, "lon": 2.068105, "tags": {"amenity": "charging_station", "fee": "yes", "network": "Ecar18", "opening_hours": "24/7", "operator": "InEnergies", "name": "Parc d'Activités de Vierzon", "addr:country": "FR", "socket:type2": "1", "socket:type2:output": "22 kW", "charging_station:output": "22 kW", "capacity": "1", "_source": "worldwide"}}, {"type": "node", "id": 1200858045, "lat": 47.065908, "lon": 2.370347, "tags": {"amenity": "charging_station", "brand": "i-charging", "name": "Ladestation i-charging", "addr:country": "FR", "capacity": "4", "_source": "worldwide"}}, {"type": "node", "id": 1215113154, "lat": 47.490248, "lon": 2.43828, "tags": {"amenity": "charging_station", "access": "yes", "addr:country": "FR", "capacity": "2", "_source": "worldwide"}}, {"type": "node", "id": 1220268455, "lat": 47.489286, "lon": 2.44158, "tags": {"amenity": "charging_station", "access": "yes", "addr:country": "FR", "capacity": "2", "_source": "worldwide"}}, {"type": "node", "id": 1234729880, "lat": 47.118605, "lon": 2.37744, "tags": {"amenity": "charging_station", "addr:country": "FR", "capacity": "6", "_source": "worldwide"}}, {"type": "node", "id": 1234729881, "lat": 47.117665, "lon": 2.376129, "tags": {"amenity": "charging_station", "addr:country": "FR", "capacity": "6", "_source": "worldwide"}}, {"type": "node", "id": 1328608740, "lat": 47.048047, "lon": 2.346234, "tags": {"amenity": "charging_station", "fee": "yes", "brand": "Powerdot", "operator": "Powerdot", "name": "Powerdot", "addr:country": "FR", "capacity": "6", "_source": "worldwide"}}, {"type": "node", "id": 1435857939, "lat": 47.046861, "lon": 2.346594, "tags": {"amenity": "charging_station", "access": "yes", "fee": "yes", "brand": "Tesla Supercharger", "opening_hours": "24/7", "operator": "Tesla", "name": "Supercharger Bourges Le Vallon", "addr:country": "FR", "socket:type2_combo": "20", "socket:type2_combo:output": "250.0 kW", "charging_station:output": "250.0 kW", "capacity": "20", "_source": "worldwide"}}, {"type": "node", "id": 9810563670, "lat": 47.048801, "lon": 2.345499, "tags": {"amenity": "charging_station", "access": "customers", "operator": "Hôtel Ibis Styles Bourges", "name": "Ladestation Hôtel Ibis Styles Bourges", "addr:country": "FR", "socket:type2": "4", "socket:type2:output": "22 kW", "charging_station:output": "22 kW", "capacity": "4", "_source": "worldwide"}}, {"type": "node", "id": 11209934638, "lat": 47.046637, "lon": 2.342086, "tags": {"amenity": "charging_station", "access": "customers", "fee": "yes", "addr:country": "FR", "capacity": "4", "_source": "worldwide"}}, {"type": "node", "id": 1336888325, "lat": 47.678467, "lon": 2.147532, "tags": {"amenity": "charging_station", "fee": "yes", "network": "Freshmile France", "opening_hours": "24/7", "operator": "Freshmile | FR*FR1", "name": "Freshmile | FR*FR1 - Freshmile France", "addr:country": "FR", "socket:type2": "2", "socket:type2:output": "22 kW", "charging_station:output": "22 kW", "capacity": "2", "authentication:none": "yes", "_source": "worldwide"}}, {"type": "node", "id": 1389171947, "lat": 47.045553, "lon": 2.98749, "tags": {"amenity": "charging_station", "addr:country": "FR", "_source": "worldwide"}}, {"type": "node", "id": 1389310402, "lat": 47.586244, "lon": 2.024639, "tags": {"amenity": "charging_station", "access": "yes", "addr:country": "FR", "capacity": "6", "_source": "worldwide"}}, {"type": "node", "id": 1414453327, "lat": 47.567859, "lon": 2.252788, "tags": {"amenity": "charging_station", "addr:country": "FR", "capacity": "2", "_source": "worldwide"}}, {"type": "node", "id": 1443798137, "lat": 47.22609, "lon": 2.060061, "tags": {"amenity": "charging_station", "fee": "yes", "network": "Ecar18", "opening_hours": "24/7", "operator": "Modulo", "name": "Modulo - Ecar18", "addr:country": "FR", "socket:type2": "1", "socket:type2:output": "22 kW", "charging_station:output": "22 kW", "capacity": "2", "authentication:none": "", "_source": "worldwide"}}, {"type": "node", "id": 1974242706, "lat": 47.669672, "lon": 2.809738, "tags": {"amenity": "charging_station", "addr:country": "FR", "_source": "worldwide"}}, {"type": "node", "id": 1974242720, "lat": 47.669905, "lon": 2.810145, "tags": {"amenity": "charging_station", "addr:country": "FR", "_source": "worldwide"}}, {"type": "node", "id": 3709750442, "lat": 47.708011, "lon": 2.636283, "tags": {"amenity": "charging_station", "fee": "no", "operator": "SIPLEC", "name": "E. Leclerc Gien", "addr:country": "FR", "_source": "worldwide"}}, {"type": "node", "id": 4318466312, "lat": 47.16267, "lon": 2.050021, "tags": {"amenity": "charging_station", "fee": "yes", "network": "Ecar18", "opening_hours": "24/7", "operator": "InEnergies", "name": "Méreau", "addr:country": "FR", "socket:type2": "1", "socket:type2:output": "22 kW", "charging_station:output": "22 kW", "capacity": "1", "_source": "worldwide"}}, {"type": "node", "id": 4318468268, "lat": 47.314856, "lon": 2.254888, "tags": {"amenity": "charging_station", "fee": "yes", "network": "Ecar18", "opening_hours": "24/7", "operator": "InEnergies", "name": "Neuvy-sur-Barangeon", "addr:country": "FR", "socket:type2": "1", "socket:type2:output": "22 kW", "charging_station:output": "22 kW", "capacity": "1", "_source": "worldwide"}}, {"type": "node", "id": 4318477286, "lat": 47.350428, "lon": 2.195719, "tags": {"amenity": "charging_station", "fee": "yes", "network": "Ecar18", "opening_hours": "24/7", "operator": "InEnergies", "name": "Nançay", "addr:country": "FR", "socket:type2": "1", "socket:type2:output": "22 kW", "charging_station:output": "22 kW", "_source": "worldwide"}}, {"type": "node", "id": 4318498014, "lat": 47.473627, "lon": 2.875013, "tags": {"amenity": "charging_station", "fee": "yes", "network": "Ecar18", "opening_hours": "24/7", "operator": "InEnergies", "name": "Lere", "addr:country": "FR", "socket:type2": "1", "socket:type2:output": "22 kW", "charging_station:output": "22 kW", "capacity": "1", "_source": "worldwide"}}, {"type": "node", "id": 4318504149, "lat": 47.221534, "lon": 2.069125, "tags": {"amenity": "charging_station", "fee": "yes", "network": "Ecar18", "opening_hours": "24/7", "operator": "InEnergies", "name": "Place Fernand Micouraud", "addr:country": "FR", "socket:type2": "1", "socket:type2:output": "22 kW", "charging_station:output": "22 kW", "capacity": "1", "_source": "worldwide"}}, {"type": "node", "id": 4318507865, "lat": 47.222621, "lon": 2.064954, "tags": {"amenity": "charging_station", "fee": "yes", "network": "Ecar18", "opening_hours": "24/7", "operator": "InEnergies", "name": "Parking Gaucherie", "addr:country": "FR", "socket:type2": "1", "socket:type2:output": "22 kW", "charging_station:output": "22 kW", "capacity": "1", "_source": "worldwide"}}, {"type": "node", "id": 4318520624, "lat": 47.23174, "lon": 2.490198, "tags": {"amenity": "charging_station", "fee": "yes", "network": "Ecar18", "opening_hours": "24/7", "operator": "InEnergies", "name": "Menetou-Salon", "addr:country": "FR", "socket:type2": "1", "socket:type2:output": "22 kW", "charging_station:output": "22 kW", "capacity": "1", "_source": "worldwide"}}, {"type": "node", "id": 4318523795, "lat": 47.1449, "lon": 2.42922, "tags": {"amenity": "charging_station", "fee": "yes", "network": "Ecar18", "opening_hours": "24/7", "operator": "InEnergies", "name": "Fussy", "addr:country": "FR", "socket:type2": "1", "socket:type2:output": "22 kW", "charging_station:output": "22 kW", "capacity": "1", "_source": "worldwide"}}, {"type": "node", "id": 4318525768, "lat": 47.225848, "lon": 2.318465, "tags": {"amenity": "charging_station", "fee": "yes", "network": "Ecar18", "opening_hours": "24/7", "operator": "InEnergies", "name": "Allogny", "addr:country": "FR", "socket:type2": "1", "socket:type2:output": "22 kW", "charging_station:output": "22 kW", "capacity": "1", "_source": "worldwide"}}, {"type": "node", "id": 4407140014, "lat": 47.42394, "lon": 2.8732, "tags": {"amenity": "charging_station", "fee": "yes", "network": "Ecar18", "opening_hours": "24/7", "operator": "InEnergies", "name": "Boulleret", "addr:country": "FR", "socket:type2": "1", "socket:type2:output": "22 kW", "charging_station:output": "22 kW", "capacity": "2", "_source": "worldwide"}}, {"type": "node", "id": 4437571086, "lat": 47.035686, "lon": 2.653588, "tags": {"amenity": "charging_station", "fee": "yes", "network": "Ecar18", "opening_hours": "24/7", "operator": "InEnergies", "name": "Avord - Place de la Salle des Fêtes", "addr:country": "FR", "socket:type2": "1", "socket:type2:output": "22 kW", "charging_station:output": "22 kW", "capacity": "1", "_source": "worldwide"}}, {"type": "node", "id": 4437576202, "lat": 47.032215, "lon": 2.651748, "tags": {"amenity": "charging_station", "fee": "yes", "network": "Ecar18", "opening_hours": "24/7", "operator": "InEnergies", "name": "Avord - Parking des Alouettes", "addr:country": "FR", "socket:type2": "1", "socket:type2:output": "22 kW", "charging_station:output": "22 kW", "capacity": "1", "_source": "worldwide"}}, {"type": "node", "id": 4437580518, "lat": 47.082241, "lon": 2.729408, "tags": {"amenity": "charging_station", "fee": "yes", "network": "Ecar18", "opening_hours": "24/7", "operator": "InEnergies", "name": "Baugy", "addr:country": "FR", "socket:type2": "1", "socket:type2:output": "22 kW", "charging_station:output": "22 kW", "capacity": "1", "_source": "worldwide"}}, {"type": "node", "id": 4437593956, "lat": 47.073232, "lon": 2.650198, "tags": {"amenity": "charging_station", "fee": "yes", "network": "Ecar18", "opening_hours": "24/7", "operator": "InEnergies", "name": "Farges-en-Septaine", "addr:country": "FR", "socket:type2": "1", "socket:type2:output": "22 kW", "charging_station:output": "22 kW", "capacity": "1", "_source": "worldwide"}}, {"type": "node", "id": 4552037001, "lat": 47.698993, "lon": 2.94674, "tags": {"amenity": "charging_station", "fee": "no", "opening_hours": "24/7", "operator": "SPIE", "name": "Ladestation SPIE", "addr:country": "FR", "socket:type2": "2", "socket:type2:output": "22 kW", "charging_station:output": "22 kW", "capacity": "2", "_source": "worldwide"}}, {"type": "node", "id": 5401499820, "lat": 47.142056, "lon": 2.237629, "tags": {"amenity": "charging_station", "fee": "no", "operator": "Lidl", "name": "Borne de recharge Lidl Mehun", "addr:country": "FR", "socket:type2": "1", "socket:type2:output": "22 kW", "socket:type2_combo": "1", "socket:type2_combo:output": "50 kW", "socket:chademo": "1", "socket:chademo:output": "50 kW", "charging_station:output": "50 kW", "capacity": "2", "_source": "worldwide"}}, {"type": "node", "id": 5528669402, "lat": 47.745424, "lon": 2.881661, "tags": {"amenity": "charging_station", "fee": "yes", "network": "IRVE SDEY", "opening_hours": "24/7", "operator": "SDEY", "name": "SDEY - IRVE SDEY", "addr:country": "FR", "socket:type2": "2", "socket:type2:output": "22 kW", "charging_station:output": "22 kW", "capacity": "2", "_source": "worldwide"}}, {"type": "node", "id": 10577403473, "lat": 47.094521, "lon": 2.241162, "tags": {"amenity": "charging_station", "access": "yes", "fee": "yes", "brand": "Ionity", "opening_hours": "24/7", "operator": "IONITY", "name": "IONITY Bourges Sainte Thorette", "addr:country": "FR", "socket:type2": "1", "socket:type2:output": "22 kW", "socket:chademo": "1", "socket:chademo:output": "50 kW", "charging_station:output": "50 kW", "capacity": "2", "_source": "worldwide"}}, {"type": "node", "id": 6250505791, "lat": 47.688249, "lon": 2.619007, "tags": {"amenity": "charging_station", "operator": "Auchan", "name": "Auchan", "addr:country": "FR", "_source": "worldwide"}}, {"type": "node", "id": 6580246606, "lat": 47.909077, "lon": 2.135949, "tags": {"amenity": "charging_station", "fee": "yes", "network": "SDE22", "opening_hours": "24/7", "operator": "Izivia", "name": "Izivia - SDE22", "addr:country": "FR", "socket:type2": "2", "socket:type2:output": "22 kW", "charging_station:output": "22 kW", "capacity": "2", "_source": "worldwide"}}, {"type": "node", "id": 7187149093, "lat": 47.859971, "lon": 2.222493, "tags": {"amenity": "charging_station", "fee": "yes", "network": "SDE22", "opening_hours": "24/7", "operator": "Izivia", "name": "Izivia - SDE22", "addr:country": "FR", "socket:type2": "2", "socket:type2:output": "22 kW", "charging_station:output": "22 kW", "capacity": "2", "_source": "worldwide"}}, {"type": "node", "id": 7236445489, "lat": 47.411533, "lon": 2.922805, "tags": {"amenity": "charging_station", "fee": "no", "network": "IRVE SIEEEN", "opening_hours": "24/7", "operator": "SIEEEN", "name": "SIEEEN - IRVE SIEEEN", "addr:country": "FR", "socket:type2": "2", "socket:type2:output": "22 kW", "charging_station:output": "22 kW", "capacity": "2", "_source": "worldwide"}}, {"type": "node", "id": 12282266818, "lat": 47.41406, "lon": 2.931385, "tags": {"amenity": "charging_station", "addr:country": "FR", "capacity": "2", "_source": "worldwide"}}, {"type": "node", "id": 7456756918, "lat": 47.95631, "lon": 2.01551, "tags": {"amenity": "charging_station", "fee": "yes", "network": "Alizé Liberté", "opening_hours": "24/7", "operator": "Bouygues E&S", "name": "Bouygues E&S - Alizé Liberté", "addr:country": "FR", "socket:type2": "2", "socket:type2:output": "22 kW", "charging_station:output": "22 kW", "capacity": "2", "_source": "worldwide"}}, {"type": "node", "id": 7456756919, "lat": 47.892048, "lon": 2.05386, "tags": {"amenity": "charging_station", "fee": "yes", "network": "Alizé Liberté", "opening_hours": "24/7", "operator": "Bouygues E&S", "name": "Bouygues E&S - Alizé Liberté", "addr:country": "FR", "socket:type2": "2", "socket:type2:output": "22 kW", "charging_station:output": "22 kW", "capacity": "2", "_source": "worldwide"}}, {"type": "node", "id": 7872473580, "lat": 47.096092, "lon": 2.431443, "tags": {"amenity": "charging_station", "access": "yes", "fee": "yes", "network": "Ecar18", "opening_hours": "24/7", "operator": "InEnergies", "name": "InEnergies - Ecar18", "addr:country": "FR", "socket:type2": "1", "socket:type2:output": "22 kW", "charging_station:output": "22 kW", "capacity": "2", "_source": "worldwide"}}, {"type": "node", "id": 9047543016, "lat": 47.571436, "lon": 2.8304, "tags": {"amenity": "charging_station", "addr:country": "FR", "_source": "worldwide"}}, {"type": "node", "id": 9190664777, "lat": 47.049369, "lon": 2.344779, "tags": {"amenity": "charging_station", "access": "customers", "fee": "yes", "brand": "Tesla Supercharger", "opening_hours": "24/7", "operator": "Tesla", "name": "Bourges Supercharger", "addr:street": "Rue Joseph Aristide Auxenfans 3", "addr:postcode": "18000", "addr:city": "Bourges", "socket:type2_combo": "10", "socket:type2_combo:output": "150.0 kW", "socket:tesla_supercharger": "10", "socket:tesla_supercharger:output": "150.0 kW", "charging_station:output": "150.0 kW", "capacity": "10", "_source": "worldwide"}}, {"type": "node", "id": 9356112269, "lat": 47.874358, "lon": 2.227023, "tags": {"amenity": "charging_station", "fee": "yes", "network": "SDE22", "opening_hours": "24/7", "operator": "Izivia", "name": "Izivia - SDE22", "addr:country": "FR", "socket:type2": "2", "socket:type2:output": "22 kW", "charging_station:output": "22 kW", "capacity": "2", "_source": "worldwide"}}, {"type": "node", "id": 9356136950, "lat": 47.864718, "lon": 2.221837, "tags": {"amenity": "charging_station", "fee": "yes", "network": "SDE22", "opening_hours": "24/7", "operator": "Izivia", "name": "Izivia - SDE22", "addr:country": "FR", "socket:type2": "2", "socket:type2:output": "22 kW", "charging_station:output": "22 kW", "capacity": "2", "_source": "worldwide"}}, {"type": "node", "id": 9356192267, "lat": 47.120913, "lon": 2.367347, "tags": {"amenity": "charging_station", "addr:country": "FR", "capacity": "10", "_source": "worldwide"}}, {"type": "node", "id": 9489320604, "lat": 47.893775, "lon": 2.021575, "tags": {"amenity": "charging_station", "fee": "yes", "network": "Alizé Liberté", "opening_hours": "24/7", "operator": "Bouygues E&S", "name": "Bouygues E&S - Alizé Liberté", "addr:country": "FR", "socket:type2": "2", "socket:type2:output": "22 kW", "charging_station:output": "22 kW", "capacity": "2", "_source": "worldwide"}}, {"type": "node", "id": 9492463850, "lat": 47.601441, "lon": 2.02299, "tags": {"amenity": "charging_station", "fee": "yes", "network": "Modulo", "opening_hours": "24/7", "operator": "MODULO | FR*S41", "name": "MODULO | FR*S41 - Modulo", "addr:country": "FR", "socket:type2": "2", "socket:type2:output": "22 kW", "charging_station:output": "22 kW", "capacity": "2", "_source": "worldwide"}}, {"type": "node", "id": 9498536143, "lat": 47.852484, "lon": 2.684649, "tags": {"amenity": "charging_station", "access": "yes", "fee": "yes", "brand": "Ionity", "network": "Ionity", "opening_hours": "24/7", "operator": "IONITY", "name": "IONITY Jardin des arbres", "addr:country": "FR", "socket:type2": "1", "socket:type2:output": "22 kW", "socket:type2_combo": "4", "socket:type2_combo:output": "350.0 kW", "socket:chademo": "1", "socket:chademo:output": "50 kW", "charging_station:output": "350.0 kW", "capacity": "5", "_source": "worldwide"}}, {"type": "node", "id": 9522208979, "lat": 47.095463, "lon": 2.242926, "tags": {"amenity": "charging_station", "fee": "yes", "operator": "Vinci Autoroutes", "name": "Ladestation Vinci Autoroutes", "addr:country": "FR", "capacity": "3", "_source": "worldwide"}}, {"type": "node", "id": 13063914757, "lat": 47.095805, "lon": 2.241626, "tags": {"amenity": "charging_station", "access": "yes", "fee": "yes", "brand": "Zunder", "operator": "Zunder", "name": "Zunder - Zunder", "addr:country": "FR", "capacity": "31", "_source": "worldwide"}}, {"type": "node", "id": 9526887107, "lat": 47.533719, "lon": 2.033275, "tags": {"amenity": "charging_station", "fee": "yes", "network": "Modulo", "opening_hours": "24/7", "operator": "MODULO | FR*S41", "name": "MODULO | FR*S41 - Modulo", "addr:country": "FR", "socket:type2": "2", "socket:type2:output": "22 kW", "charging_station:output": "22 kW", "capacity": "2", "_source": "worldwide"}}, {"type": "node", "id": 9526890240, "lat": 47.514684, "lon": 2.150983, "tags": {"amenity": "charging_station", "fee": "yes", "network": "Modulo", "opening_hours": "24/7", "operator": "MODULO | FR*S41", "name": "MODULO | FR*S41 - Modulo", "addr:country": "FR", "socket:type2": "2", "socket:type2:output": "22 kW", "charging_station:output": "22 kW", "capacity": "2", "_source": "worldwide"}}, {"type": "node", "id": 9527929041, "lat": 47.416364, "lon": 2.044044, "tags": {"amenity": "charging_station", "fee": "yes", "network": "Modulo", "opening_hours": "24/7", "operator": "MODULO | FR*S41", "name": "MODULO | FR*S41 - Modulo", "addr:country": "FR", "socket:type2": "2", "socket:type2:output": "22 kW", "charging_station:output": "22 kW", "capacity": "2", "_source": "worldwide"}}, {"type": "node", "id": 9528012432, "lat": 47.313261, "lon": 2.03554, "tags": {"amenity": "charging_station", "fee": "yes", "network": "Modulo", "opening_hours": "24/7", "operator": "MODULO | FR*S41", "name": "MODULO | FR*S41 - Modulo", "addr:country": "FR", "socket:type2": "2", "socket:type2:output": "22 kW", "charging_station:output": "22 kW", "capacity": "2", "_source": "worldwide"}}, {"type": "node", "id": 9528026089, "lat": 47.428385, "lon": 2.058215, "tags": {"amenity": "charging_station", "fee": "yes", "network": "Modulo", "opening_hours": "24/7", "operator": "MODULO | FR*S41", "name": "MODULO | FR*S41 - Modulo", "addr:country": "FR", "socket:type2": "2", "socket:type2:output": "22 kW", "charging_station:output": "22 kW", "capacity": "2", "_source": "worldwide"}}, {"type": "node", "id": 9528045395, "lat": 47.425498, "lon": 2.050483, "tags": {"amenity": "charging_station", "fee": "yes", "network": "Modulo", "opening_hours": "24/7", "operator": "MODULO | FR*S41", "name": "MODULO | FR*S41 - Modulo", "addr:country": "FR", "socket:type2": "2", "socket:type2:output": "22 kW", "charging_station:output": "22 kW", "capacity": "2", "_source": "worldwide"}}, {"type": "node", "id": 9653346108, "lat": 47.124214, "lon": 2.402837, "tags": {"amenity": "charging_station", "addr:country": "FR", "capacity": "2", "_source": "worldwide"}}, {"type": "node", "id": 9781208587, "lat": 47.331486, "lon": 2.836467, "tags": {"amenity": "charging_station", "addr:country": "FR", "_source": "worldwide"}}, {"type": "node", "id": 9796746891, "lat": 47.544611, "lon": 2.191684, "tags": {"amenity": "charging_station", "access": "customers", "operator": "TotalEnergies", "name": "TotalEnergies - Total", "addr:country": "FR", "socket:type2": "2", "socket:type2:output": "22.0 kW", "charging_station:output": "22.0 kW", "capacity": "2", "_source": "worldwide"}}, {"type": "node", "id": 9802154263, "lat": 47.543772, "lon": 2.192644, "tags": {"amenity": "charging_station", "access": "customers", "addr:country": "FR", "socket:type2": "2", "socket:type2:output": "22 kW", "charging_station:output": "22 kW", "capacity": "2", "_source": "worldwide"}}, {"type": "node", "id": 9802154136, "lat": 47.545521, "lon": 2.18531, "tags": {"amenity": "charging_station", "access": "customers", "addr:country": "FR", "socket:type2": "2", "socket:type2:output": "22 kW", "charging_station:output": "22 kW", "capacity": "2", "_source": "worldwide"}}, {"type": "node", "id": 9979295178, "lat": 47.340359, "lon": 2.85274, "tags": {"amenity": "charging_station", "addr:country": "FR", "_source": "worldwide"}}, {"type": "node", "id": 10020516475, "lat": 47.990818, "lon": 2.709249, "tags": {"amenity": "charging_station", "addr:country": "FR", "_source": "worldwide"}}, {"type": "node", "id": 10072398688, "lat": 47.409727, "lon": 2.926, "tags": {"amenity": "charging_station", "access": "yes", "fee": "no", "network": "IRVE SIEEEN", "opening_hours": "24/7", "operator": "SIEEN", "name": "SIEEN - IRVE SIEEEN", "addr:country": "FR", "socket:type2": "2", "socket:type2:output": "22 kW", "charging_station:output": "22 kW", "capacity": "2", "_source": "worldwide"}}, {"type": "node", "id": 11209934637, "lat": 47.06505, "lon": 2.369243, "tags": {"amenity": "charging_station", "fee": "yes", "operator": "etotem", "name": "Ladestation etotem", "addr:country": "FR", "capacity": "5", "_source": "worldwide"}}, {"type": "node", "id": 13061419602, "lat": 47.060639, "lon": 2.364028, "tags": {"amenity": "charging_station", "access": "yes", "fee": "no", "addr:country": "FR", "_source": "worldwide"}}, {"type": "node", "id": 11578601749, "lat": 47.90551, "lon": 2.031025, "tags": {"amenity": "charging_station", "operator": "Burger King", "name": "Ladestation Burger King", "addr:country": "FR", "capacity": "2", "_source": "worldwide"}}, {"type": "node", "id": 11580004693, "lat": 47.905346, "lon": 2.03348, "tags": {"amenity": "charging_station", "operator": "Easy Charge Services", "name": "Ladestation Easy Charge Services", "addr:country": "FR", "capacity": "3", "_source": "worldwide"}}, {"type": "node", "id": 11780464131, "lat": 47.698969, "lon": 2.020871, "tags": {"amenity": "charging_station", "access": "yes", "fee": "yes", "addr:country": "FR", "_source": "worldwide"}}, {"type": "node", "id": 11831818899, "lat": 47.962282, "lon": 2.625983, "tags": {"amenity": "charging_station", "addr:country": "FR", "_source": "worldwide"}}, {"type": "node", "id": 11926034659, "lat": 47.094112, "lon": 2.395357, "tags": {"amenity": "charging_station", "addr:country": "FR", "capacity": "5", "_source": "worldwide"}}, {"type": "node", "id": 12079815500, "lat": 47.303777, "lon": 2.545275, "tags": {"amenity": "charging_station", "fee": "yes", "opening_hours": "24/7", "operator": "IECharge", "name": "Borne de charge rapide IECharge", "addr:country": "FR", "socket:type2_combo": "4", "socket:type2_combo:output": "50 kW", "charging_station:output": "50 kW", "capacity": "4", "authentication:none": "yes", "_source": "worldwide"}}, {"type": "node", "id": 12707155514, "lat": 47.762561, "lon": 2.505828, "tags": {"amenity": "charging_station", "fee": "yes", "opening_hours": "24/7", "operator": "IECharge", "name": "Borne de charge rapide IECharge", "addr:country": "FR", "socket:type2_combo": "4", "socket:type2_combo:output": "50 kW", "charging_station:output": "50 kW", "capacity": "4", "_source": "worldwide"}}, {"type": "node", "id": 12707155534, "lat": 47.782967, "lon": 2.304205, "tags": {"amenity": "charging_station", "fee": "yes", "opening_hours": "24/7", "operator": "IECharge", "name": "Borne de charge rapide IECharge", "addr:country": "FR", "socket:type2_combo": "4", "socket:type2_combo:output": "50 kW", "charging_station:output": "50 kW", "capacity": "4", "_source": "worldwide"}}, {"type": "node", "id": 12707770998, "lat": 47.97212, "lon": 2.71795, "tags": {"amenity": "charging_station", "opening_hours": "24/7", "addr:country": "FR", "capacity": "4", "_source": "worldwide"}}, {"type": "node", "id": 12804452187, "lat": 47.968755, "lon": 2.796254, "tags": {"amenity": "charging_station", "fee": "yes", "opening_hours": "24/7", "operator": "IECharge", "name": "Borne de charge rapide IECharge", "addr:country": "FR", "socket:type2_combo": "4", "socket:type2_combo:output": "50 kW", "charging_station:output": "50 kW", "capacity": "4", "_source": "worldwide"}}, {"type": "node", "id": 12841548122, "lat": 47.996053, "lon": 2.673542, "tags": {"amenity": "charging_station", "access": "yes", "fee": "yes", "brand": "Tesla Supercharger", "network": "Tesla Supercharger", "opening_hours": "24/7", "operator": "Tesla", "name": "Superchargeur Pannes Montargis", "addr:country": "FR", "socket:type2_combo": "9", "socket:type2_combo:output": "250.0 kW", "charging_station:output": "250.0 kW", "capacity": "9", "_source": "worldwide"}}, {"type": "node", "id": 13009125086, "lat": 47.094434, "lon": 2.422141, "tags": {"amenity": "charging_station", "fee": "yes", "brand": "Powerdot", "operator": "Powerdot", "name": "Powerdot - KFC - Bourges", "addr:country": "FR", "socket:type2": "1", "socket:type2:output": "22 kW", "socket:type2_combo": "3", "socket:type2_combo:output": "50 kW", "socket:chademo": "1", "socket:chademo:output": "50 kW", "charging_station:output": "50 kW", "capacity": "4", "_source": "worldwide"}}, {"type": "node", "id": 13041846512, "lat": 47.340384, "lon": 2.866528, "tags": {"amenity": "charging_station", "access": "yes", "fee": "no", "name": "Recharge vélo Saint-Satur", "addr:country": "FR", "capacity": "2", "_source": "worldwide"}}, {"type": "node", "id": 13045856269, "lat": 47.948653, "lon": 2.542717, "tags": {"amenity": "charging_station", "addr:country": "FR", "capacity": "2", "_source": "worldwide"}}, {"type": "node", "id": 13047997598, "lat": 47.937908, "lon": 2.268769, "tags": {"amenity": "charging_station", "fee": "no", "addr:country": "FR", "capacity": "2", "_source": "worldwide"}}, {"type": "node", "id": 13048165269, "lat": 47.935251, "lon": 2.146831, "tags": {"amenity": "charging_station", "addr:country": "FR", "capacity": "2", "_source": "worldwide"}}, {"type": "node", "id": 13061461734, "lat": 47.953903, "lon": 2.562028, "tags": {"amenity": "charging_station", "addr:country": "FR", "_source": "worldwide"}}, {"type": "node", "id": 13084384652, "lat": 47.706172, "lon": 2.640849, "tags": {"amenity": "charging_station", "name": "R3", "addr:country": "FR", "_source": "worldwide"}}, {"type": "node", "id": 13239465368, "lat": 47.964033, "lon": 2.340818, "tags": {"amenity": "charging_station", "fee": "no", "addr:country": "FR", "capacity": "2", "_source": "worldwide"}}, {"type": "node", "id": 13438125974, "lat": 47.096333, "lon": 2.440414, "tags": {"amenity": "charging_station", "addr:country": "FR", "_source": "worldwide"}}, {"type": "node", "id": 13439465623, "lat": 47.091384, "lon": 2.420676, "tags": {"amenity": "charging_station", "addr:country": "FR", "_source": "worldwide"}}, {"type": "node", "id": 13446554676, "lat": 47.003419, "lon": 2.266849, "tags": {"amenity": "charging_station", "addr:country": "FR", "_source": "worldwide"}}, {"type": "node", "id": 13605619772, "lat": 47.240169, "lon": 2.091944, "tags": {"amenity": "charging_station", "fee": "yes", "operator": "Lidl", "name": "Ladestation Lidl", "addr:country": "FR", "capacity": "2", "_source": "worldwide"}}, {"type": "node", "id": 13605619773, "lat": 47.240889, "lon": 2.092172, "tags": {"amenity": "charging_station", "fee": "yes", "operator": "Lidl", "name": "Ladestation Lidl", "addr:country": "FR", "capacity": "2", "_source": "worldwide"}}, {"type": "node", "id": 13634322809, "lat": 47.44792, "lon": 2.30792, "tags": {"amenity": "charging_station", "addr:country": "FR", "_source": "worldwide"}}]}