{"id": "33-44", "latMin": 33, "lonMin": 44, "latMax": 34, "lonMax": 45, "generated": "2026-04-16T18:39:07.291Z", "count": 6, "pois": [{"type": "node", "id": 5001489621, "lat": 33.559692, "lon": 44.25006, "tags": {"amenity": "charging_station", "name": "مستودع الهندسه العسكريه", "_source": "worldwide"}}, {"type": "node", "id": 7187961785, "lat": 33.393324, "lon": 44.673153, "tags": {"amenity": "charging_station", "operator": "محطة شرق الرصافة الكهربائية", "name": "محطة شرق الرصافة الكهربائية", "_source": "worldwide"}}, {"type": "node", "id": 7902697185, "lat": 33.355138, "lon": 44.277493, "tags": {"amenity": "charging_station", "operator": "محطة تفويل غاز للسيارة", "name": "محطة تفويل غاز للسيارة", "_source": "worldwide"}}, {"type": "node", "id": 9388097620, "lat": 33.380731, "lon": 44.836636, "tags": {"amenity": "charging_station", "name": "EV Charging Station", "_source": "worldwide"}}, {"type": "node", "id": 11291159469, "lat": 33.319334, "lon": 44.446129, "tags": {"amenity": "charging_station", "name": "EV Charging Station", "_source": "worldwide"}}, {"type": "node", "id": 12759462936, "lat": 33.265203, "lon": 44.362258, "tags": {"amenity": "charging_station", "brand": "BMW", "operator": "BMW", "name": "BMW", "_source": "worldwide"}}]}