{"id": "37-38", "latMin": 37, "lonMin": 38, "latMax": 38, "lonMax": 39, "generated": "2026-04-16T18:39:07.626Z", "count": 6, "pois": [{"type": "node", "id": 7077989422, "lat": 37.742814, "lon": 38.245649, "tags": {"amenity": "charging_station", "fee": "yes", "opening_hours": "24/7", "operator": "SHARZ", "name": "SHARZ Bera Akaryakıt", "addr:street": "Sümerevler Mahallesi, 17165. Sk. No:13, 02030 Adıyaman Merkez/Ad", "addr:city": "ADIYAMAN MERKEZ", "socket:type2": "1", "socket:type2:output": "22 kW", "charging_station:output": "22 kW", "_source": "worldwide"}}, {"type": "node", "id": 11261044838, "lat": 37.279454, "lon": 38.793553, "tags": {"amenity": "charging_station", "operator": "Astor Enerji", "name": "Astorşarj", "_source": "worldwide"}}, {"type": "node", "id": 11261104237, "lat": 37.395033, "lon": 38.863939, "tags": {"amenity": "charging_station", "operator": "Astor Enerji", "name": "Astorşarj", "_source": "worldwide"}}, {"type": "node", "id": 11262067737, "lat": 37.182299, "lon": 38.80753, "tags": {"amenity": "charging_station", "operator": "Astor Enerji", "name": "Astorşarj", "_source": "worldwide"}}, {"type": "node", "id": 13017708701, "lat": 37.273087, "lon": 38.795924, "tags": {"amenity": "charging_station", "opening_hours": "24/7", "name": "Solargize", "_source": "worldwide"}}, {"type": "node", "id": 13127031401, "lat": 37.100948, "lon": 38.187575, "tags": {"amenity": "charging_station", "name": "Astor", "_source": "worldwide"}}]}