{"id": "47-6", "latMin": 47, "lonMin": 6, "latMax": 48, "lonMax": 7, "generated": "2026-04-16T18:39:08.155Z", "count": 9, "pois": [{"type": "node", "id": 1064688940, "lat": 47.683357, "lon": 6.813951, "tags": {"amenity": "charging_station", "access": "yes", "fee": "yes", "network": "TE90", "opening_hours": "24/7", "operator": "Territoire d'Énergie 90", "name": "Territoire d'Énergie 90 - TE90", "addr:country": "DE", "socket:type2": "4", "socket:type2:output": "22 kW", "charging_station:output": "22 kW", "capacity": "4", "authentication:none": "yes", "_source": "worldwide"}}, {"type": "node", "id": 1334354610, "lat": 47.10787, "lon": 6.127183, "tags": {"amenity": "charging_station", "addr:country": "DE", "_source": "worldwide"}}, {"type": "node", "id": 1334459720, "lat": 47.247515, "lon": 6.786907, "tags": {"amenity": "charging_station", "fee": "yes", "opening_hours": "24/7", "operator": "IECharge", "name": "Station de charge rapide IECharge", "addr:country": "DE", "socket:type2_combo": "4", "socket:type2_combo:output": "160.0 kW", "charging_station:output": "160.0 kW", "capacity": "4", "_source": "worldwide"}}, {"type": "node", "id": 1386293937, "lat": 47.01196, "lon": 6.996455, "tags": {"amenity": "charging_station", "access": "yes", "fee": "yes", "brand": "Tesla Supercharger", "opening_hours": "24/7", "operator": "Tesla", "name": "Neuchâtel Supercharger", "addr:street": "Av. des Champs-Montants 2", "addr:postcode": "2074", "addr:city": "Neuchâtel", "addr:country": "CH", "socket:type2_combo": "16", "socket:type2_combo:output": "250.0 kW", "socket:tesla_supercharger": "16", "socket:tesla_supercharger:output": "250.0 kW", "charging_station:output": "250.0 kW", "capacity": "16", "_source": "worldwide"}}, {"type": "node", "id": 1389392149, "lat": 47.500521, "lon": 6.812293, "tags": {"amenity": "charging_station", "access": "yes", "fee": "yes", "brand": "Tesla Supercharger", "opening_hours": "24/7", "operator": "Tesla", "name": "Montbéliard Supercharger", "addr:country": "DE", "socket:type2": "1", "socket:type2:output": "7.4 kW", "socket:type2_combo": "28", "socket:type2_combo:output": "250.0 kW", "charging_station:output": "250.0 kW", "capacity": "28", "_source": "worldwide"}}, {"type": "node", "id": 1390133881, "lat": 47.084089, "lon": 6.796258, "tags": {"amenity": "charging_station", "access": "yes", "fee": "yes", "network": "Swisscharge", "opening_hours": "24/7", "operator": "GOFAST", "name": "GOFAST La Chaux-de-Fonds", "addr:country": "DE", "socket:type2": "1", "socket:type2:output": "22.0 kW", "socket:type2_combo": "1", "socket:type2_combo:output": "150.0 kW", "socket:chademo": "1", "socket:chademo:output": "60.0 kW", "charging_station:output": "150.0 kW", "capacity": "2", "authentication:none": "", "_source": "worldwide"}}, {"type": "node", "id": 1411250669, "lat": 47.631455, "lon": 6.140269, "tags": {"amenity": "charging_station", "access": "yes", "fee": "yes", "brand": "Tesla Supercharger", "network": "Atlante - Vesoul - Cinéma Majestic", "opening_hours": "24/7", "operator": "Tesla", "name": "Superchargeur Vesoul", "addr:country": "DE", "socket:type2_combo": "8", "socket:type2_combo:output": "250.0 kW", "charging_station:output": "250.0 kW", "capacity": "8", "wheelchair": "yes", "authentication:none": "yes", "_source": "worldwide"}}, {"type": "node", "id": 1415710160, "lat": 47.047585, "lon": 6.287157, "tags": {"amenity": "charging_station", "addr:country": "DE", "capacity": "2", "_source": "worldwide"}}, {"type": "node", "id": 1482679255, "lat": 47.885205, "lon": 6.767776, "tags": {"amenity": "charging_station", "access": "customers", "addr:country": "DE", "capacity": "6", "_source": "worldwide"}}]}