{"id": "54-9", "latMin": 54, "lonMin": 9, "latMax": 55, "lonMax": 10, "generated": "2026-04-16T18:39:08.724Z", "count": 421, "pois": [{"type": "node", "id": 618877795, "lat": 54.069437, "lon": 9.943818, "tags": {"amenity": "charging_station", "operator": "ADAC", "name": "Ladestation ADAC", "addr:street": "Wasbeker Straße 306", "addr:postcode": "24537", "addr:city": "Neumünster", "addr:country": "DE", "_source": "worldwide"}}, {"type": "node", "id": 1801586256, "lat": 54.771393, "lon": 9.103725, "tags": {"amenity": "charging_station", "fee": "no", "opening_hours": "24/7", "operator": "Solar-Energie Andresen", "name": "Solar-Energie Andresen", "addr:country": "DE", "socket:cee_blue": "1", "socket:cee_blue:output": "3.7 kW", "socket:schuko": "1", "socket:schuko:output": "2.3 kW", "charging_station:output": "3.7 kW", "_source": "worldwide"}}, {"type": "node", "id": 2074204485, "lat": 54.785444, "lon": 9.438012, "tags": {"amenity": "charging_station", "operator": "JP Joule Connect", "name": "JP Joule Connect - JP Joule Connect GmbH", "addr:country": "DE", "capacity": "2", "_source": "worldwide"}}, {"type": "node", "id": 2264184131, "lat": 54.840958, "lon": 9.02098, "tags": {"amenity": "charging_station", "fee": "no", "opening_hours": "24/7", "name": "Elektro Obernauer", "addr:country": "DE", "socket:type2": "2", "socket:type2:output": "22 kW", "charging_station:output": "22 kW", "authentication:none": "yes", "_source": "worldwide"}}, {"type": "node", "id": 2269126200, "lat": 54.739278, "lon": 9.048055, "tags": {"amenity": "charging_station", "fee": "yes", "name": "privater Ladepunkt", "addr:country": "DE", "socket:schuko": "1", "socket:schuko:output": "2.3 kW", "charging_station:output": "2.3 kW", "_source": "worldwide"}}, {"type": "node", "id": 2290049069, "lat": 54.486258, "lon": 9.045814, "tags": {"amenity": "charging_station", "fee": "no", "opening_hours": "Mo-Fr 08:00-18:00, Sa 09:00-13:00", "operator": "Raudzus Motorrad", "name": "Raudzus Motorrad GmbH", "addr:country": "DE", "socket:cee_blue": "1", "socket:cee_blue:output": "3.7 kW", "socket:schuko": "4", "socket:schuko:output": "2.3 kW", "charging_station:output": "3.7 kW", "_source": "worldwide"}}, {"type": "node", "id": 2344217234, "lat": 54.483943, "lon": 9.046451, "tags": {"amenity": "charging_station", "fee": "yes", "opening_hours": "24/7", "operator": "Stadtwerke Husum", "name": "Stadtwerke Husum - Stadtwerke Husum GmbH", "addr:country": "DE", "socket:type2": "2", "socket:type2:output": "22 kW", "charging_station:output": "22 kW", "_source": "worldwide"}}, {"type": "node", "id": 2302259075, "lat": 54.063075, "lon": 9.308526, "tags": {"amenity": "charging_station", "fee": "no", "opening_hours": "week 1-17: Th-Su 09:00-11:00,14:00-17:30; week 18-39: Mo-Su 09:00-22:00; week 40-52: Th-Su 09:00-11:00,14:00-17:30", "operator": "Kanal33", "name": "Ladestation Kanal33", "addr:country": "DE", "socket:schuko": "4", "socket:schuko:output": "2.3 kW", "charging_station:output": "2.3 kW", "authentication:none": "yes", "_source": "worldwide"}}, {"type": "node", "id": 2338926731, "lat": 54.495174, "lon": 9.088476, "tags": {"amenity": "charging_station", "fee": "no", "opening_hours": "24/7", "operator": "Messe Husum und Congress", "name": "Messe Husum & Congress (MHC)", "addr:country": "DE", "socket:cee_blue": "1", "socket:cee_blue:output": "3.7 kW", "socket:schuko": "1", "socket:schuko:output": "2.3 kW", "charging_station:output": "3.7 kW", "_source": "worldwide"}}, {"type": "node", "id": 2340202987, "lat": 54.479792, "lon": 9.064604, "tags": {"amenity": "charging_station", "fee": "no", "opening_hours": "Mo-Fr 09:00-12:00,14:00-18:00; Sa 09:00-12:00", "operator": "eE4mobile", "name": "eE4mobile - eE4mobile eG", "addr:country": "DE", "socket:schuko": "2", "socket:schuko:output": "2.3 kW", "charging_station:output": "2.3 kW", "authentication:none": "yes", "_source": "worldwide"}}, {"type": "node", "id": 2341630872, "lat": 54.473157, "lon": 9.059449, "tags": {"amenity": "charging_station", "fee": "no", "opening_hours": "Mo-Su 07:30-18:00", "operator": "Hermann-Tast-Schule", "name": "Stromlaterne", "addr:country": "DE", "socket:schuko": "3", "socket:schuko:output": "2.3 kW", "charging_station:output": "2.3 kW", "authentication:none": "yes", "_source": "worldwide"}}, {"type": "node", "id": 2343007485, "lat": 54.473782, "lon": 9.048607, "tags": {"amenity": "charging_station", "fee": "no", "opening_hours": "24/7", "operator": "Stadtwerke Husum", "name": "Parkhaus am Binnenhafen", "addr:country": "DE", "socket:type2": "1", "socket:type2:output": "22 kW", "socket:schuko": "1", "socket:schuko:output": "2.3 kW", "charging_station:output": "22 kW", "authentication:none": "yes", "_source": "worldwide"}}, {"type": "node", "id": 4135371135, "lat": 54.474662, "lon": 9.049771, "tags": {"amenity": "charging_station", "fee": "yes", "opening_hours": "24/7", "operator": "The New Motion", "name": "Stadtwerke Husum", "addr:country": "DE", "socket:type2": "2", "socket:type2:output": "22 kW", "charging_station:output": "22 kW", "_source": "worldwide"}}, {"type": "node", "id": 9362561880, "lat": 54.473463, "lon": 9.049345, "tags": {"amenity": "charging_station", "fee": "yes", "operator": "Husum Stadtwerke", "name": "Ladestation Husum Stadtwerke", "addr:country": "DE", "capacity": "2", "_source": "worldwide"}}, {"type": "node", "id": 13078267965, "lat": 54.474033, "lon": 9.043084, "tags": {"amenity": "charging_station", "access": "private", "addr:country": "DE", "capacity": "2", "_source": "worldwide"}}, {"type": "node", "id": 2344109136, "lat": 54.479213, "lon": 9.04645, "tags": {"amenity": "charging_station", "fee": "no", "opening_hours": "24/7", "operator": "Theodor-Storm-Hotel", "name": "Theodor-Storm-Hotel", "addr:country": "DE", "socket:type2": "3", "socket:type2:output": "22 kW", "charging_station:output": "22 kW", "capacity": "3", "authentication:none": "yes", "_source": "worldwide"}}, {"type": "node", "id": 5646299777, "lat": 54.476708, "lon": 9.042675, "tags": {"amenity": "charging_station", "fee": "yes", "opening_hours": "24/7", "operator": "Fast E", "name": "Ladestation Fast E", "addr:country": "DE", "socket:type2": "1", "socket:type2:output": "43.0 kW", "socket:type2_combo": "1", "socket:type2_combo:output": "50.0 kW", "socket:chademo": "1", "socket:chademo:output": "50.0 kW", "charging_station:output": "50.0 kW", "capacity": "2", "_source": "worldwide"}}, {"type": "node", "id": 2438565743, "lat": 54.374509, "lon": 9.086269, "tags": {"amenity": "charging_station", "fee": "no", "operator": "ee4mobile", "name": "Stümpel.Pott", "addr:country": "DE", "socket:schuko": "2", "socket:schuko:output": "2.3 kW", "charging_station:output": "2.3 kW", "_source": "worldwide"}}, {"type": "node", "id": 5928564148, "lat": 54.376026, "lon": 9.088593, "tags": {"amenity": "charging_station", "addr:country": "DE", "_source": "worldwide"}}, {"type": "node", "id": 9956723754, "lat": 54.373416, "lon": 9.087134, "tags": {"amenity": "charging_station", "fee": "yes", "opening_hours": "24/7", "addr:country": "DE", "socket:type2": "2", "socket:type2:output": "22.0 kW", "charging_station:output": "22.0 kW", "capacity": "2", "_source": "worldwide"}}, {"type": "node", "id": 2514994143, "lat": 54.413833, "lon": 9.043381, "tags": {"amenity": "charging_station", "fee": "no", "opening_hours": "24/7", "operator": "OIL! Tankstellen", "name": "Rasthof Dingsbülldeich", "addr:country": "DE", "socket:cee_blue": "1", "socket:cee_blue:output": "3.7 kW", "socket:schuko": "1", "socket:schuko:output": "2.3 kW", "charging_station:output": "3.7 kW", "_source": "worldwide"}}, {"type": "node", "id": 2729511929, "lat": 54.666025, "lon": 9.932223, "tags": {"amenity": "charging_station", "addr:country": "DE", "_source": "worldwide"}}, {"type": "node", "id": 2836085015, "lat": 54.741199, "lon": 9.878915, "tags": {"amenity": "charging_station", "fee": "yes", "operator": "Janbeck*s", "name": "Ladestation E-Autos", "addr:country": "DE", "socket:type2": "1", "socket:type2:output": "22 kW", "socket:tesla_supercharger": "1", "socket:tesla_supercharger:output": "150 kW", "charging_station:output": "150 kW", "_source": "worldwide"}}, {"type": "node", "id": 2873438507, "lat": 54.803086, "lon": 9.488454, "tags": {"amenity": "charging_station", "operator": "Emil Frey Küstengarage", "name": "Ladestation Emil Frey Küstengarage", "addr:country": "DE", "capacity": "2", "_source": "worldwide"}}, {"type": "node", "id": 12732782422, "lat": 54.80146, "lon": 9.486097, "tags": {"amenity": "charging_station", "access": "yes", "fee": "yes", "addr:country": "DE", "socket:type2_combo": "4", "socket:type2_combo:output": "175.0 kW", "charging_station:output": "175.0 kW", "capacity": "4", "_source": "worldwide"}}, {"type": "node", "id": 2876736140, "lat": 54.444875, "lon": 9.127811, "tags": {"amenity": "charging_station", "fee": "no", "opening_hours": "Mo-Fr 06:00-18:30;Sa 06:00-14:00;Su 07:00-11:00", "operator": "Gemeinde Rantrum", "name": "Ladestation Gemeinde Rantrum", "addr:country": "DE", "socket:type2": "2", "socket:type2:output": "22 kW", "charging_station:output": "22 kW", "_source": "worldwide"}}, {"type": "node", "id": 2935201381, "lat": 54.49899, "lon": 9.087291, "tags": {"amenity": "charging_station", "fee": "no", "opening_hours": "24/7", "operator": "Köster Elektrotechnik", "name": "Köster Elektrotechnik", "addr:country": "DE", "socket:schuko": "1", "socket:schuko:output": "2.3 kW", "charging_station:output": "2.3 kW", "authentication:none": "yes", "_source": "worldwide"}}, {"type": "node", "id": 2940119901, "lat": 54.49329, "lon": 9.083019, "tags": {"amenity": "charging_station", "fee": "no", "opening_hours": "24/7", "operator": "Emil Frey Küstengarage", "name": "Ladestation Emil Frey Küstengarage", "addr:country": "DE", "socket:type2": "2", "socket:type2:output": "22 kW", "charging_station:output": "22 kW", "_source": "worldwide"}}, {"type": "node", "id": 2952145909, "lat": 54.492713, "lon": 9.082146, "tags": {"amenity": "charging_station", "fee": "no", "opening_hours": "Mo-Fr 07:45-18:00;Sa 09:00-12:00", "operator": "Sven Clausen", "name": "Autohaus Clausen", "addr:country": "DE", "socket:type2": "1", "socket:type2:output": "22 kW", "charging_station:output": "22 kW", "_source": "worldwide"}}, {"type": "node", "id": 10983057908, "lat": 54.492899, "lon": 9.084984, "tags": {"amenity": "charging_station", "fee": "yes", "brand": "Shell Recharge", "opening_hours": "24/7", "operator": "Shell Recharge", "name": "Shell Recharge - Shell Recharge", "addr:country": "DE", "socket:type2_combo": "2", "socket:type2_combo:output": "150.0 kW", "charging_station:output": "150.0 kW", "capacity": "2", "_source": "worldwide"}}, {"type": "node", "id": 3120320906, "lat": 54.508164, "lon": 9.188107, "tags": {"amenity": "charging_station", "fee": "no", "opening_hours": "Mo-Fr 06:00-18:00; Sa 06:00-13:00; Su 07:45-10:30", "operator": "Gemeinde Wester-Ohrstedt", "name": "Ladestation Gemeinde Wester-Ohrstedt", "addr:country": "DE", "socket:type2": "1", "socket:type2:output": "22 kW", "socket:schuko": "1", "socket:schuko:output": "2.3 kW", "charging_station:output": "22 kW", "_source": "worldwide"}}, {"type": "node", "id": 3215593611, "lat": 54.601524, "lon": 9.308826, "tags": {"amenity": "charging_station", "addr:country": "DE", "_source": "worldwide"}}, {"type": "node", "id": 3419128999, "lat": 54.51164, "lon": 9.571184, "tags": {"amenity": "charging_station", "operator": "Stadtwerke Schleswig", "name": "Ladestation Stadtwerke Schleswig", "addr:country": "DE", "socket:type2": "1", "socket:type2:output": "22 kW", "charging_station:output": "22 kW", "_source": "worldwide"}}, {"type": "node", "id": 5567153335, "lat": 54.514159, "lon": 9.571609, "tags": {"amenity": "charging_station", "operator": "Stadtwerke Schleswig", "name": "Ladestation Stadtwerke Schleswig", "addr:country": "DE", "socket:type2": "2", "socket:type2:output": "22.0 kW", "charging_station:output": "22.0 kW", "capacity": "2", "_source": "worldwide"}}, {"type": "node", "id": 3446147137, "lat": 54.786216, "lon": 9.436228, "tags": {"amenity": "charging_station", "operator": "APCOA Parking", "name": "Ladestation APCOA Parking", "addr:country": "DE", "capacity": "2", "_source": "worldwide"}}, {"type": "node", "id": 6371570452, "lat": 54.78733, "lon": 9.431474, "tags": {"amenity": "charging_station", "operator": "Stadtwerke Flensburg", "name": "Ladestation Stadtwerke Flensburg", "addr:country": "DE", "capacity": "2", "_source": "worldwide"}}, {"type": "node", "id": 3610271539, "lat": 54.0937, "lon": 9.975176, "tags": {"amenity": "charging_station", "fee": "no", "operator": "SHeff-Z", "name": "Ladestation SHeff-Z", "addr:street": "Justus-Von-Liebig-Straße 4a", "addr:postcode": "24537", "addr:city": "Neumünster", "capacity": "1", "_source": "worldwide"}}, {"type": "node", "id": 12227636750, "lat": 54.09246, "lon": 9.974918, "tags": {"amenity": "charging_station", "access": "yes", "fee": "yes", "opening_hours": "24/7", "operator": "Stadtwerke Neumünster", "name": "Ladestation Stadtwerke Neumünster", "addr:country": "DE", "socket:type2_combo": "2", "socket:type2_combo:output": "160.0 kW", "charging_station:output": "160.0 kW", "capacity": "2", "authentication:none": "", "_source": "worldwide"}}, {"type": "node", "id": 3647798531, "lat": 54.754023, "lon": 9.528137, "tags": {"amenity": "charging_station", "operator": "Edeka Zander", "name": "Ladestation Edeka Zander", "addr:country": "DE", "socket:type2": "1", "socket:type2:output": "22 kW", "socket:schuko": "1", "socket:schuko:output": "2.3 kW", "charging_station:output": "22 kW", "capacity": "2", "_source": "worldwide"}}, {"type": "node", "id": 3676398753, "lat": 54.083485, "lon": 9.078722, "tags": {"amenity": "charging_station", "fee": "no", "opening_hours": "Mo-Fr 08:00-17:00; PH off", "operator": "Aldra Solar", "name": "Ladestation Aldra Solar", "addr:country": "DE", "socket:type2": "1", "socket:type2:output": "22 kW", "socket:schuko": "1", "socket:schuko:output": "2.3 kW", "charging_station:output": "22 kW", "capacity": "2", "_source": "worldwide"}}, {"type": "node", "id": 3676398760, "lat": 54.187939, "lon": 9.105373, "tags": {"amenity": "charging_station", "fee": "no", "opening_hours": "24/7", "addr:country": "DE", "socket:schuko": "1", "socket:schuko:output": "2.3 kW", "charging_station:output": "2.3 kW", "authentication:none": "yes", "_source": "worldwide"}}, {"type": "node", "id": 3676398763, "lat": 54.194366, "lon": 9.125155, "tags": {"amenity": "charging_station", "opening_hours": "24/7", "operator": "Stadtwerke Heide", "name": "Ladestation Stadtwerke Heide", "addr:country": "DE", "socket:type2": "2", "socket:type2:output": "22 kW", "charging_station:output": "22 kW", "_source": "worldwide"}}, {"type": "node", "id": 3737276968, "lat": 54.483128, "lon": 9.083963, "tags": {"amenity": "charging_station", "fee": "yes", "brand": "Shell Recharge", "opening_hours": "24/7", "operator": "Shell Recharge", "name": "Nord-Ostsee-Automobile", "addr:country": "DE", "socket:type2": "1", "socket:type2:output": "22 kW", "charging_station:output": "22 kW", "capacity": "2", "_source": "worldwide"}}, {"type": "node", "id": 4278263598, "lat": 54.911549, "lon": 9.78814, "tags": {"amenity": "charging_station", "brand": "E.ON Drive", "operator": "E.ON", "name": "E.ON Drive", "addr:country": "DE", "socket:type2": "6", "socket:type2:output": "22.0 kW", "charging_station:output": "22.0 kW", "capacity": "6", "_source": "worldwide"}}, {"type": "node", "id": 12974790392, "lat": 54.912884, "lon": 9.784287, "tags": {"amenity": "charging_station", "access": "yes", "fee": "no", "opening_hours": "24/7", "operator": "Sønderborg Kommune", "name": "Ladestation Sønderborg Kommune", "addr:country": "DE", "capacity": "12", "_source": "worldwide"}}, {"type": "node", "id": 1303749269, "lat": 54.910451, "lon": 9.786426, "tags": {"amenity": "charging_station", "operator": "Clever", "name": "Clever", "addr:country": "DE", "socket:type2": "4", "socket:type2:output": "22.0 kW", "charging_station:output": "22.0 kW", "capacity": "4", "_source": "worldwide"}}, {"type": "node", "id": 1303751331, "lat": 54.914883, "lon": 9.78435, "tags": {"amenity": "charging_station", "fee": "yes", "brand": "Clever", "operator": "Clever", "name": "Clever", "addr:country": "DE", "socket:type2": "8", "socket:type2:output": "22.0 kW", "charging_station:output": "22.0 kW", "capacity": "8", "_source": "worldwide"}}, {"type": "node", "id": 1307530755, "lat": 54.912236, "lon": 9.779514, "tags": {"amenity": "charging_station", "brand": "Clever", "operator": "Clever", "name": "Clever", "addr:country": "DE", "socket:type2": "8", "socket:type2:output": "22.0 kW", "charging_station:output": "22.0 kW", "capacity": "2", "_source": "worldwide"}}, {"type": "node", "id": 1307531149, "lat": 54.912108, "lon": 9.780579, "tags": {"amenity": "charging_station", "brand": "Base2Charge", "name": "Base2Charge", "addr:country": "DE", "socket:type2": "6", "socket:type2:output": "22 kW", "charging_station:output": "22 kW", "capacity": "6", "_source": "worldwide"}}, {"type": "node", "id": 4353915943, "lat": 54.177284, "lon": 9.09236, "tags": {"amenity": "charging_station", "opening_hours": "24/7", "operator": "Fast-E", "name": "Ladestation Fast-E", "addr:country": "DE", "socket:type2": "1", "socket:type2:output": "22 kW", "socket:type2_combo": "1", "socket:type2_combo:output": "50 kW", "socket:chademo": "1", "socket:chademo:output": "50 kW", "charging_station:output": "50 kW", "capacity": "2", "_source": "worldwide"}}, {"type": "node", "id": 6120646200, "lat": 54.175917, "lon": 9.092697, "tags": {"amenity": "charging_station", "fee": "yes", "opening_hours": "24/7", "operator": "Stadtwerke Heide", "name": "Ladestation Stadtwerke Heide", "addr:country": "DE", "socket:type2": "2", "socket:type2:output": "22 kW", "charging_station:output": "22 kW", "capacity": "2", "_source": "worldwide"}}, {"type": "node", "id": 12022511052, "lat": 54.176342, "lon": 9.09228, "tags": {"amenity": "charging_station", "access": "private", "opening_hours": "24/7", "operator": "Schröder Bauzentrum", "name": "Ladestation Schröder Bauzentrum", "addr:country": "DE", "socket:type2": "2", "socket:type2:output": "22 kW", "charging_station:output": "22 kW", "capacity": "2", "_source": "worldwide"}}, {"type": "node", "id": 4353915957, "lat": 54.196525, "lon": 9.093884, "tags": {"amenity": "charging_station", "fee": "no", "addr:country": "DE", "socket:type2": "1", "socket:type2:output": "22 kW", "charging_station:output": "22 kW", "_source": "worldwide"}}, {"type": "node", "id": 4408239261, "lat": 54.471645, "lon": 9.838141, "tags": {"amenity": "charging_station", "addr:country": "DE", "_source": "worldwide"}}, {"type": "node", "id": 6547565172, "lat": 54.472998, "lon": 9.833796, "tags": {"amenity": "charging_station", "fee": "yes", "network": "innogy", "operator": "Stadtwerke SH", "name": "Stadtwerke SH - innogy", "addr:country": "DE", "capacity": "2", "_source": "worldwide"}}, {"type": "node", "id": 9346608335, "lat": 54.470516, "lon": 9.835639, "tags": {"amenity": "charging_station", "operator": "Stadtwerke SH", "name": "Ladestation Stadtwerke SH", "addr:country": "DE", "capacity": "2", "_source": "worldwide"}}, {"type": "node", "id": 4417441859, "lat": 54.147107, "lon": 9.07084, "tags": {"amenity": "charging_station", "opening_hours": "24/7", "operator": "Deich- und Hauptsielverband", "name": "Ladestation Deich- und Hauptsielverband", "addr:country": "DE", "socket:type2": "1", "socket:type2:output": "22 kW", "charging_station:output": "22 kW", "capacity": "1", "authentication:none": "yes", "_source": "worldwide"}}, {"type": "node", "id": 4417441875, "lat": 54.193517, "lon": 9.091901, "tags": {"amenity": "charging_station", "opening_hours": "24/7", "operator": "Stadtwerke Heide", "name": "Ladestation Stadtwerke Heide", "addr:country": "DE", "socket:type2": "2", "socket:type2:output": "22 kW", "charging_station:output": "22 kW", "capacity": "4", "_source": "worldwide"}}, {"type": "node", "id": 4828097684, "lat": 54.195527, "lon": 9.091637, "tags": {"amenity": "charging_station", "fee": "no", "opening_hours": "24/7", "operator": "Stadtwerke Heide", "name": "Ladestation Stadtwerke Heide", "addr:country": "DE", "socket:type2": "2", "socket:type2:output": "22 kW", "charging_station:output": "22 kW", "capacity": "2", "_source": "worldwide"}}, {"type": "node", "id": 9789461395, "lat": 54.195178, "lon": 9.094458, "tags": {"amenity": "charging_station", "fee": "no", "opening_hours": "24/7", "operator": "Stadtwerke Heide", "name": "Ladestation Stadtwerke Heide", "addr:country": "DE", "socket:type2": "2", "socket:type2:output": "22 kW", "charging_station:output": "22 kW", "capacity": "2", "_source": "worldwide"}}, {"type": "node", "id": 13420689811, "lat": 54.19446, "lon": 9.091169, "tags": {"amenity": "charging_station", "fee": "no", "addr:country": "DE", "capacity": "1", "_source": "worldwide"}}, {"type": "node", "id": 4418778260, "lat": 54.193264, "lon": 9.109454, "tags": {"amenity": "charging_station", "access": "destination", "fee": "yes", "opening_hours": "24/7", "operator": "Stadtwerke Heide", "name": "Ladestation Stadtwerke Heide", "addr:country": "DE", "socket:type2": "2", "socket:type2:output": "22 kW", "charging_station:output": "22 kW", "capacity": "2", "_source": "worldwide"}}, {"type": "node", "id": 4418778261, "lat": 54.19512, "lon": 9.100825, "tags": {"amenity": "charging_station", "fee": "no", "opening_hours": "24/7", "operator": "Stadtwerke Heide", "name": "Ladestation Stadtwerke Heide", "addr:country": "DE", "socket:type2": "2", "socket:type2:output": "22 kW", "charging_station:output": "22 kW", "_source": "worldwide"}}, {"type": "node", "id": 12022511048, "lat": 54.195049, "lon": 9.098434, "tags": {"amenity": "charging_station", "fee": "yes", "opening_hours": "24/7", "operator": "Stadtwerke Heide", "name": "Ladestation Stadtwerke Heide", "addr:country": "DE", "socket:type2": "2", "socket:type2:output": "22 kW", "charging_station:output": "22 kW", "capacity": "2", "_source": "worldwide"}}, {"type": "node", "id": 4500126293, "lat": 54.476236, "lon": 9.054237, "tags": {"amenity": "charging_station", "fee": "yes", "opening_hours": "24/7", "operator": "Altes Gymnasium", "name": "Altes Gymnasium", "addr:country": "DE", "socket:type2": "1", "socket:type2:output": "22 kW", "charging_station:output": "22 kW", "_source": "worldwide"}}, {"type": "node", "id": 4824736678, "lat": 54.090842, "lon": 9.072216, "tags": {"amenity": "charging_station", "fee": "no", "opening_hours": "24/7", "operator": "Stadtwerke Heide", "name": "Ladestation Stadtwerke Heide", "addr:country": "DE", "socket:type2": "2", "socket:type2:output": "22 kW", "charging_station:output": "22 kW", "capacity": "2", "_source": "worldwide"}}, {"type": "node", "id": 5938459566, "lat": 54.090343, "lon": 9.068944, "tags": {"amenity": "charging_station", "fee": "yes", "opening_hours": "24/7", "operator": "Charge-ON", "name": "Charge-ON - Charge-ON GmbH", "addr:country": "DE", "socket:type2": "2", "socket:type2:output": "22 kW", "charging_station:output": "22 kW", "capacity": "2", "_source": "worldwide"}}, {"type": "node", "id": 11076441321, "lat": 54.088848, "lon": 9.073841, "tags": {"amenity": "charging_station", "opening_hours": "24/7", "operator": "Hansewerk", "name": "Ladestation Hansewerk", "addr:country": "DE", "socket:type2": "2", "socket:type2:output": "22 kW", "charging_station:output": "22 kW", "capacity": "2", "_source": "worldwide"}}, {"type": "node", "id": 12964886795, "lat": 54.090008, "lon": 9.072053, "tags": {"amenity": "charging_station", "operator": "Bäckerei Balzer", "name": "Ladestation Bäckerei Balzer", "addr:country": "DE", "socket:schuko": "3", "socket:schuko:output": "2.3 kW", "charging_station:output": "2.3 kW", "_source": "worldwide"}}, {"type": "node", "id": 4828097683, "lat": 54.198036, "lon": 9.080548, "tags": {"amenity": "charging_station", "fee": "no", "opening_hours": "24/7", "operator": "Stadtwerke Heide", "name": "Ladestation Stadtwerke Heide", "addr:country": "DE", "socket:type2": "2", "socket:type2:output": "22 kW", "charging_station:output": "22 kW", "capacity": "2", "_source": "worldwide"}}, {"type": "node", "id": 4968663101, "lat": 54.51867, "lon": 9.551571, "tags": {"amenity": "charging_station", "name": "Schleswiger Stadtwerke", "addr:country": "DE", "capacity": "2", "_source": "worldwide"}}, {"type": "node", "id": 4987735490, "lat": 54.718542, "lon": 9.676734, "tags": {"amenity": "charging_station", "addr:country": "DE", "capacity": "2", "_source": "worldwide"}}, {"type": "node", "id": 5092857029, "lat": 54.283603, "lon": 9.16695, "tags": {"amenity": "charging_station", "operator": "Eider-Treene-Sorge-Aktiv-Region", "name": "Ladestation Eider-Treene-Sorge-Aktiv-Region", "addr:country": "DE", "socket:type2": "2", "socket:type2:output": "22 kW", "charging_station:output": "22 kW", "_source": "worldwide"}}, {"type": "node", "id": 5200384705, "lat": 54.366119, "lon": 9.670754, "tags": {"amenity": "charging_station", "operator": "Autobahn Tank & Rast", "name": "Autobahn Tank & Rast - Autobahn Tank & Rast GmbH", "addr:country": "DE", "socket:type2": "1", "socket:type2:output": "22 kW", "socket:type2_combo": "1", "socket:type2_combo:output": "50 kW", "socket:chademo": "1", "socket:chademo:output": "50 kW", "charging_station:output": "50 kW", "capacity": "4", "_source": "worldwide"}}, {"type": "node", "id": 5200384706, "lat": 54.363664, "lon": 9.670503, "tags": {"amenity": "charging_station", "operator": "Autobahn Tank & Rast", "name": "Autobahn Tank & Rast - Autobahn Tank & Rast GmbH", "addr:country": "DE", "socket:type2": "1", "socket:type2:output": "22 kW", "socket:type2_combo": "1", "socket:type2_combo:output": "50 kW", "socket:chademo": "1", "socket:chademo:output": "50 kW", "charging_station:output": "50 kW", "capacity": "4", "_source": "worldwide"}}, {"type": "node", "id": 13687159527, "lat": 54.363338, "lon": 9.671107, "tags": {"amenity": "charging_station", "addr:country": "DE", "_source": "worldwide"}}, {"type": "node", "id": 5200499797, "lat": 54.803461, "lon": 9.328654, "tags": {"amenity": "charging_station", "access": "yes", "fee": "yes", "brand": "E.ON Drive", "operator": "E.ON", "name": "E.ON - E.ON Drive", "addr:country": "DE", "socket:type2": "1", "socket:type2:output": "22 kW", "socket:type2_combo": "1", "socket:type2_combo:output": "50 kW", "socket:chademo": "1", "socket:chademo:output": "50 kW", "charging_station:output": "50 kW", "capacity": "3", "_source": "worldwide"}}, {"type": "node", "id": 5306527573, "lat": 54.147652, "lon": 9.282954, "tags": {"amenity": "charging_station", "access": "yes", "network": "vorweg gehen", "operator": "Stadtwerke Heide", "name": "Stadtwerke Heide - vorweg gehen", "addr:country": "DE", "socket:type2": "2", "socket:type2:output": "22 kW", "charging_station:output": "22 kW", "capacity": "2", "_source": "worldwide"}}, {"type": "node", "id": 11737408908, "lat": 54.086888, "lon": 9.789547, "tags": {"amenity": "charging_station", "access": "yes", "fee": "yes", "opening_hours": "24/7", "operator": "Stadtwerke Neumünster", "name": "Ladestation Stadtwerke Neumünster", "addr:country": "DE", "socket:type2": "2", "socket:type2:output": "22.0 kW", "charging_station:output": "22.0 kW", "capacity": "2", "authentication:none": "", "_source": "worldwide"}}, {"type": "node", "id": 5393102921, "lat": 54.525139, "lon": 9.027226, "tags": {"amenity": "charging_station", "addr:country": "DE", "_source": "worldwide"}}, {"type": "node", "id": 5486849842, "lat": 54.794347, "lon": 9.373187, "tags": {"amenity": "charging_station", "fee": "yes", "operator": "Pattburg Poetzsch", "name": "Pattburg Poetzsch - Pattburg Poetzsch GmbH & Co. KG", "addr:street": "Industrieweg 40", "addr:postcode": "24955", "addr:city": "Harrislee", "socket:type2": "6", "socket:type2:output": "22.0 kW", "charging_station:output": "22.0 kW", "capacity": "2", "_source": "worldwide"}}, {"type": "node", "id": 13461881656, "lat": 54.795069, "lon": 9.377704, "tags": {"amenity": "charging_station", "access": "yes", "fee": "yes", "brand": "Tesla Supercharger", "opening_hours": "24/7", "operator": "Tesla", "name": "Harrislee Supercharger", "addr:country": "DE", "socket:type2_combo": "8", "socket:type2_combo:output": "250.0 kW", "charging_station:output": "250.0 kW", "capacity": "8", "_source": "worldwide"}}, {"type": "node", "id": 1344378592, "lat": 54.794666, "lon": 9.379819, "tags": {"amenity": "charging_station", "brand": "Spirii", "operator": "Spirii", "name": "Fleggaard Harislee - Spirii", "addr:country": "DE", "socket:type2": "2", "socket:type2:output": "22.0 kW", "charging_station:output": "22.0 kW", "capacity": "4", "_source": "worldwide"}}, {"type": "node", "id": 5486896714, "lat": 54.791989, "lon": 9.439142, "tags": {"amenity": "charging_station", "operator": "GP JOULE Connect", "name": "GP JOULE Connect - GP JOULE Connect GmbH & Co. KG", "addr:country": "DE", "socket:type2": "6", "socket:type2:output": "22.0 kW", "charging_station:output": "22.0 kW", "capacity": "6", "_source": "worldwide"}}, {"type": "node", "id": 10982662433, "lat": 54.790335, "lon": 9.442049, "tags": {"amenity": "charging_station", "fee": "yes", "opening_hours": "24/7", "operator": "Stadtwerke Flensburg", "name": "Ladestation Stadtwerke Flensburg", "addr:country": "DE", "socket:type2": "2", "socket:type2:output": "22.0 kW", "charging_station:output": "22.0 kW", "capacity": "2", "_source": "worldwide"}}, {"type": "node", "id": 5494748087, "lat": 54.774793, "lon": 9.076342, "tags": {"amenity": "charging_station", "addr:country": "DE", "_source": "worldwide"}}, {"type": "node", "id": 5520903678, "lat": 54.17021, "lon": 9.857445, "tags": {"amenity": "charging_station", "operator": "Elektro Tiegs", "name": "Ladestation Elektro Tiegs", "addr:country": "DE", "_source": "worldwide"}}, {"type": "node", "id": 5567081604, "lat": 54.145794, "lon": 9.283099, "tags": {"amenity": "charging_station", "access": "yes", "operator": "Hansewerk eon drive", "name": "Ladestation Hansewerk eon drive", "addr:country": "DE", "socket:type2": "2", "socket:type2:output": "22 kW", "charging_station:output": "22 kW", "capacity": "2", "_source": "worldwide"}}, {"type": "node", "id": 5606451338, "lat": 54.305126, "lon": 9.601021, "tags": {"amenity": "charging_station", "addr:country": "DE", "_source": "worldwide"}}, {"type": "node", "id": 5761407771, "lat": 54.53119, "lon": 9.574879, "tags": {"amenity": "charging_station", "operator": "Stadtwerke Schleswig", "name": "E-Auto Ladestation", "addr:country": "DE", "socket:type2": "1", "socket:type2:output": "22 kW", "charging_station:output": "22 kW", "_source": "worldwide"}}, {"type": "node", "id": 5761407772, "lat": 54.517594, "lon": 9.584556, "tags": {"amenity": "charging_station", "operator": "Stadtwerke Schleswig", "name": "E-Ladestation", "addr:country": "DE", "socket:type2": "1", "socket:type2:output": "22 kW", "socket:schuko": "1", "socket:schuko:output": "2.3 kW", "charging_station:output": "22 kW", "_source": "worldwide"}}, {"type": "node", "id": 9712007101, "lat": 54.83185, "lon": 9.351222, "tags": {"amenity": "charging_station", "fee": "yes", "brand": "Circle K", "opening_hours": "24/7", "operator": "Circle K", "name": "Circle K Lynlader Padborg", "addr:country": "DE", "socket:type2_combo": "2", "socket:type2_combo:output": "150.0 kW", "socket:chademo": "1", "socket:chademo:output": "50 kW", "charging_station:output": "150.0 kW", "capacity": "2", "_source": "worldwide"}}, {"type": "node", "id": 5808132174, "lat": 54.295807, "lon": 9.707142, "tags": {"amenity": "charging_station", "fee": "no", "operator": "Clever.dk", "name": "Clever Station", "addr:country": "DE", "socket:type2": "1", "socket:type2:output": "22 kW", "socket:type2_combo": "1", "socket:type2_combo:output": "50 kW", "socket:chademo": "1", "socket:chademo:output": "50 kW", "charging_station:output": "50 kW", "capacity": "1", "_source": "worldwide"}}, {"type": "node", "id": 5911914911, "lat": 54.476631, "lon": 9.544567, "tags": {"amenity": "charging_station", "operator": "Allego", "name": "Ladestation Allego", "addr:country": "DE", "socket:type2": "1", "socket:type2:output": "43.0 kW", "socket:type2_combo": "1", "socket:type2_combo:output": "50.0 kW", "socket:chademo": "1", "socket:chademo:output": "50.0 kW", "charging_station:output": "50.0 kW", "_source": "worldwide"}}, {"type": "node", "id": 10858506723, "lat": 54.477887, "lon": 9.545692, "tags": {"amenity": "charging_station", "fee": "yes", "opening_hours": "24/7", "operator": "Allego", "name": "Ladestation Allego", "addr:country": "DE", "socket:type2_combo": "4", "socket:type2_combo:output": "150.0 kW", "charging_station:output": "150.0 kW", "capacity": "4", "_source": "worldwide"}}, {"type": "node", "id": 5917697066, "lat": 54.804774, "lon": 9.42979, "tags": {"amenity": "charging_station", "operator": "Stadtwerke Flensburg", "name": "Ladestation Stadtwerke Flensburg", "addr:country": "DE", "socket:type2": "1", "socket:type2:output": "43.0 kW", "socket:type2_combo": "1", "socket:type2_combo:output": "50.0 kW", "socket:chademo": "1", "socket:chademo:output": "50.0 kW", "charging_station:output": "50.0 kW", "capacity": "2", "_source": "worldwide"}}, {"type": "node", "id": 5919072739, "lat": 54.905837, "lon": 9.787008, "tags": {"amenity": "charging_station", "operator": "Comwell Hotel", "name": "Ladestation Comwell Hotel", "addr:country": "DE", "capacity": "2", "_source": "worldwide"}}, {"type": "node", "id": 12456318353, "lat": 54.905094, "lon": 9.786394, "tags": {"amenity": "charging_station", "operator": "Clever", "name": "Clever", "addr:country": "DE", "socket:type2": "2", "socket:type2:output": "22.0 kW", "charging_station:output": "22.0 kW", "capacity": "2", "_source": "worldwide"}}, {"type": "node", "id": 5921636767, "lat": 54.081492, "lon": 9.960952, "tags": {"amenity": "charging_station", "brand": "nonoxx", "operator": "SWN", "name": "SWN - nonoxx", "addr:country": "DE", "capacity": "2", "_source": "worldwide"}}, {"type": "node", "id": 6011719270, "lat": 54.097819, "lon": 9.06454, "tags": {"amenity": "charging_station", "fee": "yes", "opening_hours": "24/7", "operator": "eon drive", "name": "Ladestation eon drive", "addr:country": "DE", "socket:type2": "2", "socket:type2:output": "22 kW", "charging_station:output": "22 kW", "capacity": "2", "_source": "worldwide"}}, {"type": "node", "id": 6105822655, "lat": 54.665414, "lon": 9.920787, "tags": {"amenity": "charging_station", "fee": "yes", "operator": "has.to.be", "name": "has.to.be - has.to.be GmbH", "addr:country": "DE", "socket:type2": "1", "socket:type2:output": "43.0 kW", "socket:type2_combo": "1", "socket:type2_combo:output": "50.0 kW", "socket:chademo": "1", "socket:chademo:output": "50.0 kW", "charging_station:output": "50.0 kW", "capacity": "1", "_source": "worldwide"}}, {"type": "node", "id": 6120646198, "lat": 54.197309, "lon": 9.118151, "tags": {"amenity": "charging_station", "fee": "no", "opening_hours": "24/7", "operator": "Stadtwerke Heide", "name": "Ladestation Stadtwerke Heide", "addr:country": "DE", "socket:type2": "2", "socket:type2:output": "22 kW", "charging_station:output": "22 kW", "capacity": "1", "_source": "worldwide"}}, {"type": "node", "id": 6120646199, "lat": 54.195942, "lon": 9.121583, "tags": {"amenity": "charging_station", "fee": "no", "opening_hours": "24/7", "operator": "Stadtwerke Heide", "name": "Ladestation Stadtwerke Heide", "addr:country": "DE", "socket:type2": "2", "socket:type2:output": "22 kW", "charging_station:output": "22 kW", "capacity": "4", "_source": "worldwide"}}, {"type": "node", "id": 11240562013, "lat": 54.198594, "lon": 9.126002, "tags": {"amenity": "charging_station", "brand": "EWE Go", "name": "Ladestation EWE Go", "addr:country": "DE", "socket:type2_combo": "2", "socket:type2_combo:output": "150.0 kW", "charging_station:output": "150.0 kW", "capacity": "2", "_source": "worldwide"}}, {"type": "node", "id": 12051829159, "lat": 54.197344, "lon": 9.128254, "tags": {"amenity": "charging_station", "operator": "EnBW", "name": "EnBW - EnBW Energie Baden-Württemberg AG", "addr:country": "DE", "socket:type2_combo": "2", "socket:type2_combo:output": "150.0 kW", "charging_station:output": "150.0 kW", "capacity": "2", "_source": "worldwide"}}, {"type": "node", "id": 6183605087, "lat": 54.473337, "lon": 9.831307, "tags": {"amenity": "charging_station", "fee": "no", "operator": "Parkhaus am Noor", "name": "Ladestation Parkhaus am Noor", "addr:country": "DE", "socket:type2": "6", "socket:type2:output": "22.0 kW", "charging_station:output": "22.0 kW", "capacity": "12", "_source": "worldwide"}}, {"type": "node", "id": 6187958637, "lat": 54.459588, "lon": 9.837678, "tags": {"amenity": "charging_station", "fee": "yes", "operator": "new motion", "name": "Nord-Ostsee Automobile", "addr:country": "DE", "socket:type2": "2", "socket:type2:output": "22.0 kW", "charging_station:output": "22.0 kW", "_source": "worldwide"}}, {"type": "node", "id": 1184404977, "lat": 54.463619, "lon": 9.833135, "tags": {"amenity": "charging_station", "operator": "Stadtwerke SH", "name": "Ladestation Stadtwerke SH", "addr:country": "DE", "capacity": "2", "_source": "worldwide"}}, {"type": "node", "id": 6201625239, "lat": 54.790578, "lon": 9.432653, "tags": {"amenity": "charging_station", "fee": "no", "operator": "Stadtwerke Flensburg (Klimapakt Flensburg e.V.)", "name": "Neue Straße Ladestation", "addr:country": "DE", "socket:type2": "2", "socket:type2:output": "22.0 kW", "charging_station:output": "22.0 kW", "capacity": "2", "_source": "worldwide"}}, {"type": "node", "id": 6227288690, "lat": 54.43354, "lon": 9.20671, "tags": {"amenity": "charging_station", "addr:country": "DE", "_source": "worldwide"}}, {"type": "node", "id": 6270877044, "lat": 54.777276, "lon": 9.235612, "tags": {"amenity": "charging_station", "addr:country": "DE", "capacity": "2", "_source": "worldwide"}}, {"type": "node", "id": 6307546444, "lat": 54.690674, "lon": 9.826559, "tags": {"amenity": "charging_station", "addr:country": "DE", "_source": "worldwide"}}, {"type": "node", "id": 6372442544, "lat": 54.232174, "lon": 9.666385, "tags": {"amenity": "charging_station", "fee": "yes", "operator": "Charge-ON", "name": "Charge-ON - Charge-ON GmbH", "addr:country": "DE", "socket:type2": "2", "socket:type2:output": "22.0 kW", "charging_station:output": "22.0 kW", "capacity": "2", "_source": "worldwide"}}, {"type": "node", "id": 6393362271, "lat": 54.406136, "lon": 9.973014, "tags": {"amenity": "charging_station", "fee": "yes", "opening_hours": "24/7", "operator": "REWE", "name": "Ladestation REWE", "addr:country": "DE", "socket:type2": "1", "socket:type2:output": "22 kW", "socket:schuko": "1", "socket:schuko:output": "2.3 kW", "charging_station:output": "22 kW", "capacity": "2", "authentication:none": "yes", "_source": "worldwide"}}, {"type": "node", "id": 11870119110, "lat": 54.406895, "lon": 9.974623, "tags": {"amenity": "charging_station", "fee": "yes", "addr:country": "DE", "socket:type2": "2", "socket:type2:output": "12.7 kW", "charging_station:output": "12.7 kW", "capacity": "2", "_source": "worldwide"}}, {"type": "node", "id": 13713693127, "lat": 54.405856, "lon": 9.971291, "tags": {"amenity": "charging_station", "access": "yes", "brand": "team", "name": "team", "addr:country": "DE", "capacity": "3", "_source": "worldwide"}}, {"type": "node", "id": 6393362272, "lat": 54.396814, "lon": 9.971747, "tags": {"amenity": "charging_station", "fee": "yes", "operator": "NewMotion", "name": "NewMotion", "addr:country": "DE", "socket:type2": "1", "socket:type2:output": "22 kW", "charging_station:output": "22 kW", "capacity": "22", "_source": "worldwide"}}, {"type": "node", "id": 6398118853, "lat": 54.322727, "lon": 9.691974, "tags": {"amenity": "charging_station", "access": "yes", "fee": "no", "opening_hours": "Mo-Sa 06:45-21:15", "operator": "Lidl", "name": "Ladestation Lidl", "addr:street": "Konrad-Adenauer-Straße 1", "addr:postcode": "24782", "socket:type2": "2", "socket:type2:output": "22.0 kW", "charging_station:output": "22.0 kW", "capacity": "2", "_source": "worldwide"}}, {"type": "node", "id": 10065848518, "lat": 54.324733, "lon": 9.695097, "tags": {"amenity": "charging_station", "fee": "yes", "network": "innogy eRoaming", "opening_hours": "24/7", "operator": "Flow Carsharing", "name": "Flow Carsharing - innogy eRoaming", "addr:country": "DE", "socket:type2": "4", "socket:type2:output": "22.0 kW", "charging_station:output": "22.0 kW", "capacity": "4", "_source": "worldwide"}}, {"type": "node", "id": 12075080775, "lat": 54.322369, "lon": 9.699094, "tags": {"amenity": "charging_station", "addr:country": "DE", "_source": "worldwide"}}, {"type": "node", "id": 6551142154, "lat": 54.669561, "lon": 9.395286, "tags": {"amenity": "charging_station", "access": "yes", "fee": "yes", "opening_hours": "24/7", "operator": "Lichtblick", "name": "Ladestation Lichtblick", "addr:country": "DE", "socket:type2_combo": "2", "socket:type2_combo:output": "50.0 kW", "charging_station:output": "50.0 kW", "capacity": "2", "_source": "worldwide"}}, {"type": "node", "id": 6649459739, "lat": 54.75681, "lon": 9.756382, "tags": {"amenity": "charging_station", "access": "yes", "fee": "no", "operator": "Edeka Borowski", "name": "Ladestation Edeka Borowski", "addr:country": "DE", "socket:schuko": "1", "socket:schuko:output": "2.3 kW", "charging_station:output": "2.3 kW", "capacity": "2", "_source": "worldwide"}}, {"type": "node", "id": 6613017385, "lat": 54.774991, "lon": 9.943575, "tags": {"amenity": "charging_station", "operator": "Reetdorf Geltinger Birk", "name": "Ladestation Reetdorf Geltinger Birk", "addr:country": "DE", "capacity": "2", "_source": "worldwide"}}, {"type": "node", "id": 6633657303, "lat": 54.772343, "lon": 9.435466, "tags": {"amenity": "charging_station", "fee": "yes", "opening_hours": "24/7", "operator": "e. on", "name": "Ladestation e. on", "addr:country": "DE", "socket:type2_combo": "2", "socket:type2_combo:output": "50 kW", "charging_station:output": "50 kW", "capacity": "2", "_source": "worldwide"}}, {"type": "node", "id": 6650971860, "lat": 54.331893, "lon": 9.025718, "tags": {"amenity": "charging_station", "addr:country": "DE", "capacity": "2", "_source": "worldwide"}}, {"type": "node", "id": 6652821069, "lat": 54.692702, "lon": 9.603967, "tags": {"amenity": "charging_station", "addr:country": "DE", "wheelchair": "yes", "_source": "worldwide"}}, {"type": "node", "id": 12146079502, "lat": 54.690928, "lon": 9.606556, "tags": {"amenity": "charging_station", "addr:country": "DE", "_source": "worldwide"}}, {"type": "node", "id": 6698743944, "lat": 54.378122, "lon": 9.092551, "tags": {"amenity": "charging_station", "operator": "DJH", "name": "Ladestation DJH", "addr:country": "DE", "_source": "worldwide"}}, {"type": "node", "id": 6794669829, "lat": 54.747065, "lon": 9.379164, "tags": {"amenity": "charging_station", "fee": "no", "operator": "Garten 2000 + mehr", "name": "Ladestation Garten 2000 + mehr", "addr:country": "DE", "capacity": "22", "_source": "worldwide"}}, {"type": "node", "id": 6858709528, "lat": 54.070318, "lon": 9.93813, "tags": {"amenity": "charging_station", "fee": "yes", "brand": "Innogy", "opening_hours": "24/7", "operator": "Stadtwerke Neumünster", "name": "Stadtwerke Neumünster - Innogy", "addr:country": "DE", "capacity": "2", "_source": "worldwide"}}, {"type": "node", "id": 10004678162, "lat": 54.070603, "lon": 9.941452, "tags": {"amenity": "charging_station", "fee": "yes", "brand": "E.ON", "network": "E.ON", "opening_hours": "24/7", "operator": "Charge-ON", "name": "Charge-ON - E.ON", "addr:country": "DE", "capacity": "2", "_source": "worldwide"}}, {"type": "node", "id": 12684170070, "lat": 54.070827, "lon": 9.940418, "tags": {"amenity": "charging_station", "access": "yes", "fee": "no", "addr:country": "DE", "socket:schuko": "8", "socket:schuko:output": "2.3 kW", "charging_station:output": "2.3 kW", "_source": "worldwide"}}, {"type": "node", "id": 1316249008, "lat": 54.070124, "lon": 9.941487, "tags": {"amenity": "charging_station", "access": "yes", "fee": "yes", "brand": "Tesla Supercharger", "network": "Tesla", "opening_hours": "24/7", "operator": "Tesla", "name": "Freesen Center Supercharger", "addr:country": "DE", "socket:type2_combo": "20", "socket:type2_combo:output": "250.0 kW", "charging_station:output": "250.0 kW", "capacity": "20", "_source": "worldwide"}}, {"type": "node", "id": 9182530037, "lat": 54.08202, "lon": 9.988476, "tags": {"amenity": "charging_station", "access": "customers", "fee": "no", "operator": "SWN Stadtwerke Neumünster", "name": "Ladestation SWN Stadtwerke Neumünster", "addr:country": "DE", "socket:type2": "1", "socket:type2:output": "22.0 kW", "charging_station:output": "22.0 kW", "capacity": "1", "_source": "worldwide"}}, {"type": "node", "id": 11503474960, "lat": 54.082198, "lon": 9.990841, "tags": {"amenity": "charging_station", "access": "permit", "operator": "SERVICE plus", "name": "SERVICE plus - SERVICE plus GmbH", "addr:country": "DE", "capacity": "2", "_source": "worldwide"}}, {"type": "node", "id": 11503583153, "lat": 54.082089, "lon": 9.989972, "tags": {"amenity": "charging_station", "access": "permit", "operator": "SERVICE plus", "name": "SERVICE plus - SERVICE plus GmbH", "addr:country": "DE", "capacity": "2", "_source": "worldwide"}}, {"type": "node", "id": 1311321888, "lat": 54.08563, "lon": 9.993125, "tags": {"amenity": "charging_station", "access": "yes", "fee": "yes", "opening_hours": "24/7", "addr:country": "DE", "socket:type2_combo": "4", "socket:type2_combo:output": "150.0 kW", "charging_station:output": "150.0 kW", "capacity": "4", "authentication:none": "", "_source": "worldwide"}}, {"type": "node", "id": 1490962774, "lat": 54.080736, "lon": 9.99362, "tags": {"amenity": "charging_station", "fee": "yes", "brand": "LichtBlick", "opening_hours": "24/7", "name": "Ladestation LichtBlick", "addr:country": "DE", "socket:type2_combo": "6", "socket:type2_combo:output": "50 kW", "charging_station:output": "50 kW", "capacity": "6", "authentication:none": "", "_source": "worldwide"}}, {"type": "node", "id": 6928747135, "lat": 54.307604, "lon": 9.688436, "tags": {"amenity": "charging_station", "access": "yes", "fee": "yes", "operator": "SH Netz", "name": "Ladestation SH Netz", "addr:country": "DE", "socket:type2": "1", "socket:type2:output": "43.0 kW", "socket:type2_combo": "1", "socket:type2_combo:output": "50.0 kW", "socket:chademo": "1", "socket:chademo:output": "50.0 kW", "charging_station:output": "50.0 kW", "capacity": "2", "_source": "worldwide"}}, {"type": "node", "id": 13518820601, "lat": 54.308262, "lon": 9.680941, "tags": {"amenity": "charging_station", "opening_hours": "24/7", "operator": "Wirelane", "name": "Ladestation Wirelane", "addr:country": "DE", "socket:type2": "2", "socket:type2:output": "11.0 kW", "charging_station:output": "11.0 kW", "_source": "worldwide"}}, {"type": "node", "id": 7003764177, "lat": 54.782362, "lon": 9.450695, "tags": {"amenity": "charging_station", "operator": "EDEKA", "name": "Edeka E-Bike Ladestation", "addr:country": "DE", "socket:schuko": "1", "socket:schuko:output": "2.3 kW", "charging_station:output": "2.3 kW", "_source": "worldwide"}}, {"type": "node", "id": 13690860238, "lat": 54.783006, "lon": 9.449541, "tags": {"amenity": "charging_station", "operator": "EnBW", "name": "Ladestation EnBW", "addr:country": "DE", "_source": "worldwide"}}, {"type": "node", "id": 7252567750, "lat": 54.361691, "lon": 9.24383, "tags": {"amenity": "charging_station", "access": "yes", "network": "Eon Drive", "operator": "Schleswig-Holstein Netz", "name": "Schleswig-Holstein Netz - Eon Drive", "addr:country": "DE", "capacity": "2", "_source": "worldwide"}}, {"type": "node", "id": 7301684974, "lat": 54.71629, "lon": 9.669597, "tags": {"amenity": "charging_station", "operator": "eon", "name": "Ladestation eon", "addr:country": "DE", "capacity": "2", "_source": "worldwide"}}, {"type": "node", "id": 7678104043, "lat": 54.770997, "lon": 9.433289, "tags": {"amenity": "charging_station", "access": "yes", "fee": "no", "opening_hours": "Mo-Sa 07:00-21:00", "operator": "Lidl Dienstleistung", "name": "Lidl Dienstleistung - Lidl Dienstleistung GmbH & Co. KG", "addr:country": "DE", "socket:type2": "1", "socket:type2:output": "22.0 kW", "socket:type2_combo": "1", "socket:type2_combo:output": "50.0 kW", "socket:chademo": "1", "socket:chademo:output": "50.0 kW", "charging_station:output": "50.0 kW", "capacity": "2", "authentication:none": "", "_source": "worldwide"}}, {"type": "node", "id": 7684240914, "lat": 54.402897, "lon": 9.973901, "tags": {"amenity": "charging_station", "fee": "yes", "opening_hours": "24/7", "operator": "Tierpark Gettorf", "name": "Hanse Werk Eon", "addr:country": "DE", "socket:type2": "4", "socket:type2:output": "22 kW", "charging_station:output": "22 kW", "capacity": "4", "_source": "worldwide"}}, {"type": "node", "id": 7704840547, "lat": 54.492375, "lon": 9.553306, "tags": {"amenity": "charging_station", "addr:country": "DE", "_source": "worldwide"}}, {"type": "node", "id": 7940734641, "lat": 54.096088, "lon": 9.065518, "tags": {"amenity": "charging_station", "fee": "no", "operator": "Lidl", "name": "Ladestation Lidl", "addr:country": "DE", "socket:type2_combo": "1", "socket:type2_combo:output": "50.0 kW", "socket:chademo": "1", "socket:chademo:output": "50.0 kW", "charging_station:output": "50.0 kW", "capacity": "2", "wheelchair": "yes", "_source": "worldwide"}}, {"type": "node", "id": 8050800615, "lat": 54.412287, "lon": 9.983091, "tags": {"amenity": "charging_station", "access": "private", "fee": "yes", "addr:country": "DE", "socket:cee_blue": "4", "socket:cee_blue:output": "3.7 kW", "charging_station:output": "3.7 kW", "_source": "worldwide"}}, {"type": "node", "id": 8201757658, "lat": 54.167092, "lon": 9.856996, "tags": {"amenity": "charging_station", "operator": "Stadtwerke Nortorf", "name": "Ladestation Stadtwerke Nortorf", "addr:country": "DE", "capacity": "2", "_source": "worldwide"}}, {"type": "node", "id": 8234289812, "lat": 54.074527, "lon": 9.983787, "tags": {"amenity": "charging_station", "addr:country": "DE", "_source": "worldwide"}}, {"type": "node", "id": 8234289813, "lat": 54.073786, "lon": 9.981937, "tags": {"amenity": "charging_station", "addr:country": "DE", "_source": "worldwide"}}, {"type": "node", "id": 12080117525, "lat": 54.070199, "lon": 9.977327, "tags": {"amenity": "charging_station", "access": "yes", "fee": "yes", "operator": "SWN Stadtwerke Neumünster", "name": "Ladestation SWN Stadtwerke Neumünster", "addr:country": "DE", "socket:type2": "2", "socket:type2:output": "11.0 kW", "charging_station:output": "11.0 kW", "capacity": "2", "_source": "worldwide"}}, {"type": "node", "id": 12080176053, "lat": 54.07134, "lon": 9.982537, "tags": {"amenity": "charging_station", "fee": "yes", "operator": "SWN Stadtwerke Neumünster", "name": "Ladestation SWN Stadtwerke Neumünster", "addr:country": "DE", "socket:type2_combo": "2", "socket:type2_combo:output": "160.0 kW", "charging_station:output": "160.0 kW", "capacity": "2", "_source": "worldwide"}}, {"type": "node", "id": 1389242984, "lat": 54.072497, "lon": 9.976864, "tags": {"amenity": "charging_station", "access": "yes", "fee": "yes", "opening_hours": "24/7", "operator": "EnBW", "name": "Ladestation EnBW", "addr:country": "DE", "socket:type2_combo": "4", "socket:type2_combo:output": "200.0 kW", "charging_station:output": "200.0 kW", "capacity": "4", "authentication:none": "", "_source": "worldwide"}}, {"type": "node", "id": 8234310259, "lat": 54.060303, "lon": 9.971616, "tags": {"amenity": "charging_station", "access": "yes", "fee": "yes", "operator": "Lidl", "name": "Ladestation Lidl", "addr:country": "DE", "socket:type2": "2", "socket:type2:output": "22.0 kW", "charging_station:output": "22.0 kW", "capacity": "2", "authentication:none": "", "_source": "worldwide"}}, {"type": "node", "id": 8394850116, "lat": 54.462144, "lon": 9.825802, "tags": {"amenity": "charging_station", "operator": "Stadtwerke SH", "name": "Ladestation Stadtwerke SH", "addr:country": "DE", "capacity": "2", "_source": "worldwide"}}, {"type": "node", "id": 8688239141, "lat": 54.380249, "lon": 9.677501, "tags": {"amenity": "charging_station", "addr:country": "DE", "_source": "worldwide"}}, {"type": "node", "id": 8701132265, "lat": 54.429666, "lon": 9.69868, "tags": {"amenity": "charging_station", "operator": "Dörpsmobil", "name": "Ladestation Dörpsmobil", "addr:country": "DE", "capacity": "2", "_source": "worldwide"}}, {"type": "node", "id": 8734342785, "lat": 54.043248, "lon": 9.981544, "tags": {"amenity": "charging_station", "fee": "no", "operator": "Tesla", "name": "Ladestation Tesla", "addr:country": "DE", "capacity": "4", "_source": "worldwide"}}, {"type": "node", "id": 8777125094, "lat": 54.519028, "lon": 9.464549, "tags": {"amenity": "charging_station", "access": "yes", "fee": "yes", "brand": "Aral pulse", "operator": "Aral", "name": "Aral pulse", "addr:country": "DE", "capacity": "4", "_source": "worldwide"}}, {"type": "node", "id": 8912348674, "lat": 54.237006, "lon": 9.085778, "tags": {"amenity": "charging_station", "access": "yes", "fee": "no", "operator": "Stadtwerke Heide", "name": "Stadtwerke Heide - Stadtwerke Heide GmbH", "addr:country": "DE", "_source": "worldwide"}}, {"type": "node", "id": 9005979133, "lat": 54.635114, "lon": 9.773756, "tags": {"amenity": "charging_station", "addr:country": "DE", "capacity": "2", "_source": "worldwide"}}, {"type": "node", "id": 9142580173, "lat": 54.636399, "lon": 9.771627, "tags": {"amenity": "charging_station", "operator": "intercharge", "name": "Ladestation intercharge", "addr:country": "DE", "capacity": "2", "_source": "worldwide"}}, {"type": "node", "id": 9174043544, "lat": 54.046633, "lon": 9.116126, "tags": {"amenity": "charging_station", "opening_hours": "24/7", "operator": "Gemeinde", "name": "Öffentliche E-Bike Ladestation", "addr:country": "DE", "_source": "worldwide"}}, {"type": "node", "id": 9271315666, "lat": 54.638663, "lon": 9.760626, "tags": {"amenity": "charging_station", "addr:country": "DE", "_source": "worldwide"}}, {"type": "node", "id": 9350692957, "lat": 54.835079, "lon": 9.547087, "tags": {"amenity": "charging_station", "access": "yes", "fee": "yes", "operator": "Parkstrom", "name": "Parkstrom - Parkstrom GmbH", "addr:country": "DE", "socket:type2": "2", "socket:type2:output": "22.0 kW", "charging_station:output": "22.0 kW", "capacity": "2", "authentication:none": "yes", "_source": "worldwide"}}, {"type": "node", "id": 9357197676, "lat": 54.180538, "lon": 9.944301, "tags": {"amenity": "charging_station", "brand": "Aral pulse", "operator": "Aral", "name": "Aral Pulse", "addr:country": "DE", "capacity": "6", "_source": "worldwide"}}, {"type": "node", "id": 1190406393, "lat": 54.180322, "lon": 9.943126, "tags": {"amenity": "charging_station", "fee": "yes", "opening_hours": "24/7", "operator": "EnBW", "name": "EnBW Ladepark Autohof Bordesholm", "addr:country": "DE", "socket:type2_combo": "24", "socket:type2_combo:output": "300.0 kW", "charging_station:output": "300.0 kW", "capacity": "24", "_source": "worldwide"}}, {"type": "node", "id": 9359272730, "lat": 54.299677, "lon": 9.664915, "tags": {"amenity": "charging_station", "operator": "Stadtwerke SH", "name": "Ladestation Stadtwerke SH", "addr:country": "DE", "capacity": "2", "_source": "worldwide"}}, {"type": "node", "id": 11432268341, "lat": 54.296255, "lon": 9.657096, "tags": {"amenity": "charging_station", "fee": "yes", "opening_hours": "24/7", "operator": "Stadtwerke S-H", "name": "Ladestation Stadtwerke S-H", "addr:country": "DE", "socket:type2": "2", "socket:type2:output": "22 kW", "charging_station:output": "22 kW", "capacity": "2", "_source": "worldwide"}}, {"type": "node", "id": 12309460114, "lat": 54.297996, "lon": 9.662859, "tags": {"amenity": "charging_station", "operator": "Stadtwerke SH", "name": "Ladestation Stadtwerke SH", "addr:country": "DE", "capacity": "2", "_source": "worldwide"}}, {"type": "node", "id": 9359297897, "lat": 54.292534, "lon": 9.67108, "tags": {"amenity": "charging_station", "network": "innogy eRoaming", "operator": "Stadtwerke SH", "name": "Stadtwerke SH - innogy eRoaming", "addr:country": "DE", "socket:type2": "2", "socket:type2:output": "22.0 kW", "charging_station:output": "22.0 kW", "capacity": "2", "_source": "worldwide"}}, {"type": "node", "id": 13430120504, "lat": 54.29331, "lon": 9.669406, "tags": {"amenity": "charging_station", "addr:country": "DE", "capacity": "2", "_source": "worldwide"}}, {"type": "node", "id": 9374464727, "lat": 54.846569, "lon": 9.539563, "tags": {"amenity": "charging_station", "access": "customers", "operator": "Restaurant Glückselig", "name": "Ladestation Restaurant Glückselig", "addr:country": "DE", "socket:type2": "2", "socket:type2:output": "11.0 kW", "socket:schuko": "2", "socket:schuko:output": "2.3 kW", "charging_station:output": "11.0 kW", "capacity": "2", "_source": "worldwide"}}, {"type": "node", "id": 12682234902, "lat": 54.84675, "lon": 9.541481, "tags": {"amenity": "charging_station", "addr:country": "DE", "capacity": "2", "_source": "worldwide"}}, {"type": "node", "id": 9374563927, "lat": 54.841459, "lon": 9.532573, "tags": {"amenity": "charging_station", "access": "yes", "fee": "yes", "network": "GP Joule Connect", "operator": "Figaro Hotelbetrieb", "name": "Figaro Hotelbetrieb - GP Joule Connect", "addr:country": "DE", "socket:type2": "3", "socket:type2:output": "22.0 kW", "charging_station:output": "22.0 kW", "capacity": "3", "authentication:none": "", "_source": "worldwide"}}, {"type": "node", "id": 12288438905, "lat": 54.83853, "lon": 9.532443, "tags": {"amenity": "charging_station", "operator": "Stadtwerke Flensburg", "name": "Ladestation Stadtwerke Flensburg", "addr:country": "DE", "capacity": "2", "_source": "worldwide"}}, {"type": "node", "id": 9374563996, "lat": 54.760895, "lon": 9.437292, "tags": {"amenity": "charging_station", "access": "yes", "fee": "yes", "network": "GP Joule Connect", "operator": "Thomsen Energie", "name": "Thomsen Energie - GP Joule Connect", "addr:country": "DE", "socket:type2_combo": "2", "socket:type2_combo:output": "150.0 kW", "charging_station:output": "150.0 kW", "capacity": "2", "authentication:none": "", "_source": "worldwide"}}, {"type": "node", "id": 9374621099, "lat": 54.778382, "lon": 9.438804, "tags": {"amenity": "charging_station", "access": "yes", "network": "GP Joule Connect", "operator": "Technisches Betriebszentrum Flensburg", "name": "Technisches Betriebszentrum Flensburg - GP Joule Connect", "addr:country": "DE", "socket:type2": "2", "socket:type2:output": "22.0 kW", "charging_station:output": "22.0 kW", "capacity": "2", "authentication:none": "", "_source": "worldwide"}}, {"type": "node", "id": 9374713272, "lat": 54.775816, "lon": 9.474719, "tags": {"amenity": "charging_station", "access": "yes", "fee": "yes", "network": "GP Joule Connect", "operator": "SBV Tarup", "name": "SBV Tarup - GP Joule Connect", "addr:country": "DE", "socket:type2": "2", "socket:type2:output": "22.0 kW", "charging_station:output": "22.0 kW", "capacity": "2", "authentication:none": "", "_source": "worldwide"}}, {"type": "node", "id": 9374725023, "lat": 54.770749, "lon": 9.466331, "tags": {"amenity": "charging_station", "access": "yes", "fee": "yes", "network": "New Motion", "operator": "Adelby 1", "name": "Adelby 1 - New Motion", "addr:country": "DE", "socket:type2": "2", "socket:type2:output": "22.0 kW", "charging_station:output": "22.0 kW", "capacity": "2", "_source": "worldwide"}}, {"type": "node", "id": 9374749151, "lat": 54.835514, "lon": 9.563713, "tags": {"amenity": "charging_station", "access": "customers", "operator": "artefact", "name": "Ladestation artefact", "addr:country": "DE", "socket:type2": "1", "socket:type2:output": "7.0 kW", "socket:schuko": "1", "socket:schuko:output": "3.0 kW", "charging_station:output": "7.0 kW", "capacity": "2", "_source": "worldwide"}}, {"type": "node", "id": 9396330612, "lat": 54.857064, "lon": 9.590685, "tags": {"amenity": "charging_station", "access": "yes", "fee": "yes", "operator": "Parkstrom", "name": "Parkstrom - Parkstrom GmbH", "addr:country": "DE", "socket:type2": "4", "socket:type2:output": "22.0 kW", "charging_station:output": "22.0 kW", "capacity": "4", "_source": "worldwide"}}, {"type": "node", "id": 9442582667, "lat": 54.449249, "lon": 9.821457, "tags": {"amenity": "charging_station", "access": "yes", "fee": "yes", "operator": "Stadtwerke SH", "name": "Parkplatz am Knick", "addr:country": "DE", "_source": "worldwide"}}, {"type": "node", "id": 9484695705, "lat": 54.452517, "lon": 9.83298, "tags": {"amenity": "charging_station", "addr:country": "DE", "capacity": "2", "_source": "worldwide"}}, {"type": "node", "id": 9497346451, "lat": 54.521095, "lon": 9.56368, "tags": {"amenity": "charging_station", "addr:country": "DE", "_source": "worldwide"}}, {"type": "node", "id": 9586427871, "lat": 54.410717, "lon": 9.508463, "tags": {"amenity": "charging_station", "access": "yes", "operator": "has·to·be gmbh", "name": "BE.ENERGISED Charging Station", "addr:country": "DE", "socket:type2": "2", "socket:type2:output": "22.0 kW", "charging_station:output": "22.0 kW", "capacity": "2", "_source": "worldwide"}}, {"type": "node", "id": 9896360150, "lat": 54.412144, "lon": 9.50828, "tags": {"amenity": "charging_station", "access": "yes", "operator": "GP JOULE Connect", "name": "GP JOULE Connect Charging Station", "addr:country": "DE", "socket:type2_combo": "2", "socket:type2_combo:output": "300.0 kW", "charging_station:output": "300.0 kW", "capacity": "2", "_source": "worldwide"}}, {"type": "node", "id": 10957835378, "lat": 54.409925, "lon": 9.508247, "tags": {"amenity": "charging_station", "access": "yes", "operator": "Eneco", "name": "Eneco", "addr:country": "DE", "socket:type2": "2", "socket:type2:output": "22.0 kW", "charging_station:output": "22.0 kW", "capacity": "2", "_source": "worldwide"}}, {"type": "node", "id": 9603015523, "lat": 54.805418, "lon": 9.430133, "tags": {"amenity": "charging_station", "operator": "Stadtwerke Flensburg", "name": "Ladestation Stadtwerke Flensburg", "addr:country": "DE", "capacity": "2", "_source": "worldwide"}}, {"type": "node", "id": 9607711952, "lat": 54.082429, "lon": 9.784845, "tags": {"amenity": "charging_station", "access": "yes", "fee": "yes", "opening_hours": "24/7", "operator": "GP JOULE Connect", "name": "Ladestation GP JOULE Connect", "addr:country": "DE", "socket:type2": "2", "socket:type2:output": "22.0 kW", "charging_station:output": "22.0 kW", "capacity": "2", "authentication:none": "", "_source": "worldwide"}}, {"type": "node", "id": 10032390926, "lat": 54.082644, "lon": 9.783329, "tags": {"amenity": "charging_station", "access": "yes", "fee": "no", "opening_hours": "24/7", "operator": "Gemeinde Aukrug", "name": "Ladestation Gemeinde Aukrug", "addr:country": "DE", "socket:schuko": "4", "socket:schuko:output": "2.3 kW", "charging_station:output": "2.3 kW", "capacity": "4", "_source": "worldwide"}}, {"type": "node", "id": 9628707659, "lat": 54.302864, "lon": 9.671336, "tags": {"amenity": "charging_station", "operator": "Stadtwerke SH", "name": "Ladestation Stadtwerke SH", "addr:country": "DE", "capacity": "2", "_source": "worldwide"}}, {"type": "node", "id": 9628712733, "lat": 54.303004, "lon": 9.668345, "tags": {"amenity": "charging_station", "operator": "Stadtwerke SH", "name": "Ladestation Stadtwerke SH", "addr:country": "DE", "capacity": "2", "_source": "worldwide"}}, {"type": "node", "id": 9633261704, "lat": 54.764681, "lon": 9.451307, "tags": {"amenity": "charging_station", "access": "yes", "fee": "yes", "brand": "Compleo", "operator": "team", "name": "team - Compleo", "addr:country": "DE", "capacity": "2", "_source": "worldwide"}}, {"type": "node", "id": 11681244594, "lat": 54.765627, "lon": 9.45011, "tags": {"amenity": "charging_station", "access": "private", "fee": "no", "operator": "DF Automotive", "name": "DF Automotive - DF Automotive GmbH", "addr:country": "DE", "capacity": "2", "_source": "worldwide"}}, {"type": "node", "id": 12052798124, "lat": 54.7631, "lon": 9.449288, "tags": {"amenity": "charging_station", "operator": "team", "name": "Ladestation team", "addr:country": "DE", "capacity": "2", "_source": "worldwide"}}, {"type": "node", "id": 9703892558, "lat": 54.022554, "lon": 9.791706, "tags": {"amenity": "charging_station", "access": "yes", "fee": "yes", "opening_hours": "24/7", "operator": "GP JOULE Connect", "name": "Ladestation GP JOULE Connect", "addr:country": "DE", "socket:type2": "2", "socket:type2:output": "22.0 kW", "charging_station:output": "22.0 kW", "capacity": "2", "authentication:none": "", "_source": "worldwide"}}, {"type": "node", "id": 9704798444, "lat": 54.672011, "lon": 9.705974, "tags": {"amenity": "charging_station", "addr:country": "DE", "_source": "worldwide"}}, {"type": "node", "id": 9737974043, "lat": 54.505457, "lon": 9.602923, "tags": {"amenity": "charging_station", "access": "yes", "addr:country": "DE", "_source": "worldwide"}}, {"type": "node", "id": 9789461394, "lat": 54.202156, "lon": 9.114326, "tags": {"amenity": "charging_station", "fee": "no", "opening_hours": "24/7", "operator": "Stadtwerke Heide", "name": "Ladestation Stadtwerke Heide", "addr:country": "DE", "socket:type2": "2", "socket:type2:output": "22 kW", "charging_station:output": "22 kW", "capacity": "2", "_source": "worldwide"}}, {"type": "node", "id": 9796907827, "lat": 54.34773, "lon": 9.228487, "tags": {"amenity": "charging_station", "access": "yes", "fee": "no", "operator": "Gemeinde Stapel", "name": "Ladestation Gemeinde Stapel", "addr:country": "DE", "capacity": "6", "_source": "worldwide"}}, {"type": "node", "id": 9797378769, "lat": 54.77816, "lon": 9.416136, "tags": {"amenity": "charging_station", "operator": "Lidl", "name": "Ladestation Lidl", "addr:country": "DE", "socket:type2_combo": "1", "socket:type2_combo:output": "50 kW", "socket:chademo": "1", "socket:chademo:output": "50 kW", "charging_station:output": "50 kW", "capacity": "2", "_source": "worldwide"}}, {"type": "node", "id": 9805488776, "lat": 54.66242, "lon": 9.399229, "tags": {"amenity": "charging_station", "access": "yes", "addr:country": "DE", "_source": "worldwide"}}, {"type": "node", "id": 9833754507, "lat": 54.583786, "lon": 9.043595, "tags": {"amenity": "charging_station", "fee": "yes", "opening_hours": "24/7", "operator": "Paulsen's Landhotel und Restaurant", "name": "Ladestation Paulsen's Landhotel und Restaurant", "addr:country": "DE", "socket:type2": "2", "socket:type2:output": "22 kW", "charging_station:output": "22 kW", "capacity": "2", "_source": "worldwide"}}, {"type": "node", "id": 9888271062, "lat": 54.16235, "lon": 9.769945, "tags": {"amenity": "charging_station", "addr:country": "DE", "_source": "worldwide"}}, {"type": "node", "id": 9917152566, "lat": 54.297595, "lon": 9.668336, "tags": {"amenity": "charging_station", "fee": "yes", "operator": "Compelo Charging Technology", "name": "Compelo Charging Technology - Compelo Charging Technology GmbH", "addr:country": "DE", "_source": "worldwide"}}, {"type": "node", "id": 9944177059, "lat": 54.125045, "lon": 9.317836, "tags": {"amenity": "charging_station", "addr:country": "DE", "_source": "worldwide"}}, {"type": "node", "id": 9952359188, "lat": 54.82701, "lon": 9.330987, "tags": {"amenity": "charging_station", "brand": "E.ON Drive", "opening_hours": "24/7", "operator": "E.ON", "name": "E.ON Drive Hurtiglader", "addr:country": "DE", "socket:type2_combo": "1", "socket:type2_combo:output": "50.0 kW", "socket:chademo": "1", "socket:chademo:output": "50.0 kW", "charging_station:output": "50.0 kW", "_source": "worldwide"}}, {"type": "node", "id": 9993560801, "lat": 54.091501, "lon": 9.668124, "tags": {"amenity": "charging_station", "addr:country": "DE", "capacity": "2", "_source": "worldwide"}}, {"type": "node", "id": 9993726717, "lat": 54.937877, "lon": 9.396599, "tags": {"amenity": "charging_station", "access": "yes", "fee": "no", "opening_hours": "24/7", "addr:country": "DE", "authentication:none": "yes", "_source": "worldwide"}}, {"type": "node", "id": 13123270220, "lat": 54.939119, "lon": 9.398161, "tags": {"amenity": "charging_station", "network": "OK", "opening_hours": "24/7", "operator": "OK", "name": "OK Hurtiglader", "addr:country": "DE", "socket:type2_combo": "2", "socket:type2_combo:output": "75.0 kW", "charging_station:output": "75.0 kW", "capacity": "2", "_source": "worldwide"}}, {"type": "node", "id": 10011214617, "lat": 54.821608, "lon": 9.655977, "tags": {"amenity": "charging_station", "fee": "yes", "opening_hours": "24/7", "addr:country": "DE", "capacity": "6", "_source": "worldwide"}}, {"type": "node", "id": 1475944324, "lat": 54.821629, "lon": 9.655182, "tags": {"amenity": "charging_station", "operator": "GP JOULE", "name": "Ladestation GP JOULE", "addr:country": "DE", "capacity": "8", "_source": "worldwide"}}, {"type": "node", "id": 10067212850, "lat": 54.303274, "lon": 9.664962, "tags": {"amenity": "charging_station", "network": "innogy eRoaming", "operator": "innogy eRoaming", "name": "Ladestation innogy eRoaming", "addr:country": "DE", "socket:type2": "2", "socket:type2:output": "22.0 kW", "charging_station:output": "22.0 kW", "capacity": "2", "_source": "worldwide"}}, {"type": "node", "id": 13518720102, "lat": 54.300396, "lon": 9.665666, "tags": {"amenity": "charging_station", "access": "yes", "opening_hours": "24/7", "operator": "Stadtwerke SH", "name": "Ladestation Stadtwerke SH", "addr:postcode": "24768", "socket:type2_combo": "2", "socket:type2_combo:output": "150.0 kW", "charging_station:output": "150.0 kW", "capacity": "2", "_source": "worldwide"}}, {"type": "node", "id": 10080012464, "lat": 54.147998, "lon": 9.283713, "tags": {"amenity": "charging_station", "operator": "Kalle-Bäcker", "name": "Ladestation Kalle-Bäcker", "addr:country": "DE", "_source": "worldwide"}}, {"type": "node", "id": 10082693347, "lat": 54.071534, "lon": 9.7989, "tags": {"amenity": "charging_station", "access": "yes", "fee": "yes", "opening_hours": "24/7", "operator": "GP JOULE Connect", "name": "Ladestation GP JOULE Connect", "addr:country": "DE", "socket:type2": "2", "socket:type2:output": "22.0 kW", "charging_station:output": "22.0 kW", "capacity": "2", "authentication:none": "", "_source": "worldwide"}}, {"type": "node", "id": 10082693348, "lat": 54.074734, "lon": 9.791152, "tags": {"amenity": "charging_station", "access": "yes", "fee": "yes", "opening_hours": "24/7", "operator": "GP JOULE Connect", "name": "Ladestation GP JOULE Connect", "addr:country": "DE", "socket:type2": "2", "socket:type2:output": "22.0 kW", "charging_station:output": "22.0 kW", "capacity": "2", "authentication:none": "", "_source": "worldwide"}}, {"type": "node", "id": 10090085847, "lat": 54.145574, "lon": 9.283567, "tags": {"amenity": "charging_station", "addr:country": "DE", "_source": "worldwide"}}, {"type": "node", "id": 10174284718, "lat": 54.770374, "lon": 9.961189, "tags": {"amenity": "charging_station", "operator": "e-on Drive", "name": "Ladestation e-on Drive", "addr:country": "DE", "capacity": "2", "_source": "worldwide"}}, {"type": "node", "id": 10295491126, "lat": 54.765999, "lon": 9.575553, "tags": {"amenity": "charging_station", "addr:country": "DE", "_source": "worldwide"}}, {"type": "node", "id": 10706454725, "lat": 54.641971, "lon": 9.471527, "tags": {"amenity": "charging_station", "addr:country": "DE", "_source": "worldwide"}}, {"type": "node", "id": 10763755693, "lat": 54.361434, "lon": 9.820989, "tags": {"amenity": "charging_station", "name": "Ladestation Sehestedt (Süd)", "addr:country": "DE", "capacity": "2", "_source": "worldwide"}}, {"type": "node", "id": 11872283730, "lat": 54.365073, "lon": 9.817349, "tags": {"amenity": "charging_station", "access": "yes", "fee": "no", "opening_hours": "24/7", "addr:country": "DE", "socket:schuko": "3", "socket:schuko:output": "2.3 kW", "charging_station:output": "2.3 kW", "capacity": "3", "_source": "worldwide"}}, {"type": "node", "id": 10764089950, "lat": 54.76498, "lon": 9.968067, "tags": {"amenity": "charging_station", "operator": "Compleo Charging Technologies", "name": "Compleo Charging Technologies - Compleo Charging Technologies GmbH", "addr:country": "DE", "capacity": "2", "_source": "worldwide"}}, {"type": "node", "id": 10797280822, "lat": 54.080049, "lon": 9.95978, "tags": {"amenity": "charging_station", "operator": "Wobau", "name": "Ladestation Wobau", "addr:country": "DE", "capacity": "2", "_source": "worldwide"}}, {"type": "node", "id": 10797291015, "lat": 54.078802, "lon": 9.956875, "tags": {"amenity": "charging_station", "operator": "Wobau", "name": "Ladestation Wobau", "addr:country": "DE", "capacity": "2", "_source": "worldwide"}}, {"type": "node", "id": 12682264634, "lat": 54.076257, "lon": 9.95803, "tags": {"amenity": "charging_station", "fee": "yes", "opening_hours": "24/7", "operator": "Wobau", "name": "Ladestation Wobau", "addr:country": "DE", "socket:type2": "2", "socket:type2:output": "22.0 kW", "charging_station:output": "22.0 kW", "capacity": "2", "authentication:none": "", "_source": "worldwide"}}, {"type": "node", "id": 1369374509, "lat": 54.076782, "lon": 9.958248, "tags": {"amenity": "charging_station", "access": "yes", "fee": "yes", "opening_hours": "24/7", "operator": "Stadtwerke Neumünster", "name": "Ladestation Stadtwerke Neumünster", "addr:country": "DE", "socket:type2": "2", "socket:type2:output": "22.0 kW", "socket:type2_combo": "2", "socket:type2_combo:output": "50.0 kW", "charging_station:output": "50.0 kW", "capacity": "4", "authentication:none": "", "_source": "worldwide"}}, {"type": "node", "id": 10799678833, "lat": 54.089387, "lon": 9.977314, "tags": {"amenity": "charging_station", "addr:country": "DE", "capacity": "2", "_source": "worldwide"}}, {"type": "node", "id": 12180422582, "lat": 54.088642, "lon": 9.977822, "tags": {"amenity": "charging_station", "access": "yes", "fee": "yes", "brand": "EWE Go", "opening_hours": "24/7", "operator": "EWE Go", "name": "EWE Go - EWE Go", "addr:country": "DE", "socket:type2_combo": "2", "socket:type2_combo:output": "150.0 kW", "charging_station:output": "150.0 kW", "capacity": "2", "_source": "worldwide"}}, {"type": "node", "id": 10813492644, "lat": 54.059185, "lon": 9.981686, "tags": {"amenity": "charging_station", "access": "yes", "fee": "yes", "opening_hours": "24/7", "operator": "EWE Go", "name": "Ladestation EWE Go", "addr:country": "DE", "socket:type2_combo": "2", "socket:type2_combo:output": "150.0 kW", "charging_station:output": "150.0 kW", "capacity": "2", "authentication:none": "", "_source": "worldwide"}}, {"type": "node", "id": 13662122518, "lat": 54.06371, "lon": 9.985495, "tags": {"amenity": "charging_station", "fee": "yes", "opening_hours": "24/7", "operator": "Vattenfall InCharge", "name": "Ladestation Vattenfall InCharge", "addr:country": "DE", "socket:type2_combo": "2", "socket:type2_combo:output": "180.0 kW", "charging_station:output": "180.0 kW", "capacity": "2", "_source": "worldwide"}}, {"type": "node", "id": 1388710608, "lat": 54.059335, "lon": 9.976827, "tags": {"amenity": "charging_station", "access": "yes", "fee": "no", "opening_hours": "24/7", "addr:country": "DE", "socket:type2": "4", "socket:type2:output": "22.0 kW", "charging_station:output": "22.0 kW", "capacity": "4", "authentication:none": "", "_source": "worldwide"}}, {"type": "node", "id": 1389046939, "lat": 54.061135, "lon": 9.98366, "tags": {"amenity": "charging_station", "access": "yes", "fee": "yes", "opening_hours": "24/7", "addr:country": "DE", "socket:type2": "1", "socket:type2:output": "22.0 kW", "socket:type2_combo": "1", "socket:type2_combo:output": "50.0 kW", "charging_station:output": "50.0 kW", "capacity": "4", "authentication:none": "", "_source": "worldwide"}}, {"type": "node", "id": 10814315985, "lat": 54.778151, "lon": 9.415263, "tags": {"amenity": "charging_station", "brand": "Shell Recharge", "operator": "Shell Recharge", "name": "Shell Recharge - Shell Recharge", "addr:country": "DE", "socket:type2_combo": "4", "socket:type2_combo:output": "150.0 kW", "charging_station:output": "150.0 kW", "capacity": "4", "_source": "worldwide"}}, {"type": "node", "id": 10832069187, "lat": 54.351021, "lon": 9.90285, "tags": {"amenity": "charging_station", "fee": "yes", "operator": "Amt Dänischer Wohld", "name": "Nonoxx Ladesäule", "addr:country": "DE", "socket:type2": "2", "socket:type2:output": "22 kW", "charging_station:output": "22 kW", "capacity": "2", "_source": "worldwide"}}, {"type": "node", "id": 10833991907, "lat": 54.276555, "lon": 9.901518, "tags": {"amenity": "charging_station", "fee": "no", "addr:country": "DE", "socket:schuko": "4", "socket:schuko:output": "2.3 kW", "charging_station:output": "2.3 kW", "capacity": "4", "_source": "worldwide"}}, {"type": "node", "id": 10855720436, "lat": 54.760033, "lon": 9.385043, "tags": {"amenity": "charging_station", "access": "yes", "operator": "GP Joule", "name": "Ladestation GP Joule", "addr:country": "DE", "capacity": "2", "_source": "worldwide"}}, {"type": "node", "id": 10858517311, "lat": 54.778144, "lon": 9.333894, "tags": {"amenity": "charging_station", "fee": "yes", "opening_hours": "24/7", "operator": "Allego", "name": "Ladestation Allego", "addr:country": "DE", "socket:type2_combo": "2", "socket:type2_combo:output": "160.0 kW", "charging_station:output": "160.0 kW", "capacity": "2", "_source": "worldwide"}}, {"type": "node", "id": 11006098800, "lat": 54.778118, "lon": 9.33605, "tags": {"amenity": "charging_station", "operator": "Scandinavian Park Petersen", "name": "Scandinavian Park Petersen - Scandinavian Park Petersen KG", "addr:country": "DE", "capacity": "16", "authentication:none": "", "_source": "worldwide"}}, {"type": "node", "id": 10962265861, "lat": 54.215673, "lon": 9.795921, "tags": {"amenity": "charging_station", "addr:country": "DE", "capacity": "2", "_source": "worldwide"}}, {"type": "node", "id": 10964252349, "lat": 54.131941, "lon": 9.700148, "tags": {"amenity": "charging_station", "addr:country": "DE", "capacity": "2", "_source": "worldwide"}}, {"type": "node", "id": 10976794258, "lat": 54.508713, "lon": 9.519916, "tags": {"amenity": "charging_station", "operator": "GP Joule", "name": "Ladestation GP Joule", "addr:country": "DE", "_source": "worldwide"}}, {"type": "node", "id": 11005791550, "lat": 54.465275, "lon": 9.839559, "tags": {"amenity": "charging_station", "access": "yes", "fee": "no", "opening_hours": "24/7", "operator": "Stadtwerke SH", "name": "Ladestation Stadtwerke SH", "addr:country": "DE", "socket:schuko": "6", "socket:schuko:output": "2.3 kW", "charging_station:output": "2.3 kW", "capacity": "3", "_source": "worldwide"}}, {"type": "node", "id": 11014569398, "lat": 54.102056, "lon": 9.424547, "tags": {"amenity": "charging_station", "addr:country": "DE", "capacity": "2", "_source": "worldwide"}}, {"type": "node", "id": 11031746745, "lat": 54.76523, "lon": 9.477931, "tags": {"amenity": "charging_station", "addr:country": "DE", "_source": "worldwide"}}, {"type": "node", "id": 11035800635, "lat": 54.086311, "lon": 9.656566, "tags": {"amenity": "charging_station", "access": "yes", "fee": "no", "operator": "Gemeindewerke Hohenwestedt", "name": "Ladestation Gemeindewerke Hohenwestedt", "addr:country": "DE", "capacity": "4", "_source": "worldwide"}}, {"type": "node", "id": 11049613391, "lat": 54.795689, "lon": 9.430307, "tags": {"amenity": "charging_station", "operator": "Stadtwerke Flensburg", "name": "Ladestation Stadtwerke Flensburg", "addr:country": "DE", "capacity": "2", "_source": "worldwide"}}, {"type": "node", "id": 11301634765, "lat": 54.796636, "lon": 9.428636, "tags": {"amenity": "charging_station", "access": "yes", "brand": "Hypercharger", "name": "Ladestation Hypercharger", "addr:country": "DE", "capacity": "2", "_source": "worldwide"}}, {"type": "node", "id": 11061758762, "lat": 54.511266, "lon": 9.541199, "tags": {"amenity": "charging_station", "operator": "Schleswiger Stadtwerke", "name": "Ladestation Schleswiger Stadtwerke", "addr:country": "DE", "capacity": "2", "_source": "worldwide"}}, {"type": "node", "id": 11062907249, "lat": 54.598303, "lon": 9.541572, "tags": {"amenity": "charging_station", "addr:country": "DE", "_source": "worldwide"}}, {"type": "node", "id": 11083176095, "lat": 54.272591, "lon": 9.624213, "tags": {"amenity": "charging_station", "access": "yes", "fee": "no", "opening_hours": "24/7", "addr:country": "DE", "socket:schuko": "4", "socket:schuko:output": "2.3 kW", "charging_station:output": "2.3 kW", "capacity": "4", "_source": "worldwide"}}, {"type": "node", "id": 11107323578, "lat": 54.304315, "lon": 9.937247, "tags": {"amenity": "charging_station", "access": "yes", "operator": "EDEKA", "name": "Ladestation EDEKA", "addr:country": "DE", "_source": "worldwide"}}, {"type": "node", "id": 11171806323, "lat": 54.168986, "lon": 9.854123, "tags": {"amenity": "charging_station", "operator": "hypercharger", "name": "Ladestation hypercharger", "addr:country": "DE", "capacity": "2", "_source": "worldwide"}}, {"type": "node", "id": 11171818027, "lat": 54.168124, "lon": 9.85442, "tags": {"amenity": "charging_station", "operator": "Stadtwerke Nortorf", "name": "Ladestation Stadtwerke Nortorf", "addr:country": "DE", "capacity": "2", "_source": "worldwide"}}, {"type": "node", "id": 11375100328, "lat": 54.763945, "lon": 9.435587, "tags": {"amenity": "charging_station", "access": "yes", "fee": "yes", "brand": "EnBw", "operator": "EnBW", "name": "EnBW - EnBw", "addr:country": "DE", "capacity": "2", "_source": "worldwide"}}, {"type": "node", "id": 11435947010, "lat": 54.053317, "lon": 9.96776, "tags": {"amenity": "charging_station", "access": "yes", "fee": "yes", "opening_hours": "24/7", "operator": "EnBW", "name": "Ladestation EnBW", "addr:country": "DE", "socket:type2_combo": "2", "socket:type2_combo:output": "150.0 kW", "charging_station:output": "150.0 kW", "capacity": "2", "authentication:none": "", "_source": "worldwide"}}, {"type": "node", "id": 11459241278, "lat": 54.906508, "lon": 9.75305, "tags": {"amenity": "charging_station", "access": "yes", "fee": "yes", "brand": "E.ON Drive", "opening_hours": "24/7", "operator": "E.ON", "name": "E.ON", "addr:country": "DE", "socket:type2": "2", "socket:type2:output": "22.0 kW", "charging_station:output": "22.0 kW", "capacity": "2", "_source": "worldwide"}}, {"type": "node", "id": 11518592233, "lat": 54.776591, "lon": 9.450079, "tags": {"amenity": "charging_station", "operator": "GP JOULE", "name": "Ladestation GP JOULE", "addr:country": "DE", "capacity": "2", "_source": "worldwide"}}, {"type": "node", "id": 11518937514, "lat": 54.776636, "lon": 9.451844, "tags": {"amenity": "charging_station", "operator": "Stadtwerke Flensburg", "name": "Ladestation Stadtwerke Flensburg", "addr:country": "DE", "capacity": "4", "_source": "worldwide"}}, {"type": "node", "id": 11518937515, "lat": 54.777261, "lon": 9.456495, "tags": {"amenity": "charging_station", "operator": "JP JOULE", "name": "Ladestation JP JOULE", "addr:country": "DE", "_source": "worldwide"}}, {"type": "node", "id": 11608180763, "lat": 54.020725, "lon": 9.37674, "tags": {"amenity": "charging_station", "addr:country": "DE", "capacity": "4", "_source": "worldwide"}}, {"type": "node", "id": 11627548854, "lat": 54.331609, "lon": 9.708783, "tags": {"amenity": "charging_station", "access": "yes", "fee": "yes", "operator": "nonoxx pro", "name": "Ladestation nonoxx pro", "addr:country": "DE", "capacity": "2", "_source": "worldwide"}}, {"type": "node", "id": 11627548855, "lat": 54.334674, "lon": 9.700838, "tags": {"amenity": "charging_station", "access": "yes", "operator": "hansewerk", "name": "Ladestation hansewerk", "addr:country": "DE", "capacity": "2", "_source": "worldwide"}}, {"type": "node", "id": 11738863041, "lat": 54.081089, "lon": 9.974781, "tags": {"amenity": "charging_station", "fee": "yes", "operator": "SWN Stadtwerke Neumünster", "name": "Ladestation SWN Stadtwerke Neumünster", "addr:country": "DE", "socket:type2": "2", "socket:type2:output": "22.0 kW", "charging_station:output": "22.0 kW", "capacity": "2", "authentication:none": "", "_source": "worldwide"}}, {"type": "node", "id": 11741298115, "lat": 54.075471, "lon": 9.980824, "tags": {"amenity": "charging_station", "fee": "yes", "operator": "SWN Stadtwerke Neumünster", "name": "Ladestation SWN Stadtwerke Neumünster", "addr:country": "DE", "socket:type2_combo": "2", "socket:type2_combo:output": "160.0 kW", "charging_station:output": "160.0 kW", "capacity": "2", "_source": "worldwide"}}, {"type": "node", "id": 11966269994, "lat": 54.257126, "lon": 9.534261, "tags": {"amenity": "charging_station", "addr:country": "DE", "capacity": "2", "_source": "worldwide"}}, {"type": "node", "id": 12183552809, "lat": 54.258508, "lon": 9.529266, "tags": {"amenity": "charging_station", "access": "yes", "fee": "no", "opening_hours": "24/7", "addr:country": "DE", "socket:schuko": "1", "socket:schuko:output": "2.3 kW", "charging_station:output": "2.3 kW", "capacity": "1", "_source": "worldwide"}}, {"type": "node", "id": 12031075327, "lat": 54.316184, "lon": 9.671384, "tags": {"amenity": "charging_station", "access": "yes", "fee": "no", "opening_hours": "24/7", "addr:country": "DE", "capacity": "3", "_source": "worldwide"}}, {"type": "node", "id": 12031356329, "lat": 54.31376, "lon": 9.675672, "tags": {"amenity": "charging_station", "access": "yes", "operator": "Edeka", "name": "Ladestation Edeka", "addr:country": "DE", "socket:type2": "1", "socket:type2:output": "22.0 kW", "socket:type2_combo": "1", "socket:type2_combo:output": "50.0 kW", "charging_station:output": "50.0 kW", "_source": "worldwide"}}, {"type": "node", "id": 12052818920, "lat": 54.776568, "lon": 9.439046, "tags": {"amenity": "charging_station", "operator": "Stadtwerke Flensburg", "name": "Ladepark am Bahnhof", "addr:country": "DE", "capacity": "4", "_source": "worldwide"}}, {"type": "node", "id": 12072979920, "lat": 54.089382, "lon": 9.079546, "tags": {"amenity": "charging_station", "fee": "yes", "opening_hours": "24/7", "operator": "Vattenlfall Inchargel", "name": "Ladestation Vattenlfall Inchargel", "addr:country": "DE", "socket:type2": "2", "socket:type2:output": "22 kW", "charging_station:output": "22 kW", "capacity": "2", "_source": "worldwide"}}, {"type": "node", "id": 12073369579, "lat": 54.068971, "lon": 9.986537, "tags": {"amenity": "charging_station", "fee": "yes", "operator": "Stadtwerke Neumünster", "name": "Ladestation Stadtwerke Neumünster", "addr:country": "DE", "socket:type2_combo": "2", "socket:type2_combo:output": "160.0 kW", "charging_station:output": "160.0 kW", "capacity": "2", "_source": "worldwide"}}, {"type": "node", "id": 12075080770, "lat": 54.309355, "lon": 9.664085, "tags": {"amenity": "charging_station", "access": "yes", "opening_hours": "24/7", "operator": "EWE Go", "name": "Ladestation EWE Go", "addr:street": "Am Ahlmannkai 1a", "addr:postcode": "24782", "socket:type2_combo": "2", "socket:type2_combo:output": "300.0 kW", "charging_station:output": "300.0 kW", "_source": "worldwide"}}, {"type": "node", "id": 12075080771, "lat": 54.318954, "lon": 9.666549, "tags": {"amenity": "charging_station", "operator": "Stadtwerke SH", "name": "Ladestation Stadtwerke SH", "addr:country": "DE", "_source": "worldwide"}}, {"type": "node", "id": 12075080772, "lat": 54.315975, "lon": 9.680789, "tags": {"amenity": "charging_station", "addr:country": "DE", "_source": "worldwide"}}, {"type": "node", "id": 12075080773, "lat": 54.319781, "lon": 9.678577, "tags": {"amenity": "charging_station", "access": "yes", "fee": "yes", "operator": "Stadtwerke SH", "name": "Ladestation Stadtwerke SH", "addr:country": "DE", "capacity": "2", "_source": "worldwide"}}, {"type": "node", "id": 12075080774, "lat": 54.318326, "lon": 9.683765, "tags": {"amenity": "charging_station", "fee": "yes", "operator": "Stadtwerke SH", "name": "Ladestation Stadtwerke SH", "addr:country": "DE", "capacity": "2", "_source": "worldwide"}}, {"type": "node", "id": 12092249008, "lat": 54.91694, "lon": 9.580399, "tags": {"amenity": "charging_station", "brand": "Norlys", "operator": "Norlys", "name": "Norlys", "addr:country": "DE", "socket:type2": "2", "socket:type2:output": "22.0 kW", "charging_station:output": "22.0 kW", "capacity": "2", "_source": "worldwide"}}, {"type": "node", "id": 12094573735, "lat": 54.327918, "lon": 9.626168, "tags": {"amenity": "charging_station", "opening_hours": "24/7", "operator": "Kaufland", "name": "Ladestation Kaufland", "addr:country": "DE", "socket:type2": "1", "socket:type2:output": "11.0 kW", "socket:type2_combo": "2", "socket:type2_combo:output": "60.0 kW", "charging_station:output": "60.0 kW", "capacity": "2", "_source": "worldwide"}}, {"type": "node", "id": 12101654872, "lat": 54.492133, "lon": 9.076455, "tags": {"amenity": "charging_station", "access": "yes", "operator": "Shell Recharge", "name": "Shell Recharge - Shell Recharge Solutions", "addr:country": "DE", "capacity": "2", "_source": "worldwide"}}, {"type": "node", "id": 12101654873, "lat": 54.491828, "lon": 9.077557, "tags": {"amenity": "charging_station", "access": "yes", "operator": "Shell Recharge", "name": "Shell Recharge - Shell Recharge Solutions", "addr:country": "DE", "capacity": "2", "_source": "worldwide"}}, {"type": "node", "id": 12102634106, "lat": 54.907579, "lon": 9.795697, "tags": {"amenity": "charging_station", "operator": "Clever", "name": "Clever", "addr:country": "DE", "socket:type2": "4", "socket:type2:output": "22.0 kW", "charging_station:output": "22.0 kW", "capacity": "4", "_source": "worldwide"}}, {"type": "node", "id": 12456318354, "lat": 54.906253, "lon": 9.799519, "tags": {"amenity": "charging_station", "operator": "Clever", "name": "Clever", "addr:country": "DE", "socket:type2": "4", "socket:type2:output": "22.0 kW", "charging_station:output": "22.0 kW", "capacity": "4", "_source": "worldwide"}}, {"type": "node", "id": 1305394959, "lat": 54.908781, "lon": 9.792099, "tags": {"amenity": "charging_station", "brand": "Clever", "operator": "Clever", "name": "Clever Lynlader", "addr:country": "DE", "socket:type2_combo": "2", "socket:type2_combo:output": "150.0 kW", "charging_station:output": "150.0 kW", "capacity": "2", "_source": "worldwide"}}, {"type": "node", "id": 1305395238, "lat": 54.9095, "lon": 9.792576, "tags": {"amenity": "charging_station", "brand": "Clever", "operator": "Clever", "name": "Clever AC - Borgen Tagparkering", "addr:country": "DE", "socket:type2": "10", "socket:type2:output": "22.0 kW", "charging_station:output": "22.0 kW", "capacity": "10", "_source": "worldwide"}}, {"type": "node", "id": 1305396348, "lat": 54.908362, "lon": 9.789882, "tags": {"amenity": "charging_station", "brand": "E.ON Drive", "operator": "E.ON", "name": "E.ON Drive", "addr:country": "DE", "socket:type2": "6", "socket:type2:output": "22.0 kW", "charging_station:output": "22.0 kW", "_source": "worldwide"}}, {"type": "node", "id": 12105843323, "lat": 54.807382, "lon": 9.453141, "tags": {"amenity": "charging_station", "operator": "Stadtwerke Flensburg", "name": "Ladestation Stadtwerke Flensburg", "addr:country": "DE", "capacity": "2", "_source": "worldwide"}}, {"type": "node", "id": 12108528498, "lat": 54.919217, "lon": 9.809138, "tags": {"amenity": "charging_station", "operator": "Shell Recharge", "name": "Shell Recharge Lynlader", "addr:country": "DE", "socket:type2_combo": "2", "socket:type2_combo:output": "150.0 kW", "charging_station:output": "150.0 kW", "capacity": "2", "_source": "worldwide"}}, {"type": "node", "id": 12121713439, "lat": 54.919755, "lon": 9.794652, "tags": {"amenity": "charging_station", "access": "yes", "fee": "yes", "brand": "E.ON Drive", "operator": "E.ON", "name": "E.ON Drive", "addr:country": "DE", "socket:type2": "4", "socket:type2:output": "22.0 kW", "socket:type2_combo": "2", "socket:type2_combo:output": "50.0 kW", "charging_station:output": "50.0 kW", "capacity": "6", "_source": "worldwide"}}, {"type": "node", "id": 12163024558, "lat": 54.579418, "lon": 9.68933, "tags": {"amenity": "charging_station", "addr:country": "DE", "_source": "worldwide"}}, {"type": "node", "id": 12236030976, "lat": 54.126492, "lon": 9.994865, "tags": {"amenity": "charging_station", "access": "yes", "fee": "yes", "opening_hours": "24/7", "operator": "Stadtwerke Neumünster", "name": "Ladestation Stadtwerke Neumünster", "addr:country": "DE", "socket:type2_combo": "2", "socket:type2_combo:output": "160.0 kW", "charging_station:output": "160.0 kW", "capacity": "2", "authentication:none": "", "_source": "worldwide"}}, {"type": "node", "id": 12240695603, "lat": 54.776044, "lon": 9.459997, "tags": {"amenity": "charging_station", "operator": "team", "name": "Ladestation team", "addr:country": "DE", "capacity": "13", "_source": "worldwide"}}, {"type": "node", "id": 12289684813, "lat": 54.69273, "lon": 9.596458, "tags": {"amenity": "charging_station", "addr:country": "DE", "_source": "worldwide"}}, {"type": "node", "id": 12337185313, "lat": 54.75803, "lon": 9.188517, "tags": {"amenity": "charging_station", "addr:country": "DE", "_source": "worldwide"}}, {"type": "node", "id": 12881101974, "lat": 54.757909, "lon": 9.192716, "tags": {"amenity": "charging_station", "addr:country": "DE", "_source": "worldwide"}}, {"type": "node", "id": 12337185314, "lat": 54.759495, "lon": 9.179393, "tags": {"amenity": "charging_station", "addr:country": "DE", "_source": "worldwide"}}, {"type": "node", "id": 12388780246, "lat": 54.664439, "lon": 9.399885, "tags": {"amenity": "charging_station", "operator": "E.ON", "name": "Ladestation E.ON", "addr:country": "DE", "capacity": "2", "_source": "worldwide"}}, {"type": "node", "id": 12405407466, "lat": 54.393434, "lon": 9.249158, "tags": {"amenity": "charging_station", "addr:country": "DE", "_source": "worldwide"}}, {"type": "node", "id": 12419207410, "lat": 54.069572, "lon": 9.987559, "tags": {"amenity": "charging_station", "access": "private", "operator": "VR Bank", "name": "Ladestation VR Bank", "addr:country": "DE", "socket:type2": "2", "socket:type2:output": "11.0 kW", "charging_station:output": "11.0 kW", "capacity": "2", "_source": "worldwide"}}, {"type": "node", "id": 13664548536, "lat": 54.0714, "lon": 9.99241, "tags": {"amenity": "charging_station", "access": "yes", "fee": "yes", "opening_hours": "24/7", "operator": "SWN Stadtwerke Neumünster", "name": "Ladestation SWN Stadtwerke Neumünster", "addr:country": "DE", "socket:type2": "2", "socket:type2:output": "22.0 kW", "charging_station:output": "22.0 kW", "capacity": "2", "authentication:none": "", "_source": "worldwide"}}, {"type": "node", "id": 12453680256, "lat": 54.876551, "lon": 9.657629, "tags": {"amenity": "charging_station", "operator": "Clever", "name": "Clever", "addr:country": "DE", "socket:type2": "2", "socket:type2:output": "22.0 kW", "charging_station:output": "22.0 kW", "capacity": "2", "_source": "worldwide"}}, {"type": "node", "id": 12453701808, "lat": 54.913239, "lon": 9.790719, "tags": {"amenity": "charging_station", "operator": "Clever", "name": "Clever", "addr:country": "DE", "socket:type2": "2", "socket:type2:output": "22.0 kW", "charging_station:output": "22.0 kW", "capacity": "2", "_source": "worldwide"}}, {"type": "node", "id": 1307530756, "lat": 54.911708, "lon": 9.793724, "tags": {"amenity": "charging_station", "brand": "E.ON Drive", "operator": "E.ON", "name": "E.ON - E.ON Drive", "addr:country": "DE", "socket:type2": "2", "socket:type2:output": "22.0 kW", "charging_station:output": "22.0 kW", "capacity": "2", "_source": "worldwide"}}, {"type": "node", "id": 1346451452, "lat": 54.913032, "lon": 9.791499, "tags": {"amenity": "charging_station", "operator": "Clever", "name": "Clever Lynlader", "addr:country": "DE", "socket:type2_combo": "2", "socket:type2_combo:output": "150.0 kW", "charging_station:output": "150.0 kW", "capacity": "2", "_source": "worldwide"}}, {"type": "node", "id": 12453727047, "lat": 54.951191, "lon": 9.703971, "tags": {"amenity": "charging_station", "operator": "Norlys", "name": "Norlys", "addr:country": "DE", "socket:type2": "2", "socket:type2:output": "22.0 kW", "charging_station:output": "22.0 kW", "capacity": "2", "_source": "worldwide"}}, {"type": "node", "id": 1304330364, "lat": 54.949912, "lon": 9.701923, "tags": {"amenity": "charging_station", "access": "yes", "fee": "yes", "brand": "OK", "operator": "OK", "name": "OK", "addr:country": "DE", "socket:type2": "2", "socket:type2:output": "22.0 kW", "charging_station:output": "22.0 kW", "capacity": "2", "_source": "worldwide"}}, {"type": "node", "id": 12453740414, "lat": 54.887231, "lon": 9.669831, "tags": {"amenity": "charging_station", "operator": "Clever", "name": "Clever", "addr:country": "DE", "socket:type2": "2", "socket:type2:output": "22.0 kW", "charging_station:output": "22.0 kW", "capacity": "2", "_source": "worldwide"}}, {"type": "node", "id": 12453740415, "lat": 54.887942, "lon": 9.675004, "tags": {"amenity": "charging_station", "operator": "Clever", "name": "Clever", "addr:country": "DE", "socket:type2": "2", "socket:type2:output": "22.0 kW", "charging_station:output": "22.0 kW", "capacity": "2", "_source": "worldwide"}}, {"type": "node", "id": 1303709797, "lat": 54.888963, "lon": 9.672657, "tags": {"amenity": "charging_station", "access": "yes", "fee": "yes", "brand": "OK", "opening_hours": "24/7", "operator": "OK", "name": "OK Hurtiglader", "addr:country": "DE", "socket:type2_combo": "2", "socket:type2_combo:output": "75.0 kW", "charging_station:output": "75.0 kW", "capacity": "2", "_source": "worldwide"}}, {"type": "node", "id": 1303709798, "lat": 54.889373, "lon": 9.674041, "tags": {"amenity": "charging_station", "fee": "yes", "brand": "Clever", "operator": "Clever", "name": "Clever", "addr:country": "DE", "socket:type2": "2", "socket:type2:output": "11.0 kW", "charging_station:output": "11.0 kW", "capacity": "2", "_source": "worldwide"}}, {"type": "node", "id": 12453748223, "lat": 54.962109, "lon": 9.786108, "tags": {"amenity": "charging_station", "operator": "Clever", "name": "Clever", "addr:country": "DE", "socket:type2": "2", "socket:type2:output": "22.0 kW", "charging_station:output": "22.0 kW", "capacity": "2", "_source": "worldwide"}}, {"type": "node", "id": 12455466635, "lat": 54.911585, "lon": 9.765908, "tags": {"amenity": "charging_station", "operator": "Clever", "name": "Clever", "addr:country": "DE", "socket:type2": "2", "socket:type2:output": "22.0 kW", "charging_station:output": "22.0 kW", "capacity": "2", "_source": "worldwide"}}, {"type": "node", "id": 12456318355, "lat": 54.905943, "lon": 9.803885, "tags": {"amenity": "charging_station", "operator": "Clever", "name": "Clever", "addr:country": "DE", "socket:type2": "1", "socket:type2:output": "22.0 kW", "charging_station:output": "22.0 kW", "capacity": "1", "_source": "worldwide"}}, {"type": "node", "id": 12456318356, "lat": 54.915107, "lon": 9.804272, "tags": {"amenity": "charging_station", "operator": "Clever", "name": "Clever", "addr:country": "DE", "socket:type2": "2", "socket:type2:output": "22.0 kW", "charging_station:output": "22.0 kW", "capacity": "2", "_source": "worldwide"}}, {"type": "node", "id": 12456318357, "lat": 54.914938, "lon": 9.812275, "tags": {"amenity": "charging_station", "operator": "Clever", "name": "Clever", "addr:country": "DE", "socket:type2": "2", "socket:type2:output": "23.0 kW", "charging_station:output": "23.0 kW", "capacity": "2", "_source": "worldwide"}}, {"type": "node", "id": 12456318358, "lat": 54.92916, "lon": 9.806922, "tags": {"amenity": "charging_station", "operator": "Clever", "name": "Clever", "addr:country": "DE", "socket:type2": "4", "socket:type2:output": "22.0 kW", "charging_station:output": "22.0 kW", "capacity": "4", "_source": "worldwide"}},