{"id": "27--81", "latMin": 27, "lonMin": -81, "latMax": 28, "lonMax": -80, "generated": "2026-04-16T18:39:07.256Z", "count": 17, "pois": [{"type": "node", "id": 3725401182, "lat": 27.31302, "lon": -80.40669, "tags": {"amenity": "charging_station", "fee": "yes", "access": "customers", "opening_hours": "24/7", "brand": "Tesla Supercharger", "network": "Supercharger", "operator": "Tesla, Inc.", "name": "Tesla Supercharger", "addr:street": "Northwest Peacock Boulevard", "addr:housenumber": "1701", "addr:postcode": "34986", "addr:city": "Port St. Lucie", "addr:country": "US", "capacity": "16", "_source": "worldwide"}}, {"type": "node", "id": 3725407305, "lat": 27.600724, "lon": -80.82285, "tags": {"amenity": "charging_station", "fee": "yes", "access": "customers", "opening_hours": "24/7", "brand": "Tesla Supercharger", "network": "Supercharger", "operator": "Tesla", "name": "Okeechobee Supercharger", "addr:street": "Florida's Turnpike", "addr:housenumber": "184", "addr:postcode": "34972", "addr:city": "Okeechobee", "addr:country": "US", "capacity": "10", "_source": "worldwide"}}, {"type": "node", "id": 12115609973, "lat": 27.41558, "lon": -80.39343, "tags": {"amenity": "charging_station", "fee": "yes", "access": "yes", "opening_hours": "24/7", "brand": "Tesla Supercharger", "network": "Supercharger", "operator": "Tesla, Inc.", "name": "Fort Pierce Supercharger", "addr:street": "Peters Road", "addr:housenumber": "2789", "addr:postcode": "34945", "addr:city": "Fort Pierce", "addr:country": "US", "capacity": "40", "_source": "worldwide"}}, {"type": "node", "id": 12241873827, "lat": 27.64018, "lon": -80.51351, "tags": {"amenity": "charging_station", "fee": "yes", "access": "yes", "opening_hours": "24/7", "brand": "Tesla Supercharger", "network": "Supercharger", "operator": "Tesla, Inc.", "name": "Vero Beach Supercharger", "addr:street": "20th Street", "addr:housenumber": "9050", "addr:postcode": "32966", "addr:city": "Vero Beach", "addr:country": "US", "capacity": "8", "_source": "worldwide"}}, {"type": "node", "id": 12242196554, "lat": 27.41682, "lon": -80.3819, "tags": {"amenity": "charging_station", "fee": "yes", "access": "yes", "opening_hours": "24/7", "brand": "Tesla Supercharger", "network": "Supercharger", "operator": "Tesla, Inc.", "name": "Fort Pierce Supercharger", "addr:street": "Okeechobee Road", "addr:housenumber": "5575", "addr:postcode": "34749", "addr:city": "Fort Pierce", "addr:country": "US", "capacity": "8", "_source": "worldwide"}}, {"type": "node", "id": 12923431495, "lat": 27.17552, "lon": -80.25253, "tags": {"amenity": "charging_station", "fee": "yes", "access": "yes", "opening_hours": "24/7", "brand": "Tesla Supercharger", "network": "Supercharger", "operator": "Tesla, Inc.", "name": "Tesla Supercharger", "addr:street": "South Kanner Highway", "addr:housenumber": "2401", "addr:postcode": "34994", "addr:city": "Stuart", "addr:country": "US", "capacity": "8", "_source": "worldwide"}}, {"type": "node", "id": 12923488210, "lat": 27.64007, "lon": -80.44686, "tags": {"amenity": "charging_station", "fee": "yes", "access": "yes", "opening_hours": "24/7", "brand": "Tesla Supercharger", "network": "Supercharger", "operator": "Tesla, Inc.", "name": "Tesla Supercharger", "addr:street": "20th Street", "addr:housenumber": "5800", "addr:postcode": "32966", "addr:city": "Vero Beach", "addr:country": "US", "capacity": "16", "_source": "worldwide"}}, {"type": "node", "id": 12923488217, "lat": 27.44655, "lon": -80.3994, "tags": {"amenity": "charging_station", "fee": "yes", "access": "yes", "opening_hours": "24/7", "brand": "Tesla Supercharger", "network": "Supercharger", "operator": "Tesla, Inc.", "name": "Fort Pierce Supercharger", "addr:street": "South Kings Highway", "addr:housenumber": "121", "addr:postcode": "34945", "addr:city": "Fort Pierce", "addr:country": "US", "capacity": "8", "_source": "worldwide"}}, {"type": "node", "id": 12923488218, "lat": 27.24459, "lon": -80.83124, "tags": {"amenity": "charging_station", "fee": "yes", "access": "yes", "opening_hours": "24/7", "brand": "Tesla Supercharger", "network": "Supercharger", "operator": "Tesla, Inc.", "name": "Lake Okeechobee Supercharger", "addr:street": "Northwest Park Street", "addr:housenumber": "200", "addr:postcode": "34972", "addr:city": "Okeechobee", "addr:country": "US", "capacity": "8", "_source": "worldwide"}}, {"type": "node", "id": 12923488229, "lat": 27.76788, "lon": -80.54957, "tags": {"amenity": "charging_station", "fee": "yes", "access": "yes", "opening_hours": "24/7", "brand": "Tesla Supercharger", "network": "Supercharger", "operator": "Tesla, Inc.", "name": "Sebastian Supercharger", "addr:street": "Fellsmere Road", "addr:housenumber": "10950", "addr:postcode": "32958", "addr:city": "Sebastian", "addr:country": "US", "capacity": "8", "_source": "worldwide"}}, {"type": "node", "id": 12923488262, "lat": 27.30009, "lon": -80.37207, "tags": {"amenity": "charging_station", "fee": "yes", "access": "yes", "opening_hours": "24/7", "brand": "Tesla Supercharger", "network": "Supercharger", "operator": "Tesla, Inc.", "name": "Tesla Supercharger", "addr:postcode": "34984", "addr:city": "Port St. Lucie", "addr:country": "US", "capacity": "16", "_source": "worldwide"}}, {"type": "node", "id": 13246294502, "lat": 27.102693, "lon": -80.251954, "tags": {"amenity": "charging_station", "name": "EV Charging Station", "_source": "worldwide"}}, {"type": "node", "id": 13246318206, "lat": 27.109768, "lon": -80.285937, "tags": {"amenity": "charging_station", "name": "EV Charging Station", "_source": "worldwide"}}, {"type": "node", "id": 13398584301, "lat": 27.600772, "lon": -80.822715, "tags": {"amenity": "charging_station", "name": "EV Charging Station", "_source": "worldwide"}}, {"type": "node", "id": 13398584304, "lat": 27.600663, "lon": -80.822633, "tags": {"amenity": "charging_station", "name": "Fpl Evolution", "_source": "worldwide"}}, {"type": "node", "id": 13398584316, "lat": 27.60083, "lon": -80.822759, "tags": {"amenity": "charging_station", "name": "EV Charging Station", "_source": "worldwide"}}, {"type": "node", "id": 13667902303, "lat": 27.111071, "lon": -80.25928, "tags": {"amenity": "charging_station", "fee": "yes", "access": "yes", "opening_hours": "24/7", "brand": "Tesla Supercharger", "network": "Supercharger", "operator": "Tesla", "name": "Tesla Supercharger", "_source": "worldwide"}}]}