{"id": "51--1", "latMin": 51, "lonMin": -1, "latMax": 52, "lonMax": 0, "generated": "2026-04-16T18:39:08.411Z", "count": 227, "pois": [{"type": "node", "id": 2729002024, "lat": 51.574796, "lon": -1.832237, "tags": {"amenity": "charging_station", "addr:country": "GB", "_source": "worldwide"}}, {"type": "node", "id": 3262464561, "lat": 51.561692, "lon": -1.781454, "tags": {"amenity": "charging_station", "fee": "no", "opening_hours": "24/7", "operator": "Swindon Borough Council", "name": "Ladestation Swindon Borough Council", "addr:country": "GB", "socket:type2": "2", "socket:type2:output": "22 kW", "charging_station:output": "22 kW", "capacity": "2", "_source": "worldwide"}}, {"type": "node", "id": 13206615237, "lat": 51.559946, "lon": -1.789495, "tags": {"amenity": "charging_station", "access": "yes", "fee": "yes", "brand": "Blink", "operator": "Blink", "name": "Milton Road", "addr:country": "GB", "socket:type2": "4", "socket:type2:output": "22.0 kW", "charging_station:output": "22.0 kW", "capacity": "4", "_source": "worldwide"}}, {"type": "node", "id": 3668540255, "lat": 51.290467, "lon": -1.425087, "tags": {"amenity": "charging_station", "addr:country": "FR", "_source": "worldwide"}}, {"type": "node", "id": 3993644118, "lat": 51.73735, "lon": -1.09487, "tags": {"amenity": "charging_station", "access": "customers", "fee": "yes", "brand": "Tesla Supercharger", "opening_hours": "24/7", "operator": "Tesla", "name": "Oxford Supercharger", "addr:postcode": "OX33 1LJ", "addr:city": "Oxford", "addr:country": "GB", "socket:type2_combo": "16", "socket:type2_combo:output": "150.0 kW", "socket:tesla_supercharger": "16", "socket:tesla_supercharger:output": "150.0 kW", "charging_station:output": "150.0 kW", "capacity": "16", "_source": "worldwide"}}, {"type": "node", "id": 1395247715, "lat": 51.738425, "lon": -1.096462, "tags": {"amenity": "charging_station", "access": "yes", "fee": "yes", "brand": "Gridserve", "opening_hours": "24/7", "operator": "Gridserve", "name": "Gridserve", "addr:postcode": "OX33 1LJ", "addr:city": "Waterstock", "socket:type2": "2", "socket:type2:output": "22.0 kW", "socket:type2_combo": "2", "socket:type2_combo:output": "50.0 kW", "socket:chademo": "2", "socket:chademo:output": "50.0 kW", "charging_station:output": "50.0 kW", "_source": "worldwide"}}, {"type": "node", "id": 3993725659, "lat": 51.167245, "lon": -1.328001, "tags": {"amenity": "charging_station", "access": "customers", "fee": "yes", "brand": "Tesla Supercharger", "opening_hours": "24/7", "operator": "Tesla", "name": "Winchester - Norton Park Supercharger", "addr:country": "FR", "socket:type2_combo": "2", "socket:type2_combo:output": "150.0 kW", "socket:tesla_supercharger": "2", "socket:tesla_supercharger:output": "150.0 kW", "charging_station:output": "150.0 kW", "capacity": "2", "_source": "worldwide"}}, {"type": "node", "id": 4783491839, "lat": 51.275114, "lon": -1.104127, "tags": {"amenity": "charging_station", "operator": "Nissan", "name": "Nissan", "addr:country": "FR", "_source": "worldwide"}}, {"type": "node", "id": 4804286908, "lat": 51.263615, "lon": -1.085393, "tags": {"amenity": "charging_station", "name": "Polar", "addr:country": "FR", "_source": "worldwide"}}, {"type": "node", "id": 9537003031, "lat": 51.262952, "lon": -1.08586, "tags": {"amenity": "charging_station", "addr:country": "FR", "_source": "worldwide"}}, {"type": "node", "id": 4823512810, "lat": 51.799557, "lon": -1.539628, "tags": {"amenity": "charging_station", "operator": "Pod Point", "name": "Pod Point - pod point", "addr:country": "GB", "capacity": "2", "_source": "worldwide"}}, {"type": "node", "id": 4841852614, "lat": 51.172283, "lon": -1.779723, "tags": {"amenity": "charging_station", "fee": "yes", "brand": "BP Pulse", "operator": "BP Pulse", "name": "BP Pulse - BP Pulse", "addr:country": "FR", "capacity": "2", "_source": "worldwide"}}, {"type": "node", "id": 5302339828, "lat": 51.91855, "lon": -1.16172, "tags": {"amenity": "charging_station", "operator": "ChargeMaster", "name": "ChargeMaster - chargemaster", "addr:country": "GB", "capacity": "2", "_source": "worldwide"}}, {"type": "node", "id": 5302339857, "lat": 51.918932, "lon": -1.159309, "tags": {"amenity": "charging_station", "fee": "yes", "operator": "BP Pulse", "name": "Ladestation BP Pulse", "addr:country": "GB", "capacity": "4", "_source": "worldwide"}}, {"type": "node", "id": 5339399531, "lat": 51.892616, "lon": -1.150536, "tags": {"amenity": "charging_station", "addr:country": "GB", "_source": "worldwide"}}, {"type": "node", "id": 7476357228, "lat": 51.893099, "lon": -1.150501, "tags": {"amenity": "charging_station", "addr:country": "GB", "_source": "worldwide"}}, {"type": "node", "id": 5407351747, "lat": 51.761457, "lon": -1.210861, "tags": {"amenity": "charging_station", "operator": "POLAR", "name": "Ladestation POLAR", "addr:country": "GB", "capacity": "8", "_source": "worldwide"}}, {"type": "node", "id": 8155009366, "lat": 51.758524, "lon": -1.217255, "tags": {"amenity": "charging_station", "operator": "EZCharge", "name": "Ladestation EZCharge", "addr:country": "GB", "capacity": "2", "_source": "worldwide"}}, {"type": "node", "id": 5590279973, "lat": 51.465114, "lon": -1.107725, "tags": {"amenity": "charging_station", "operator": "PR Motors", "name": "Ladestation PR Motors", "addr:country": "FR", "capacity": "1", "_source": "worldwide"}}, {"type": "node", "id": 6147898670, "lat": 51.726304, "lon": -1.231033, "tags": {"amenity": "charging_station", "addr:country": "GB", "capacity": "2", "_source": "worldwide"}}, {"type": "node", "id": 6147901150, "lat": 51.762297, "lon": -1.181941, "tags": {"amenity": "charging_station", "fee": "yes", "brand": "BP Pulse", "operator": "BP Pulse", "name": "BP Pulse - BP Pulse", "addr:country": "GB", "capacity": "2", "_source": "worldwide"}}, {"type": "node", "id": 6711720306, "lat": 51.621972, "lon": -1.284937, "tags": {"amenity": "charging_station", "access": "visitors", "operator": "Milton Park", "name": "Pod Point outside building 142, Milton Park", "addr:country": "GB", "capacity": "6", "_source": "worldwide"}}, {"type": "node", "id": 6711720307, "lat": 51.62202, "lon": -1.287099, "tags": {"amenity": "charging_station", "access": "visitors", "fee": "yes", "operator": "Milton Park, Pod Point", "name": "EVCP, Pod Point outside 141 Milton Park", "addr:country": "GB", "capacity": "6", "_source": "worldwide"}}, {"type": "node", "id": 1027563027, "lat": 51.621, "lon": -1.293438, "tags": {"amenity": "charging_station", "access": "customers", "operator": "Milton Park - Pod Point", "name": "EVCP - Pod Point", "addr:country": "GB", "capacity": "2", "_source": "worldwide"}}, {"type": "node", "id": 6711720334, "lat": 51.622323, "lon": -1.29831, "tags": {"amenity": "charging_station", "access": "guests", "operator": "Milton Park", "name": "ECVP Pod Point", "addr:country": "GB", "capacity": "2", "_source": "worldwide"}}, {"type": "node", "id": 6711720363, "lat": 51.624004, "lon": -1.296578, "tags": {"amenity": "charging_station", "access": "customers", "operator": "Milton Park - Pod Point", "name": "EVCP - Pod Point", "addr:country": "GB", "capacity": "2", "_source": "worldwide"}}, {"type": "node", "id": 6711720364, "lat": 51.623215, "lon": -1.302355, "tags": {"amenity": "charging_station", "access": "customers", "operator": "Mlton Park - Pod Point", "name": "EVCP - Pod Point", "addr:country": "GB", "capacity": "2", "_source": "worldwide"}}, {"type": "node", "id": 6853464274, "lat": 51.887417, "lon": -1.165517, "tags": {"amenity": "charging_station", "operator": "pod", "name": "Myler-Olaf PG-82515", "addr:country": "GB", "capacity": "2", "authentication:none": "", "_source": "worldwide"}}, {"type": "node", "id": 7257350926, "lat": 51.597534, "lon": -1.13702, "tags": {"amenity": "charging_station", "addr:country": "GB", "_source": "worldwide"}}, {"type": "node", "id": 7476357231, "lat": 51.57474, "lon": -1.314749, "tags": {"amenity": "charging_station", "operator": "eVolt", "name": "Ladestation eVolt", "addr:country": "GB", "_source": "worldwide"}}, {"type": "node", "id": 7503957055, "lat": 51.893123, "lon": -1.161288, "tags": {"amenity": "charging_station", "fee": "yes", "operator": "Enel X", "name": "Enel X - enelx", "addr:country": "GB", "capacity": "2", "_source": "worldwide"}}, {"type": "node", "id": 10262405209, "lat": 51.890996, "lon": -1.159836, "tags": {"amenity": "charging_station", "operator": "Pod Point", "name": "Pod", "addr:country": "GB", "_source": "worldwide"}}, {"type": "node", "id": 7966563479, "lat": 51.396692, "lon": -1.326935, "tags": {"amenity": "charging_station", "access": "yes", "fee": "yes", "brand": "ubitricity", "operator": "ubitricity", "name": "ubitricity", "addr:country": "FR", "socket:type2": "1", "socket:type2:output": "22 kW", "charging_station:output": "22 kW", "capacity": "1", "authentication:none": "", "_source": "worldwide"}}, {"type": "node", "id": 1448435448, "lat": 51.39792, "lon": -1.324216, "tags": {"amenity": "charging_station", "fee": "yes", "brand": "bp pulse", "operator": "bp pulse", "name": "bp pulse - bp pulse", "addr:country": "FR", "socket:type2": "4", "socket:type2:output": "7.0 kW", "charging_station:output": "7.0 kW", "capacity": "4", "_source": "worldwide"}}, {"type": "node", "id": 8220158857, "lat": 51.773604, "lon": -1.493057, "tags": {"amenity": "charging_station", "addr:country": "GB", "capacity": "2", "_source": "worldwide"}}, {"type": "node", "id": 13228669502, "lat": 51.777032, "lon": -1.487078, "tags": {"amenity": "charging_station", "access": "private", "addr:country": "GB", "_source": "worldwide"}}, {"type": "node", "id": 8306178791, "lat": 51.436843, "lon": -1.067977, "tags": {"amenity": "charging_station", "brand": "ChargePoint", "operator": "ChargePoint", "name": "ChargePoint", "addr:country": "FR", "socket:type2": "5", "socket:type2:output": "22 kW", "charging_station:output": "22 kW", "capacity": "5", "_source": "worldwide"}}, {"type": "node", "id": 13016260860, "lat": 51.434307, "lon": -1.073617, "tags": {"amenity": "charging_station", "access": "permissive", "fee": "yes", "brand": "Roam", "name": "Ladestation Roam", "addr:country": "FR", "socket:type2": "4", "socket:type2:output": "22.0 kW", "charging_station:output": "22.0 kW", "_source": "worldwide"}}, {"type": "node", "id": 8372096806, "lat": 51.921793, "lon": -1.161392, "tags": {"amenity": "charging_station", "fee": "yes", "operator": "BP ChargeMaster", "name": "Ladestation BP ChargeMaster", "addr:country": "GB", "capacity": "2", "_source": "worldwide"}}, {"type": "node", "id": 8483127538, "lat": 51.595965, "lon": -1.806457, "tags": {"amenity": "charging_station", "access": "yes", "brand": "Pod Point", "operator": "Pod Point", "name": "Pod Point - Pod Point", "addr:country": "GB", "capacity": "4", "_source": "worldwide"}}, {"type": "node", "id": 13204548198, "lat": 51.594631, "lon": -1.80551, "tags": {"amenity": "charging_station", "access": "yes", "fee": "yes", "brand": "Osprey", "operator": "Osprey", "name": "Manor Farm", "addr:country": "GB", "socket:type2": "1", "socket:type2:output": "22.0 kW", "socket:type2_combo": "3", "socket:type2_combo:output": "160.0 kW", "socket:chademo": "1", "socket:chademo:output": "50.0 kW", "charging_station:output": "160.0 kW", "capacity": "5", "_source": "worldwide"}}, {"type": "node", "id": 8483127539, "lat": 51.598945, "lon": -1.809169, "tags": {"amenity": "charging_station", "access": "yes", "brand": "Pod Point", "operator": "Pod Point", "name": "Pod Point - Pod Point", "addr:country": "GB", "capacity": "4", "_source": "worldwide"}}, {"type": "node", "id": 8483127540, "lat": 51.598467, "lon": -1.809557, "tags": {"amenity": "charging_station", "access": "yes", "fee": "yes", "brand": "Pod Point", "operator": "Pod Point", "name": "Pod Point - Pod Point", "addr:country": "GB", "socket:type2": "2", "socket:type2:output": "3.0 kW", "charging_station:output": "3.0 kW", "capacity": "2", "_source": "worldwide"}}, {"type": "node", "id": 8483127541, "lat": 51.598282, "lon": -1.807125, "tags": {"amenity": "charging_station", "access": "yes", "brand": "Pod Point", "operator": "Pod Point", "name": "Pod Point - Pod Point", "addr:country": "GB", "capacity": "6", "_source": "worldwide"}}, {"type": "node", "id": 8553682764, "lat": 51.545212, "lon": -1.742353, "tags": {"amenity": "charging_station", "access": "yes", "fee": "yes", "brand": "bp pulse", "network": "BP Pulse", "opening_hours": "24/7", "operator": "bp pulse", "name": "Coate SF Connect", "addr:country": "GB", "socket:type2_combo": "2", "socket:type2_combo:output": "150.0 kW", "socket:chademo": "2", "socket:chademo:output": "100.0 kW", "charging_station:output": "150.0 kW", "capacity": "2", "_source": "worldwide"}}, {"type": "node", "id": 9130486996, "lat": 51.545639, "lon": -1.741907, "tags": {"amenity": "charging_station", "access": "no", "fee": "yes", "brand": "bp pulse", "operator": "bp pulse", "name": "Holiday Inn Swindon", "addr:country": "GB", "capacity": "2", "_source": "worldwide"}}, {"type": "node", "id": 8688245749, "lat": 51.746779, "lon": -1.23272, "tags": {"amenity": "charging_station", "operator": "blink", "name": "Ladestation blink", "addr:country": "GB", "capacity": "4", "_source": "worldwide"}}, {"type": "node", "id": 11897228268, "lat": 51.750354, "lon": -1.236705, "tags": {"amenity": "charging_station", "fee": "yes", "brand": "Project EV", "name": "Ladestation Project EV", "addr:country": "GB", "capacity": "2", "_source": "worldwide"}}, {"type": "node", "id": 8690099752, "lat": 51.672377, "lon": -1.278529, "tags": {"amenity": "charging_station", "access": "yes", "fee": "yes", "operator": "BP Pulse", "name": "Ladestation BP Pulse", "addr:country": "GB", "capacity": "2", "_source": "worldwide"}}, {"type": "node", "id": 9858109115, "lat": 51.67263, "lon": -1.276029, "tags": {"amenity": "charging_station", "fee": "yes", "operator": "Park & Charge Oxfordshire", "name": "Ladestation Park & Charge Oxfordshire", "addr:country": "GB", "capacity": "16", "_source": "worldwide"}}, {"type": "node", "id": 9858146929, "lat": 51.671363, "lon": -1.279122, "tags": {"amenity": "charging_station", "fee": "yes", "operator": "Park & Charge Oxfordshire", "name": "Ladestation Park & Charge Oxfordshire", "addr:country": "GB", "capacity": "10", "_source": "worldwide"}}, {"type": "node", "id": 8691273830, "lat": 51.667503, "lon": -1.308549, "tags": {"amenity": "charging_station", "access": "yes", "fee": "yes", "operator": "Pod Point", "name": "Ladestation Pod Point", "addr:country": "GB", "capacity": "4", "_source": "worldwide"}}, {"type": "node", "id": 8952137032, "lat": 51.736023, "lon": -1.254363, "tags": {"amenity": "charging_station", "addr:country": "GB", "capacity": "2", "_source": "worldwide"}}, {"type": "node", "id": 9011778124, "lat": 51.817724, "lon": -1.273059, "tags": {"amenity": "charging_station", "access": "yes", "fee": "yes", "operator": "BP Pulse", "name": "Miller & Carter Kidlington", "addr:country": "GB", "capacity": "1", "_source": "worldwide"}}, {"type": "node", "id": 9134839028, "lat": 51.748922, "lon": -1.226952, "tags": {"amenity": "charging_station", "operator": "EZ Charge", "name": "Ladestation EZ Charge", "addr:country": "GB", "capacity": "1", "_source": "worldwide"}}, {"type": "node", "id": 12512290829, "lat": 51.749179, "lon": -1.224153, "tags": {"amenity": "charging_station", "operator": "EZ-Charge", "name": "Ladestation EZ-Charge", "addr:country": "GB", "capacity": "2", "_source": "worldwide"}}, {"type": "node", "id": 9139165886, "lat": 51.053853, "lon": -1.305707, "tags": {"amenity": "charging_station", "addr:country": "FR", "_source": "worldwide"}}, {"type": "node", "id": 9140651783, "lat": 51.055077, "lon": -1.304104, "tags": {"amenity": "charging_station", "access": "yes", "brand": "Mer", "operator": "Mer", "name": "Mer Charging Station", "addr:country": "FR", "capacity": "4", "_source": "worldwide"}}, {"type": "node", "id": 11034763954, "lat": 51.054543, "lon": -1.307225, "tags": {"amenity": "charging_station", "access": "yes", "brand": "Mer", "operator": "Mer", "name": "Mer", "addr:country": "FR", "capacity": "8", "_source": "worldwide"}}, {"type": "node", "id": 9144279581, "lat": 51.933905, "lon": -1.722657, "tags": {"amenity": "charging_station", "operator": "Pod Point", "name": "Ladestation Pod Point", "addr:country": "GB", "_source": "worldwide"}}, {"type": "node", "id": 9176406552, "lat": 51.440822, "lon": -1.064244, "tags": {"amenity": "charging_station", "access": "yes", "fee": "yes", "operator": "Porsche", "name": "Ladestation Porsche", "addr:country": "FR", "socket:type2_combo": "2", "socket:type2_combo:output": "50 kW", "charging_station:output": "50 kW", "capacity": "2", "_source": "worldwide"}}, {"type": "node", "id": 12574243735, "lat": 51.442256, "lon": -1.061043, "tags": {"amenity": "charging_station", "access": "yes", "fee": "yes", "brand": "Smart Charge", "operator": "Sainsbury's", "name": "Sainsbury's - Smart Charge", "addr:country": "FR", "socket:type2_combo": "8", "socket:type2_combo:output": "150.0 kW", "socket:chademo": "1", "socket:chademo:output": "30.0 kW", "charging_station:output": "150.0 kW", "capacity": "8", "_source": "worldwide"}}, {"type": "node", "id": 12914845002, "lat": 51.441585, "lon": -1.065328, "tags": {"amenity": "charging_station", "fee": "yes", "brand": "Gridserve", "opening_hours": "24/7", "operator": "Gridserve", "name": "Gridserve", "addr:postcode": "RG31 7SG", "addr:city": "Reading", "socket:type2": "2", "socket:type2:output": "22.0 kW", "socket:type2_combo": "5", "socket:type2_combo:output": "40.0 kW", "socket:chademo": "1", "socket:chademo:output": "40.0 kW", "charging_station:output": "40.0 kW", "capacity": "8", "_source": "worldwide"}}, {"type": "node", "id": 9349520009, "lat": 51.483841, "lon": -1.087907, "tags": {"amenity": "charging_station", "fee": "yes", "operator": "West Berks Council", "name": "Station Road Car Park charging point", "addr:country": "FR", "capacity": "2", "_source": "worldwide"}}, {"type": "node", "id": 9567829827, "lat": 51.898779, "lon": -1.147628, "tags": {"amenity": "charging_station", "access": "yes", "fee": "yes", "operator": "EZ-Charge", "name": "7kW Cattle Market Car Park", "addr:country": "GB", "capacity": "10", "_source": "worldwide"}}, {"type": "node", "id": 9661166952, "lat": 51.729543, "lon": -1.248959, "tags": {"amenity": "charging_station", "access": "yes", "fee": "yes", "opening_hours": "24/7", "operator": "Fastned", "name": "Fastned Red Bridge Park & Ride", "addr:country": "GB", "socket:type2_combo": "10", "socket:type2_combo:output": "300.0 kW", "socket:chademo": "3", "socket:chademo:output": "50.0 kW", "charging_station:output": "300.0 kW", "capacity": "10", "_source": "worldwide"}}, {"type": "node", "id": 9689259217, "lat": 51.726921, "lon": -1.195589, "tags": {"amenity": "charging_station", "addr:country": "GB", "_source": "worldwide"}}, {"type": "node", "id": 9689329817, "lat": 51.669724, "lon": -1.305908, "tags": {"amenity": "charging_station", "addr:country": "GB", "capacity": "4", "_source": "worldwide"}}, {"type": "node", "id": 9703889466, "lat": 51.512661, "lon": -1.723463, "tags": {"amenity": "charging_station", "access": "yes", "fee": "yes", "operator": "InstaVolt", "name": "Three Trees Farm Shop & Cafe", "addr:country": "GB", "socket:type2_combo": "4", "socket:type2_combo:output": "120.0 kW", "socket:chademo": "4", "socket:chademo:output": "60.0 kW", "charging_station:output": "120.0 kW", "capacity": "4", "_source": "worldwide"}}, {"type": "node", "id": 9733016595, "lat": 51.383698, "lon": -1.322043, "tags": {"amenity": "charging_station", "access": "customers", "addr:country": "FR", "capacity": "3", "_source": "worldwide"}}, {"type": "node", "id": 9734808983, "lat": 51.943898, "lon": -1.53623, "tags": {"amenity": "charging_station", "access": "yes", "fee": "yes", "brand": "bp pulse", "operator": "bp pulse", "name": "bp pulse - bp pulse", "addr:country": "GB", "capacity": "2", "_source": "worldwide"}}, {"type": "node", "id": 9755535989, "lat": 51.785818, "lon": -1.519746, "tags": {"amenity": "charging_station", "addr:country": "GB", "_source": "worldwide"}}, {"type": "node", "id": 9812980752, "lat": 51.567982, "lon": -1.773314, "tags": {"amenity": "charging_station", "access": "yes", "fee": "yes", "operator": "InstaVolt", "name": "Colbourne Street", "addr:country": "GB", "socket:type2_combo": "5", "socket:type2_combo:output": "160.0 kW", "socket:chademo": "5", "socket:chademo:output": "60.0 kW", "charging_station:output": "160.0 kW", "capacity": "5", "_source": "worldwide"}}, {"type": "node", "id": 11889494031, "lat": 51.568947, "lon": -1.779081, "tags": {"amenity": "charging_station", "access": "yes", "fee": "yes", "operator": "InstaVolt", "name": "McDonald's Cockleberry", "addr:country": "GB", "socket:type2": "2", "socket:type2:output": "160.0 kW", "socket:chademo": "2", "socket:chademo:output": "60.0 kW", "charging_station:output": "160.0 kW", "capacity": "2", "_source": "worldwide"}}, {"type": "node", "id": 13203647436, "lat": 51.564691, "lon": -1.775984, "tags": {"amenity": "charging_station", "access": "yes", "fee": "yes", "brand": "Blink", "operator": "Blink", "name": "Broad Street", "addr:country": "GB", "socket:type2": "2", "socket:type2:output": "22.0 kW", "charging_station:output": "22.0 kW", "capacity": "2", "_source": "worldwide"}}, {"type": "node", "id": 13206561196, "lat": 51.568299, "lon": -1.7708, "tags": {"amenity": "charging_station", "access": "yes", "fee": "yes", "brand": "Pod Point", "operator": "Pod Point", "name": "Tesco Extra - Swindon", "addr:country": "GB", "socket:type2": "4", "socket:type2:output": "7.0 kW", "charging_station:output": "7.0 kW", "capacity": "4", "_source": "worldwide"}}, {"type": "node", "id": 9825163897, "lat": 51.586793, "lon": -1.427858, "tags": {"amenity": "charging_station", "fee": "yes", "operator": "EZ Charge", "name": "Wantage - Portway", "addr:country": "GB", "socket:type2": "2", "socket:type2:output": "22.0 kW", "charging_station:output": "22.0 kW", "_source": "worldwide"}}, {"type": "node", "id": 9858116420, "lat": 51.940537, "lon": -1.547621, "tags": {"amenity": "charging_station", "fee": "yes", "brand": "EZCharge", "operator": "Park & Charge Oxfordshire", "name": "Chipping Norton - New Street", "addr:country": "GB", "capacity": "12", "_source": "worldwide"}}, {"type": "node", "id": 9858137891, "lat": 51.668529, "lon": -1.284149, "tags": {"amenity": "charging_station", "fee": "yes", "operator": "Park & Charge Oxfordshire", "name": "Ladestation Park & Charge Oxfordshire", "addr:country": "GB", "capacity": "12", "_source": "worldwide"}}, {"type": "node", "id": 9858228319, "lat": 51.758084, "lon": -1.595574, "tags": {"amenity": "charging_station", "fee": "yes", "operator": "Park & Charge Oxfordshire", "name": "Ladestation Park & Charge Oxfordshire", "addr:country": "GB", "capacity": "12", "_source": "worldwide"}}, {"type": "node", "id": 9858232279, "lat": 51.78162, "lon": -1.376481, "tags": {"amenity": "charging_station", "fee": "yes", "operator": "Park & Charge Oxfordshire", "name": "Ladestation Park & Charge Oxfordshire", "addr:country": "GB", "capacity": "12", "_source": "worldwide"}}, {"type": "node", "id": 9858235656, "lat": 51.657568, "lon": -1.583986, "tags": {"amenity": "charging_station", "fee": "yes", "operator": "Park & Charge Oxfordshire", "name": "Ladestation Park & Charge Oxfordshire", "addr:country": "GB", "capacity": "12", "_source": "worldwide"}}, {"type": "node", "id": 9873996707, "lat": 51.540622, "lon": -1.787073, "tags": {"amenity": "charging_station", "access": "yes", "fee": "yes", "brand": "Osprey", "opening_hours": "24/7", "operator": "Osprey", "name": "The Wichel Inn", "addr:country": "GB", "socket:type2_combo": "2", "socket:type2_combo:output": "50.0 kW", "socket:chademo": "2", "socket:chademo:output": "50.0 kW", "charging_station:output": "50.0 kW", "capacity": "2", "_source": "worldwide"}}, {"type": "node", "id": 9901839696, "lat": 51.671939, "lon": -1.259355, "tags": {"amenity": "charging_station", "access": "customers", "addr:country": "GB", "capacity": "2", "_source": "worldwide"}}, {"type": "node", "id": 9904491093, "lat": 51.742673, "lon": -1.257226, "tags": {"amenity": "charging_station", "addr:country": "GB", "capacity": "2", "_source": "worldwide"}}, {"type": "node", "id": 9926434090, "lat": 51.177145, "lon": -1.756377, "tags": {"amenity": "charging_station", "access": "yes", "fee": "yes", "brand": "Tesla Supercharger", "opening_hours": "24/7", "operator": "Tesla", "name": "Amesbury Supercharger", "addr:street": "Mid Summer Place", "addr:city": "Amesbury", "addr:country": "GB", "socket:type2_combo": "16", "socket:type2_combo:output": "250.0 kW", "charging_station:output": "250.0 kW", "capacity": "16", "_source": "worldwide"}}, {"type": "node", "id": 9931685274, "lat": 51.657714, "lon": -1.225364, "tags": {"amenity": "charging_station", "access": "yes", "addr:country": "GB", "capacity": "2", "_source": "worldwide"}}, {"type": "node", "id": 9931774346, "lat": 51.067223, "lon": -1.299999, "tags": {"amenity": "charging_station", "access": "customers", "fee": "yes", "brand": "Tesla Supercharger", "opening_hours": "24/7", "operator": "Tesla", "name": "Winchester Supercharger", "addr:street": "Easton Lane", "addr:postcode": "SO23 7RR", "addr:city": "Winchester", "addr:country": "GB", "socket:type2_combo": "12", "socket:type2_combo:output": "250.0 kW", "charging_station:output": "250.0 kW", "capacity": "12", "_source": "worldwide"}}, {"type": "node", "id": 9939203545, "lat": 51.564673, "lon": -1.820607, "tags": {"amenity": "charging_station", "access": "customers", "brand": "ChargePoint", "operator": "ChargePoint", "name": "ChargePoint", "addr:country": "GB", "socket:type2": "4", "socket:type2:output": "22.0 kW", "charging_station:output": "22.0 kW", "capacity": "4", "_source": "worldwide"}}, {"type": "node", "id": 10008319012, "lat": 51.402987, "lon": -1.307274, "tags": {"amenity": "charging_station", "fee": "yes", "operator": "Pod Point", "name": "Lidl-Newbury", "addr:country": "FR", "socket:type2": "1", "socket:type2:output": "22 kW", "socket:type2_combo": "1", "socket:type2_combo:output": "50 kW", "socket:chademo": "1", "socket:chademo:output": "50 kW", "charging_station:output": "50 kW", "capacity": "2", "authentication:none": "", "_source": "worldwide"}}, {"type": "node", "id": 10253436150, "lat": 51.707853, "lon": -1.954771, "tags": {"amenity": "charging_station", "access": "customers", "fee": "yes", "opening_hours": "24/7", "operator": "Pod Point", "name": "Premier Inn - Cirencester", "addr:postcode": "GL7 1NP", "socket:type2": "2", "socket:type2:output": "7.4 kW", "charging_station:output": "7.4 kW", "capacity": "2", "_source": "worldwide"}}, {"type": "node", "id": 10253649441, "lat": 51.701546, "lon": -1.960952, "tags": {"amenity": "charging_station", "access": "private", "addr:country": "GB", "_source": "worldwide"}}, {"type": "node", "id": 10784860437, "lat": 51.823997, "lon": -1.368714, "tags": {"amenity": "charging_station", "name": "Project EV", "addr:country": "GB", "_source": "worldwide"}}, {"type": "node", "id": 10784964273, "lat": 51.824598, "lon": -1.369038, "tags": {"amenity": "charging_station", "name": "Project EV", "addr:country": "GB", "_source": "worldwide"}}, {"type": "node", "id": 10870814689, "lat": 51.408482, "lon": -1.33704, "tags": {"amenity": "charging_station", "operator": "Osprey", "name": "Ladestation Osprey", "addr:country": "FR", "capacity": "2", "_source": "worldwide"}}, {"type": "node", "id": 11006089653, "lat": 51.768233, "lon": -1.239575, "tags": {"amenity": "charging_station", "brand": "Rolec EV", "name": "Ladestation Rolec EV", "addr:country": "GB", "capacity": "1", "_source": "worldwide"}}, {"type": "node", "id": 11012366841, "lat": 51.613983, "lon": -1.778643, "tags": {"amenity": "charging_station", "access": "yes", "fee": "yes", "brand": "Charge My Street", "network": "Charge My Street", "operator": "Charge My Street", "name": "Blunsdon Community Shop and Cafe", "addr:country": "GB", "socket:type2": "1", "socket:type2:output": "7.0 kW", "charging_station:output": "7.0 kW", "capacity": "2", "authentication:none": "", "_source": "worldwide"}}, {"type": "node", "id": 11023002671, "lat": 51.563166, "lon": -1.79544, "tags": {"amenity": "charging_station", "addr:country": "GB", "_source": "worldwide"}}, {"type": "node", "id": 11033345930, "lat": 51.207593, "lon": -1.561297, "tags": {"amenity": "charging_station", "access": "yes", "fee": "yes", "brand": "Monza", "name": "Ladestation Monza", "addr:country": "FR", "capacity": "6", "_source": "worldwide"}}, {"type": "node", "id": 11099277677, "lat": 51.671868, "lon": -1.897727, "tags": {"amenity": "charging_station", "access": "customers", "fee": "yes", "brand": "bp pulse", "operator": "bp pulse", "name": "De Vere Hotel", "addr:country": "GB", "socket:type2": "2", "socket:type2:output": "7.0 kW", "charging_station:output": "7.0 kW", "capacity": "2", "_source": "worldwide"}}, {"type": "node", "id": 1155587419, "lat": 51.672402, "lon": -1.896989, "tags": {"amenity": "charging_station", "access": "yes", "fee": "yes", "brand": "Mer", "opening_hours": "24/7", "operator": "Mer", "name": "Cotswold Water Park Gateway Centre", "addr:country": "GB", "socket:type2": "2", "socket:type2:output": "22.0 kW", "socket:type2_combo": "4", "socket:type2_combo:output": "60.0 kW", "charging_station:output": "60.0 kW", "capacity": "6", "_source": "worldwide"}}, {"type": "node", "id": 11137321349, "lat": 51.717409, "lon": -1.229171, "tags": {"amenity": "charging_station", "fee": "yes", "operator": "cityEV", "name": "Ladestation cityEV", "addr:country": "GB", "_source": "worldwide"}}, {"type": "node", "id": 11152388684, "lat": 51.068912, "lon": -1.292913, "tags": {"amenity": "charging_station", "operator": "Pod Point", "name": "Ladestation Pod Point", "addr:country": "FR", "capacity": "5", "_source": "worldwide"}}, {"type": "node", "id": 11234498550, "lat": 51.707395, "lon": -1.962089, "tags": {"amenity": "charging_station", "access": "permit", "fee": "no", "opening_hours": "24/7", "operator": "Gloucestershire County Council", "name": "Cirencester Depot", "addr:country": "GB", "socket:type2": "1", "socket:type2:output": "22 kW", "charging_station:output": "22 kW", "capacity": "1", "authentication:none": "yes", "_source": "worldwide"}}, {"type": "node", "id": 1276553377, "lat": 51.71166, "lon": -1.966463, "tags": {"amenity": "charging_station", "access": "yes", "fee": "yes", "opening_hours": "24/7", "operator": "Connected Kerb", "name": "Trinity Road", "addr:country": "GB", "socket:type2": "8", "socket:type2:output": "7.0 kW", "charging_station:output": "7.0 kW", "capacity": "8", "_source": "worldwide"}}, {"type": "node", "id": 1352634178, "lat": 51.712569, "lon": -1.964708, "tags": {"amenity": "charging_station", "access": "yes", "fee": "yes", "opening_hours": "24/7", "operator": "Connected Kerb", "name": "Watermoor Road", "addr:country": "GB", "socket:type2": "4", "socket:type2:output": "7.0 kW", "charging_station:output": "7.0 kW", "capacity": "4", "_source": "worldwide"}}, {"type": "node", "id": 1392749750, "lat": 51.70798, "lon": -1.962049, "tags": {"amenity": "charging_station", "access": "private;customers", "name": "Batten & Allen", "addr:country": "GB", "capacity": "4", "_source": "worldwide"}}, {"type": "node", "id": 11246247417, "lat": 51.759538, "lon": -1.258633, "tags": {"amenity": "charging_station", "fee": "yes", "brand": "Blink", "name": "Ladestation Blink", "addr:country": "GB", "capacity": "2", "_source": "worldwide"}}, {"type": "node", "id": 11248391092, "lat": 51.702906, "lon": -1.957978, "tags": {"amenity": "charging_station", "access": "permit", "operator": "Cirencester Fabrication Services", "name": "Cirencester Fabrication Services", "addr:country": "GB", "socket:type2": "2", "socket:type2:output": "22 kW", "charging_station:output": "22 kW", "capacity": "2", "_source": "worldwide"}}, {"type": "node", "id": 11248391093, "lat": 51.70253, "lon": -1.956409, "tags": {"amenity": "charging_station", "access": "permit", "operator": "Cursey Technology", "name": "Cursey Technology", "addr:country": "GB", "capacity": "1", "_source": "worldwide"}}, {"type": "node", "id": 11270078947, "lat": 51.703795, "lon": -1.957962, "tags": {"amenity": "charging_station", "access": "permit", "name": "Broxton & Ermin", "addr:country": "GB", "socket:type2": "2", "socket:type2:output": "22 kW", "charging_station:output": "22 kW", "capacity": "2", "_source": "worldwide"}}, {"type": "node", "id": 1212363679, "lat": 51.705701, "lon": -1.959933, "tags": {"amenity": "charging_station", "access": "customers", "fee": "yes", "brand": "Lidl Plus", "opening_hours": "Mo-Sa 08:00-22:00; Su 09:30-16:00", "operator": "Lidl", "name": "Lidl - Cirencester", "addr:country": "GB", "socket:type2": "1", "socket:type2:output": "22.0 kW", "socket:type2_combo": "1", "socket:type2_combo:output": "50.0 kW", "socket:chademo": "1", "socket:chademo:output": "50.0 kW", "charging_station:output": "50.0 kW", "capacity": "2", "_source": "worldwide"}}, {"type": "node", "id": 1212598346, "lat": 51.70347, "lon": -1.960298, "tags": {"amenity": "charging_station", "access": "permit", "name": "Vestcon Comstor", "addr:country": "GB", "socket:type2": "6", "socket:type2:output": "22 kW", "charging_station:output": "22 kW", "capacity": "6", "_source": "worldwide"}}, {"type": "node", "id": 1392093756, "lat": 51.706986, "lon": -1.962322, "tags": {"amenity": "charging_station", "access": "customers", "operator": "Project EV", "name": "Suzuki Pebley Beach", "addr:country": "GB", "socket:type2": "2", "socket:type2:output": "22.0 kW", "charging_station:output": "22.0 kW", "capacity": "2", "_source": "worldwide"}}, {"type": "node", "id": 11248773844, "lat": 51.761039, "lon": -1.83509, "tags": {"amenity": "charging_station", "access": "customers", "fee": "yes", "operator": "Pod Point", "name": "The Swan Hotel", "addr:country": "GB", "capacity": "1", "_source": "worldwide"}}, {"type": "node", "id": 11455701087, "lat": 51.755167, "lon": -1.288317, "tags": {"amenity": "charging_station", "fee": "no", "operator": "Wenea", "name": "Ladestation Wenea", "addr:country": "GB", "_source": "worldwide"}}, {"type": "node", "id": 11810354740, "lat": 51.786189, "lon": -1.493427, "tags": {"amenity": "charging_station", "addr:country": "GB", "_source": "worldwide"}}, {"type": "node", "id": 11839226077, "lat": 51.557645, "lon": -1.813382, "tags": {"amenity": "charging_station", "access": "yes", "fee": "yes", "operator": "InstaVolt", "name": "Bridgemead Retail Park", "addr:postcode": "SN5 7YF", "socket:type2_combo": "2", "socket:type2_combo:output": "160.0 kW", "socket:chademo": "2", "socket:chademo:output": "60.0 kW", "charging_station:output": "160.0 kW", "capacity": "2", "_source": "worldwide"}}, {"type": "node", "id": 11839226079, "lat": 51.558997, "lon": -1.807582, "tags": {"amenity": "charging_station", "access": "customers", "operator": "Hyundai", "name": "Ladestation Hyundai", "addr:country": "GB", "socket:type2": "2", "socket:type2:output": "7.0 kW", "charging_station:output": "7.0 kW", "capacity": "2", "_source": "worldwide"}}, {"type": "node", "id": 11839226081, "lat": 51.561112, "lon": -1.813157, "tags": {"amenity": "charging_station", "access": "customers", "brand": "Pod Point", "operator": "Pod Point", "name": "Pod Point - Pod Point", "addr:country": "GB", "socket:type2": "2", "socket:type2:output": "6.9 kW", "charging_station:output": "6.9 kW", "capacity": "2", "_source": "worldwide"}}, {"type": "node", "id": 13112554218, "lat": 51.5607, "lon": -1.81394, "tags": {"amenity": "charging_station", "access": "yes", "fee": "yes", "operator": "InstaVolt", "name": "The Meads Roundabout", "addr:country": "GB", "socket:type2_combo": "2", "socket:type2_combo:output": "160.0 kW", "socket:chademo": "1", "socket:chademo:output": "60.0 kW", "charging_station:output": "160.0 kW", "capacity": "2", "_source": "worldwide"}}, {"type": "node", "id": 11839226082, "lat": 51.540576, "lon": -1.774943, "tags": {"amenity": "charging_station", "access": "private", "brand": "bp pulse", "operator": "bp pulse", "name": "bp pulse - bp pulse", "addr:country": "GB", "socket:type2": "8", "socket:type2:output": "7.2 kW", "charging_station:output": "7.2 kW", "capacity": "8", "_source": "worldwide"}}, {"type": "node", "id": 11839464474, "lat": 51.581665, "lon": -1.312963, "tags": {"amenity": "charging_station", "addr:country": "GB", "_source": "worldwide"}}, {"type": "node", "id": 11844943682, "lat": 51.556258, "lon": -1.733025, "tags": {"amenity": "charging_station", "access": "customers", "fee": "yes", "brand": "GeniePoint", "operator": "GeniePoint", "name": "GeniePoint - GeniePoint", "addr:country": "GB", "socket:type2": "1", "socket:type2:output": "22.0 kW", "socket:type2_combo": "1", "socket:type2_combo:output": "50.0 kW", "socket:chademo": "1", "socket:chademo:output": "50.0 kW", "charging_station:output": "50.0 kW", "capacity": "2", "_source": "worldwide"}}, {"type": "node", "id": 11876109866, "lat": 51.567923, "lon": -1.805488, "tags": {"amenity": "charging_station", "access": "yes", "fee": "yes", "brand": "Fastned", "operator": "Fastned", "name": "Barnfield Close", "addr:country": "GB", "socket:type2_combo": "4", "socket:type2_combo:output": "300.0 kW", "socket:chademo": "2", "socket:chademo:output": "50.0 kW", "charging_station:output": "300.0 kW", "capacity": "4", "_source": "worldwide"}}, {"type": "node", "id": 11889221327, "lat": 51.583883, "lon": -1.775514, "tags": {"amenity": "charging_station", "access": "yes", "fee": "yes", "operator": "InstaVolt", "name": "Clive Parade", "addr:country": "GB", "socket:type2_combo": "2", "socket:type2_combo:output": "120.0 kW", "socket:chademo": "2", "socket:chademo:output": "60.0 kW", "charging_station:output": "120.0 kW", "capacity": "2", "_source": "worldwide"}}, {"type": "node", "id": 11920365772, "lat": 51.558737, "lon": -1.81169, "tags": {"amenity": "charging_station", "access": "customers", "fee": "yes", "brand": "Smart Charge", "opening_hours": "24/7", "operator": "Sainsbury's", "name": "Sainsbury's Bridgemead", "addr:country": "GB", "capacity": "6", "_source": "worldwide"}}, {"type": "node", "id": 12405399668, "lat": 51.55542, "lon": -1.809713, "tags": {"amenity": "charging_station", "access": "customers", "name": "Fish Brothers Toyota", "addr:country": "GB", "socket:type2": "2", "socket:type2:output": "7.0 kW", "charging_station:output": "7.0 kW", "capacity": "2", "_source": "worldwide"}}, {"type": "node", "id": 12405399689, "lat": 51.558263, "lon": -1.807444, "tags": {"amenity": "charging_station", "access": "customers", "operator": "Renault", "name": "Fish Brothers Renault Swindon", "addr:country": "GB", "socket:type2": "2", "socket:type2:output": "7.0 kW", "charging_station:output": "7.0 kW", "capacity": "2", "_source": "worldwide"}}, {"type": "node", "id": 11932569790, "lat": 51.682166, "lon": -1.273074, "tags": {"amenity": "charging_station", "addr:country": "GB", "_source": "worldwide"}}, {"type": "node", "id": 12000532197, "lat": 51.642783, "lon": -1.866703, "tags": {"amenity": "charging_station", "operator": "bp", "name": "Ladestation bp", "addr:country": "GB", "capacity": "2", "_source": "worldwide"}}, {"type": "node", "id": 12036241962, "lat": 51.085735, "lon": -1.775765, "tags": {"amenity": "charging_station", "access": "yes", "fee": "yes", "brand": "BP Pulse", "operator": "BP Pulse", "name": "BP Pulse - BP Pulse", "addr:country": "FR", "socket:type2_combo": "2", "socket:type2_combo:output": "150.0 kW", "charging_station:output": "150.0 kW", "_source": "worldwide"}}, {"type": "node", "id": 12053673616, "lat": 51.787014, "lon": -1.482317, "tags": {"amenity": "charging_station", "operator": "Connected Kerb", "name": "Connected Kerb", "addr:country": "GB", "capacity": "2", "_source": "worldwide"}}, {"type": "node", "id": 12078842155, "lat": 51.382949, "lon": -1.31904, "tags": {"amenity": "charging_station", "access": "yes", "fee": "yes", "operator": "Pod Point", "name": "Ladestation Pod Point", "addr:country": "FR", "capacity": "3", "_source": "worldwide"}}, {"type": "node", "id": 12127556524, "lat": 51.553725, "lon": -1.788772, "tags": {"amenity": "charging_station", "access": "yes", "brand": "Blink", "operator": "Blink", "name": "Blink", "addr:country": "GB", "capacity": "2", "_source": "worldwide"}}, {"type": "node", "id": 13123656982, "lat": 51.553838, "lon": -1.787885, "tags": {"amenity": "charging_station", "access": "yes", "fee": "yes", "brand": "Blink", "operator": "Blink", "name": "St Saviour's Church", "addr:country": "GB", "socket:type2": "2", "socket:type2:output": "22.0 kW", "charging_station:output": "22.0 kW", "capacity": "2", "_source": "worldwide"}}, {"type": "node", "id": 13203657053, "lat": 51.557156, "lon": -1.783006, "tags": {"amenity": "charging_station", "access": "yes", "fee": "yes", "brand": "Blink", "operator": "Blink", "name": "Dixon Street", "addr:country": "GB", "capacity": "2", "_source": "worldwide"}}, {"type": "node", "id": 12160039038, "lat": 51.601909, "lon": -1.78329, "tags": {"amenity": "charging_station", "access": "customers", "fee": "yes", "brand": "Shell Recharge", "name": "Ladestation Shell Recharge", "addr:country": "GB", "socket:type2": "4", "socket:type2:output": "11.0 kW", "charging_station:output": "11.0 kW", "capacity": "4", "_source": "worldwide"}}, {"type": "node", "id": 12214078464, "lat": 51.670108, "lon": -1.362302, "tags": {"amenity": "charging_station", "access": "yes", "fee": "yes", "operator": "InstaVolt", "name": "Ladestation InstaVolt", "addr:country": "GB", "_source": "worldwide"}}, {"type": "node", "id": 12234858837, "lat": 51.740455, "lon": -1.238329, "tags": {"amenity": "charging_station", "access": "private", "fee": "yes", "addr:country": "GB", "capacity": "2", "_source": "worldwide"}}, {"type": "node", "id": 12345747517, "lat": 51.728564, "lon": -1.202141, "tags": {"amenity": "charging_station", "brand": "Instavolt", "name": "Ladestation Instavolt", "addr:country": "GB", "capacity": "2", "_source": "worldwide"}}, {"type": "node", "id": 12405327851, "lat": 51.544092, "lon": -1.804828, "tags": {"amenity": "charging_station", "access": "yes", "fee": "yes", "operator": "Connected Kerb", "name": "Shippery Lane", "addr:country": "GB", "socket:type2": "7", "socket:type2:output": "22.0 kW", "charging_station:output": "22.0 kW", "capacity": "7", "_source": "worldwide"}}, {"type": "node", "id": 12405327853, "lat": 51.546284, "lon": -1.806435, "tags": {"amenity": "charging_station", "access": "yes", "fee": "yes", "operator": "Connected Kerb", "name": "Semington Strand", "addr:country": "GB", "socket:type2": "2", "socket:type2:output": "7.4 kW", "charging_station:output": "7.4 kW", "capacity": "2", "_source": "worldwide"}}, {"type": "node", "id": 13112521431, "lat": 51.54333, "lon": -1.807644, "tags": {"amenity": "charging_station", "access": "yes", "fee": "yes", "operator": "Connected Kerb", "name": "Mill Lane - Visitor Bays", "addr:country": "GB", "socket:type2": "7", "socket:type2:output": "22.0 kW", "charging_station:output": "22.0 kW", "capacity": "4", "_source": "worldwide"}}, {"type": "node", "id": 12405327852, "lat": 51.549798, "lon": -1.812773, "tags": {"amenity": "charging_station", "access": "yes", "fee": "yes", "operator": "Connected Kerb", "name": "Wishford Row", "addr:country": "GB", "socket:type2": "3", "socket:type2:output": "7.36 kW", "charging_station:output": "7.36 kW", "capacity": "3", "_source": "worldwide"}}, {"type": "node", "id": 12492314042, "lat": 51.444471, "lon": -1.020618, "tags": {"amenity": "charging_station", "access": "yes", "fee": "yes", "network": "Evyve", "opening_hours": "24/7", "operator": "evyve", "name": "evyve - Evyve", "addr:country": "FR", "socket:type2": "4", "socket:type2:output": "150.0 kW", "socket:type2_combo": "6", "socket:type2_combo:output": "322.0 kW", "charging_station:output": "322.0 kW", "capacity": "10", "_source": "worldwide"}}, {"type": "node", "id": 13031214641, "lat": 51.447439, "lon": -1.021256, "tags": {"amenity": "charging_station", "fee": "yes", "brand": "Monta", "operator": "Berkshire Music Trust", "name": "Berkshire Music Trust - Monta", "addr:country": "FR", "socket:type2": "5", "socket:type2:output": "7.4 kW", "charging_station:output": "7.4 kW", "capacity": "5", "_source": "worldwide"}}, {"type": "node", "id": 12600362898, "lat": 51.213574, "lon": -1.53509, "tags": {"amenity": "charging_station", "fee": "yes", "operator": "GeniePoint", "name": "Ladestation GeniePoint", "addr:country": "FR", "socket:type2_combo": "1", "socket:type2_combo:output": "50.0 kW", "socket:chademo": "1", "socket:chademo:output": "50.0 kW", "charging_station:output": "50.0 kW", "capacity": "2", "_source": "worldwide"}}, {"type": "node", "id": 12647539500, "lat": 51.282843, "lon": -1.060583, "tags": {"amenity": "charging_station", "access": "yes", "fee": "yes", "brand": "Osprey", "operator": "Osprey", "name": "Osprey - Osprey", "addr:country": "FR", "socket:type2_combo": "8", "socket:type2_combo:output": "225.0 kW", "socket:chademo": "8", "socket:chademo:output": "30.0 kW", "charging_station:output": "225.0 kW", "capacity": "16", "_source": "worldwide"}}, {"type": "node", "id": 13028566415, "lat": 51.282501, "lon": -1.064492, "tags": {"amenity": "charging_station", "access": "permissive", "fee": "0.26 GBP", "brand": "Monta", "network": "Monta", "operator": "TSL Lighting", "name": "Gateway House", "addr:country": "FR", "socket:type2": "4", "socket:type2:output": "10.0 kW", "charging_station:output": "10.0 kW", "capacity": "4", "_source": "worldwide"}}, {"type": "node", "id": 13037879552, "lat": 51.281376, "lon": -1.064324, "tags": {"amenity": "charging_station", "access": "permissive", "brand": "Pod Point", "operator": "Pod Point", "name": "Pod Point - Pod Point", "addr:country": "FR", "socket:type2": "3", "socket:type2:output": "7.0 kW", "charging_station:output": "7.0 kW", "capacity": "3", "_source": "worldwide"}}, {"type": "node", "id": 13275647664, "lat": 51.283327, "lon": -1.055832, "tags": {"amenity": "charging_station", "access": "customers", "network": "Roam", "operator": "Roam", "name": "Ladestation Roam", "addr:country": "FR", "capacity": "4", "_source": "worldwide"}}, {"type": "node", "id": 12674019653, "lat": 51.740758, "lon": -1.25228, "tags": {"amenity": "charging_station", "access": "customers", "addr:country": "GB", "capacity": "2", "_source": "worldwide"}}, {"type": "node", "id": 12709857432, "lat": 51.764512, "lon": -1.215646, "tags": {"amenity": "charging_station", "operator": "Pod Point", "name": "Ladestation Pod Point", "addr:country": "GB", "capacity": "2", "_source": "worldwide"}}, {"type": "node", "id": 12748948938, "lat": 51.430745, "lon": -1.560266, "tags": {"amenity": "charging_station", "fee": "yes", "network": "pod point", "operator": "Pod Point", "name": "Pod Point - pod point", "addr:country": "FR", "socket:type2": "1", "socket:type2:output": "7.0 kW", "charging_station:output": "7.0 kW", "capacity": "1", "_source": "worldwide"}}, {"type": "node", "id": 12748910149, "lat": 51.415182, "lon": -1.516701, "tags": {"amenity": "charging_station", "operator": "eVolt", "name": "Ladestation eVolt", "addr:country": "FR", "capacity": "4", "_source": "worldwide"}}, {"type": "node", "id": 12766633697, "lat": 51.692929, "lon": -1.250196, "tags": {"amenity": "charging_station", "addr:country": "GB", "capacity": "4", "_source": "worldwide"}}, {"type": "node", "id": 12766643703, "lat": 51.692522, "lon": -1.25226, "tags": {"amenity": "charging_station", "addr:country": "GB", "capacity": "2", "_source": "worldwide"}}, {"type": "node", "id": 12788623093, "lat": 51.466378, "lon": -1.019985, "tags": {"amenity": "charging_station", "access": "yes", "fee": "yes", "operator": "Shell Recharge", "name": "Shell Recharge - Shell Recharge Solutions", "addr:country": "FR", "capacity": "4", "_source": "worldwide"}}, {"type": "node", "id": 12800814083, "lat": 51.762735, "lon": -1.261727, "tags": {"amenity": "charging_station", "operator": "Shell Recharge", "name": "Ladestation Shell Recharge", "addr:country": "GB", "capacity": "1", "_source": "worldwide"}}, {"type": "node", "id": 12890489051, "lat": 51.211153, "lon": -1.513567, "tags": {"amenity": "charging_station", "operator": "Shell Recharge", "name": "Shell Recharge Charging Station", "addr:country": "FR", "_source": "worldwide"}}, {"type": "node", "id": 12902997499, "lat": 51.986269, "lon": -1.069244, "tags": {"amenity": "charging_station", "access": "yes", "fee": "yes", "brand": "EV On The Move", "operator": "Tesla", "name": "Tesla - EV On The Move", "addr:country": "GB", "socket:type2_combo": "4", "socket:type2_combo:output": "250.0 kW", "charging_station:output": "250.0 kW", "capacity": "4", "_source": "worldwide"}}, {"type": "node", "id": 12977074537, "lat": 51.731427, "lon": -1.93971, "tags": {"amenity": "charging_station", "fee": "yes", "name": "Abbey Farm Organic Farm Shop", "addr:country": "GB", "socket:type2": "3", "socket:type2:output": "22 kW", "charging_station:output": "22 kW", "capacity": "3", "_source": "worldwide"}}, {"type": "node", "id": 13015061557, "lat": 51.607683, "lon": -1.82802, "tags": {"amenity": "charging_station", "fee": "yes", "operator": "Fuuse", "name": "The Strawberry Thief", "addr:country": "GB", "socket:type2": "6", "socket:type2:output": "7.0 kW", "charging_station:output": "7.0 kW", "capacity": "6", "_source": "worldwide"}}, {"type": "node", "id": 13026788368, "lat": 51.453724, "lon": -1.038727, "tags": {"amenity": "charging_station", "access": "permissive", "fee": "yes", "brand": "MyEVS", "name": "Ladestation MyEVS", "addr:country": "FR", "socket:type2": "5", "socket:type2:output": "7.0 kW", "charging_station:output": "7.0 kW", "capacity": "5", "_source": "worldwide"}}, {"type": "node", "id": 13026819245, "lat": 51.435302, "lon": -1.065051, "tags": {"amenity": "charging_station", "access": "customers", "fee": "yes", "addr:country": "FR", "_source": "worldwide"}}, {"type": "node", "id": 13026819247, "lat": 51.435493, "lon": -1.061899, "tags": {"amenity": "charging_station", "access": "customers", "fee": "yes", "brand": "ChargePoint", "operator": "ChargePoint", "name": "ChargePoint", "addr:country": "FR", "_source": "worldwide"}}, {"type": "node", "id": 13026819261, "lat": 51.437405, "lon": -1.080428, "tags": {"amenity": "charging_station", "fee": "yes", "addr:country": "FR", "_source": "worldwide"}}, {"type": "node", "id": 13031159235, "lat": 51.457596, "lon": -1.044104, "tags": {"amenity": "charging_station", "access": "customers", "fee": "yes", "brand": "RolecEV", "name": "Ladestation RolecEV", "addr:country": "FR", "socket:type2": "1", "socket:type2:output": "7.4 kW", "charging_station:output": "7.4 kW", "capacity": "1", "_source": "worldwide"}}, {"type": "node", "id": 13031292649, "lat": 51.284489, "lon": -1.071632, "tags": {"amenity": "charging_station", "access": "customers", "fee": "yes", "brand": "Osprey", "operator": "Osprey", "name": "Osprey - Osprey", "addr:country": "FR", "socket:type2": "3", "socket:type2:output": "13.0 kW", "socket:type2_combo": "3", "socket:type2_combo:output": "75.0 kW", "socket:chademo": "3", "socket:chademo:output": "50.0 kW", "charging_station:output": "75.0 kW", "capacity": "3", "_source": "worldwide"}}, {"type": "node", "id": 13112556848, "lat": 51.559407, "lon": -1.833581, "tags": {"amenity": "charging_station", "access": "yes", "fee": "yes", "brand": "Ionity", "operator": "IONITY", "name": "Shaw Ridge Leisure Park", "addr:country": "GB", "socket:type2_combo": "6", "socket:type2_combo:output": "200.0 kW", "charging_station:output": "200.0 kW", "capacity": "6", "_source": "worldwide"}}, {"type": "node", "id": 13202554278, "lat": 51.544411, "lon": -1.749079, "tags": {"amenity": "charging_station", "access": "yes", "fee": "yes", "operator": "Motor Fuel Group", "name": "Marlborough Road", "addr:country": "GB", "socket:type2_combo": "5", "socket:type2_combo:output": "150.0 kW", "socket:chademo": "5", "socket:chademo:output": "50.0 kW", "charging_station:output": "150.0 kW", "capacity": "5", "_source": "worldwide"}}, {"type": "node", "id": 13202554279, "lat": 51.550849, "lon": -1.757452, "tags": {"amenity": "charging_station", "access": "yes", "fee": "yes", "brand": "Mer", "operator": "Mer", "name": "George Gay Court", "addr:country": "GB", "socket:type2": "2", "socket:type2:output": "22.0 kW", "charging_station:output": "22.0 kW", "capacity": "2", "_source": "worldwide"}}, {"type": "node", "id": 13202554280, "lat": 51.559802, "lon": -1.772079, "tags": {"amenity": "charging_station", "access": "yes", "fee": "yes", "brand": "The Merlin", "operator": "RAW Charging", "name": "RAW Charging - The Merlin", "addr:country": "GB", "socket:type2": "2", "socket:type2:output": "7.68 kW", "socket:type2_combo": "2", "socket:type2_combo:output": "50.0 kW", "charging_station:output": "50.0 kW", "capacity": "4", "_source": "worldwide"}}, {"type": "node", "id": 13203665338, "lat": 51.559139, "lon": -1.773887, "tags": {"amenity": "charging_station", "access": "yes", "fee": "yes", "brand": "Blink", "operator": "Blink", "name": "Blink", "addr:country": "GB", "socket:type2": "2", "socket:type2:output": "22.0 kW", "charging_station:output": "22.0 kW", "capacity": "2", "_source": "worldwide"}}, {"type": "node", "id": 13204426606, "lat": 51.575715, "lon": -1.734606, "tags": {"amenity": "charging_station", "access": "customers", "fee": "yes", "brand": "Guide", "name": "The White Hart", "addr:country": "GB", "socket:type2": "2", "socket:type2:output": "7.0 kW", "charging_station:output": "7.0 kW", "capacity": "2", "_source": "worldwide"}}, {"type": "node", "id": 13204458676, "lat": 51.609844, "lon": -1.799447, "tags": {"amenity": "charging_station", "access": "customers", "fee": "yes", "brand": "Mer", "operator": "Mer", "name": "11 Diamond Crescent", "addr:country": "GB", "socket:type2": "2", "socket:type2:output": "12.0 kW", "charging_station:output": "12.0 kW", "capacity": "2", "_source": "worldwide"}}, {"type": "node", "id": 13204481876, "lat": 51.609141, "lon": -1.786275, "tags": {"amenity": "charging_station", "access": "customers", "fee": "yes", "brand": "evyve", "operator": "evyve", "name": "Ermin Street", "addr:country": "GB", "socket:type2": "4", "socket:type2:output": "75.0 kW", "charging_station:output": "75.0 kW", "capacity": "4", "_source": "worldwide"}}, {"type": "node", "id": 13246157678, "lat": 51.546051, "lon": -1.880811, "tags": {"amenity": "charging_station", "access": "customers", "fee": "yes", "brand": "ChargePoint", "operator": "ChargePoint", "name": "The Churchill", "addr:country": "GB", "socket:type2": "4", "socket:type2:output": "22.0 kW", "charging_station:output": "22.0 kW", "capacity": "4", "_source": "worldwide"}}, {"type": "node", "id": 13306847970, "lat": 51.751489, "lon": -1.274683, "tags": {"amenity": "charging_station", "addr:country": "GB", "capacity": "1", "_source": "worldwide"}}, {"type": "node", "id": 13329344233, "lat": 51.575422, "lon": -1.315997, "tags": {"amenity": "charging_station", "operator": "eVolt", "name": "Ladestation eVolt", "addr:country": "GB", "_source": "worldwide"}}, {"type": "node", "id": 13351660460, "lat": 51.044365, "lon": -1.787507, "tags": {"amenity": "charging_station", "access": "yes", "fee": "yes", "brand": "bp pulse", "operator": "bp pulse", "name": "Salisbury District Hospital", "addr:country": "FR", "capacity": "14", "_source": "worldwide"}}, {"type": "node", "id": 13528986799, "lat": 51.552816, "lon": -1.894485, "tags": {"amenity": "charging_station", "access": "customers", "fee": "yes", "operator": "Lidl", "name": "Ladestation Lidl", "addr:country": "GB", "capacity": "2", "_source": "worldwide"}}, {"type": "node", "id": 13702236815, "lat": 51.564905, "lon": -1.796786, "tags": {"amenity": "charging_station", "access": "yes", "fee": "yes", "brand": "Tesla Supercharger", "operator": "Tesla", "name": "Tesla Supercharger", "addr:country": "GB", "socket:type2_combo": "16", "socket:type2_combo:output": "50 kW", "charging_station:output": "50 kW", "capacity": "16", "_source": "worldwide"}}, {"type": "node", "id": 473402592, "lat": 51.101261, "lon": -1.342053, "tags": {"amenity": "charging_station", "fee": "yes", "brand": "InstaVolt", "opening_hours": "24/7", "operator": "InstaVolt", "name": "Winchester Super Hub", "addr:country": "FR", "socket:type2_combo": "44", "socket:type2_combo:output": "160.0 kW", "socket:chademo": "9", "socket:chademo:output": "60.0 kW", "charging_station:output": "160.0 kW", "capacity": "44", "_source": "worldwide"}}, {"type": "node", "id": 927711619, "lat": 51.483907, "lon": -1.556824, "tags": {"amenity": "charging_station", "access": "customers", "fee": "yes", "brand": "Tesla Supercharger", "opening_hours": "24/7", "operator": "Tesla", "name": "Membury Eastbound Supercharger", "addr:postcode": "RG17 7TZ", "addr:city": "Hungerford", "addr:country": "GB", "socket:type2_combo": "6", "socket:type2_combo:output": "150.0 kW", "socket:tesla_supercharger": "6", "socket:tesla_supercharger:output": "150.0 kW", "charging_station:output": "150.0 kW", "capacity": "6", "_source": "worldwide"}}, {"type": "node", "id": 1225512368, "lat": 51.483892, "lon": -1.557808, "tags": {"amenity": "charging_station", "access": "yes", "brand": "Gridserve", "opening_hours": "24/7", "operator": "Gridserve", "name": "Gridserve - Gridserve", "addr:postcode": "RG17 7TZ", "addr:city": "Hungerford", "socket:type2": "2", "socket:type2:output": "22.0 kW", "socket:chademo": "2", "socket:chademo:output": "50.0 kW", "charging_station:output": "50.0 kW", "_source": "worldwide"}}, {"type": "node", "id": 1057907267, "lat": 51.263277, "lon": -1.104318, "tags": {"amenity": "charging_station", "fee": "yes", "addr:country": "FR", "_source": "worldwide"}}, {"type": "node", "id": 1083726945, "lat": 51.481242, "lon": -1.556105, "tags": {"amenity": "charging_station", "access": "customers", "fee": "yes", "brand": "Tesla Supercharger", "opening_hours": "24/7", "operator": "Tesla", "name": "Membury Westbound Supercharger", "addr:postcode": "RG17 7TZ", "addr:city": "Hungerford", "addr:country": "GB", "socket:type2_combo": "8", "socket:type2_combo:output": "150.0 kW", "socket:tesla_supercharger": "8", "socket:tesla_supercharger:output": "150.0 kW", "charging_station:output": "150.0 kW", "capacity": "8", "_source": "worldwide"}}, {"type": "node", "id": 1225498328, "lat": 51.480734, "lon": -1.556822, "tags": {"amenity": "charging_station", "access": "yes", "fee": "yes", "brand": "Gridserve", "opening_hours": "24/7", "operator": "Gridserve", "name": "Gridserve - Gridserve", "addr:postcode": "RG17 7TZ", "addr:city": "Hungerford", "socket:type2": "1", "socket:type2:output": "22.0 kW", "socket:type2_combo": "2", "socket:type2_combo:output": "50.0 kW", "socket:chademo": "2", "socket:chademo:output": "50.0 kW", "charging_station:output": "50.0 kW", "capacity": "5", "_source": "worldwide"}}, {"type": "node", "id": 1155611171, "lat": 51.714077, "lon": -1.971453, "tags": {"amenity": "charging_station", "access": "permissive", "fee": "yes", "opening_hours": "Mo-Sa 08:00-21:00; Su 10:00-16:00", "operator": "Shell Recharge", "name": "Waitrose Cirencester", "addr:country": "GB", "socket:type2": "6", "socket:type2:output": "11.0 kW", "socket:type2_combo": "2", "socket:type2_combo:output": "50.0 kW", "socket:chademo": "2", "socket:chademo:output": "50.0 kW", "charging_station:output": "50.0 kW", "capacity": "8", "_source": "worldwide"}}, {"type": "node", "id": 1372713732, "lat": 51.715234, "lon": -1.969806, "tags": {"amenity": "charging_station", "access": "yes", "fee": "yes", "opening_hours": "24/7", "operator": "Connected Kerb", "name": "Brewery Car Park", "addr:country": "GB", "socket:type2": "8", "socket:type2:output": "7.0 kW", "charging_station:output": "7.0 kW", "capacity": "10", "_source": "worldwide"}}, {"type": "node", "id": 1175266586, "lat": 51.596558, "lon": -1.768216, "tags": {"amenity": "charging_station", "access": "yes", "fee": "yes", "brand": "Gridserve", "opening_hours": "24/7", "operator": "Gridserve", "name": "Gridserve", "addr:postcode": "SN2 7SE", "addr:city": "Swindon", "socket:type2": "2", "socket:type2:output": "22.0 kW", "charging_station:output": "22.0 kW", "capacity": "12", "_source": "worldwide"}}, {"type": "node", "id": 1176644890, "lat": 51.711973, "lon": -1.980818, "tags": {"amenity": "charging_station", "access": "permit", "fee": "yes", "brand": "Mer", "opening_hours": "Mo-Fr 07:00-23:00; Sa-Su 08:00-23:00; PH 08:00-23:00", "operator": "Mer", "name": "The Old Kennels (Permit)", "addr:country": "GB", "socket:type2": "10", "socket:type2:output": "22.0 kW", "charging_station:output": "22.0 kW", "capacity": "10", "_source": "worldwide"}}, {"type": "node", "id": 1410597413, "lat": 51.709369, "lon": -1.982831, "tags": {"amenity": "charging_station", "access": "customers", "fee": "yes", "opening_hours": "24/7", "name": "UBC", "addr:country": "GB", "socket:type2": "3", "socket:type2:output": "22.0 kW", "charging_station:output": "22.0 kW", "capacity": "3", "_source": "worldwide"}}, {"type": "node", "id": 1410597418, "lat": 51.709074, "lon": -1.98372, "tags": {"amenity": "charging_station", "access": "private", "fee": "yes", "opening_hours": "24/7", "name": "Govtech", "addr:country": "GB", "socket:type2": "1", "socket:type2:output": "22.0 kW", "charging_station:output": "22.0 kW", "capacity": "1", "_source": "worldwide"}}, {"type": "node", "id": 1186546333, "lat": 51.887202, "lon": -1.754734, "tags": {"amenity": "charging_station", "access": "permissive", "fee": "no", "operator": "Pod Point", "name": "Bourton-on-the-Water Co-operative Food", "addr:country": "GB", "socket:type2": "3", "socket:type2:output": "22 kW", "charging_station:output": "22 kW", "capacity": "3", "authentication:none": "", "_source": "worldwide"}}, {"type": "node", "id": 1187671531, "lat": 51.422099, "lon": -1.033018, "tags": {"amenity": "charging_station", "access": "yes", "fee": "yes", "brand": "BP Pulse", "opening_hours": "24/7", "operator": "BP Pulse", "name": "MOTO Reading Westbound Services (BP Pulse)", "addr:country": "FR", "socket:type2_combo": "4", "socket:type2_combo:output": "150.0 kW", "socket:chademo": "4", "socket:chademo:output": "100.0 kW", "charging_station:output": "150.0 kW", "capacity": "4", "authentication:none": "", "_source": "worldwide"}}, {"type": "node", "id": 1216315923, "lat": 51.423582, "lon": -1.038855, "tags": {"amenity": "charging_station", "access": "yes", "fee": "yes", "brand": "Tesla Supercharger", "opening_hours": "24/7", "operator": "Tesla", "name": "Tesla Supercharger - Reading Services Westbound", "addr:country": "FR", "socket:type2_combo": "12", "socket:type2_combo:output": "250.0 kW", "charging_station:output": "250.0 kW", "capacity": "12", "_source": "worldwide"}}, {"type": "node", "id": 1187671532, "lat": 51.425058, "lon": -1.031541, "tags": {"amenity": "charging_station", "access": "yes", "fee": "yes", "brand": "BP Pulse", "opening_hours": "24/7", "operator": "BP Pulse", "name": "MOTO Reading Eastbound Services (BP Pulse)", "addr:country": "FR", "socket:type2_combo": "4", "socket:type2_combo:output": "150.0 kW", "socket:chademo": "4", "socket:chademo:output": "100.0 kW", "charging_station:output": "150.0 kW", "capacity": "4", "authentication:none": "", "_source": "worldwide"}}, {"type": "node", "id": 1212363681, "lat": 51.7166, "lon": -1.960577, "tags": {"amenity": "charging_station", "access": "yes", "fee": "yes", "brand": "Blink", "opening_hours": "24/7", "operator": "Blink", "name": "Beeches Car Park", "addr:country": "GB", "socket:type2": "1", "socket:type2:output": "7.4 kW", "socket:type2_combo": "1", "socket:type2_combo:output": "50.0 kW", "socket:chademo": "1", "socket:chademo:output": "50.0 kW", "charging_station:output": "50.0 kW", "capacity": "2", "_source": "worldwide"}}, {"type": "node", "id": 1212363684, "lat": 51.712601, "lon": -1.970846, "tags": {"amenity": "charging_station", "access": "permit", "brand": "Mer", "operator": "Havas Helia", "name": "Havas Helia", "addr:country": "GB", "socket:type2": "6", "socket:type2:output": "7.0 kW", "charging_station:output": "7.0 kW", "capacity": "6", "_source": "worldwide"}}, {"type": "node", "id": 1217170640, "lat": 51.71254, "lon": -1.975293, "tags": {"amenity": "charging_station", "access": "customers", "fee": "yes", "opening_hours": "24/7", "operator": "Swarco E.Connect", "name": "Cirencester Hospital", "addr:country": "GB", "socket:type2": "1", "socket:type2:output": "22 kW", "charging_station:output": "22 kW", "capacity": "4", "_source": "worldwide"}}, {"type": "node", "id": 1352690115, "lat": 51.712583, "lon": -1.970003, "tags": {"amenity": "charging_station", "access": "private", "brand": "Project EV", "opening_hours": "24/7", "name": "Ladestation Project EV", "addr:country": "GB", "socket:type2": "3", "socket:type2:output": "22 kW", "charging_station:output": "22 kW", "capacity": "3", "_source": "worldwide"}}, {"type": "node", "id": 1392749753, "lat": 51.711865, "lon": -1.970035, "tags": {"amenity": "charging_station", "access": "employees", "fee": "yes", "name": "Rave Coffee", "addr:country": "GB", "socket:type2": "1", "socket:type2:output": "7.0 kW", "charging_station:output": "7.0 kW", "capacity": "1", "_source": "worldwide"}}, {"type": "node", "id": 1212598345, "lat": 51.705635, "lon": -1.951457, "tags": {"amenity": "charging_station", "access": "permissive", "fee": "yes", "brand": "Pod Point", "opening_hours": "Mo-Sa 06:00-00:00; Su 10:00-16:00", "operator": "Pod Point", "name": "Tesco Extra - Cirencester", "addr:postcode": "GL7 1NP", "socket:type2": "4", "socket:type2:output": "7.4 kW", "charging_station:output": "7.4 kW", "capacity": "4", "_source": "worldwide"}}, {"type": "node", "id": 1392432145, "lat": 51.706777, "lon": -1.954348, "tags": {"amenity": "charging_station", "access": "yes", "fee": "yes", "operator": "Shell Recharge", "name": "Aldi Cirencester", "addr:country": "GB", "socket:type2_combo": "2", "socket:type2_combo:output": "120.0 kW", "charging_station:output": "120.0 kW", "capacity": "4", "_source": "worldwide"}}, {"type": "node", "id": 1215855237, "lat": 51.710236, "lon": -1.993985, "tags": {"amenity": "charging_station", "access": "private", "fee": "yes", "opening_hours": "24/7", "name": "RAU - Stroud Road", "addr:country": "GB", "socket:type2": "2", "socket:type2:output": "22 kW", "charging_station:output": "22 kW", "capacity": "2", "authentication:none": "", "_source": "worldwide"}}, {"type": "node", "id": 1314012123, "lat": 51.709594, "lon": -1.995365, "tags": {"amenity": "charging_station", "access": "permit", "fee": "yes", "opening_hours": "24/7", "name": "RAU - Tetbury Road", "addr:country": "GB", "socket:type2": "2", "socket:type2:output": "22 kW", "charging_station:output": "22 kW", "capacity": "2", "authentication:none": "", "_source": "worldwide"}}, {"type": "node", "id": 1250506168, "lat": 51.64025, "lon": -1.84814, "tags": {"amenity": "charging_station", "access": "yes", "fee": "yes", "brand": "BP Pulse", "opening_hours": "24/7", "operator": "BP Pulse", "name": "Fairview Field Car Park", "addr:country": "GB", "socket:type2": "8", "socket:type2:output": "7.0 kW", "charging_station:output": "7.0 kW", "capacity": "8", "_source": "worldwide"}}, {"type": "node", "id": 1254847384, "lat": 51.031154, "lon": -1.07579, "tags": {"amenity": "charging_station", "access": "yes", "fee": "yes", "opening_hours": "Mo-Su 06:00-22:00", "operator": "InstaVolt", "name": "Ladestation InstaVolt", "addr:country": "FR", "socket:type2_combo": "2", "socket:type2_combo:output": "50 kW", "socket:chademo": "2", "socket:chademo:output": "50 kW", "charging_station:output": "50 kW", "capacity": "2", "_source": "worldwide"}}, {"type": "node", "id": 1254849808, "lat": 51.057018, "lon": -1.793024, "tags": {"amenity": "charging_station", "access": "yes", "fee": "yes", "brand": "BP Pulse", "opening_hours": "24/7", "operator": "BP Pulse", "name": "BP Pulse - BP Pulse", "addr:country": "FR", "socket:type2_combo": "2", "socket:type2_combo:output": "50 kW", "charging_station:output": "50 kW", "capacity": "2", "_source": "worldwide"}}, {"type": "node", "id": 1254852725, "lat": 51.067537, "lon": -1.79288, "tags": {"amenity": "charging_station", "access": "yes", "fee": "yes", "brand": "Mer", "name": "Mer", "addr:country": "FR", "socket:type2_combo": "1", "socket:type2_combo:output": "50 kW", "socket:chademo": "1", "socket:chademo:output": "50 kW", "charging_station:output": "50 kW", "capacity": "2", "_source": "worldwide"}}, {"type": "node", "id": 1276553407, "lat": 51.72278, "lon": -1.966447, "tags": {"amenity": "charging_station", "access": "permit", "fee": "no", "opening_hours": "Mo-Fr 07:30-19:30; Sa,Su,PH off", "operator": "Cotswold District Council", "name": "Whiteway", "addr:country": "GB", "socket:type2": "1", "socket:type2:output": "22.0 kW", "charging_station:output": "22.0 kW", "capacity": "4", "authentication:none": "yes", "_source": "worldwide"}}, {"type": "node", "id": 1292083959, "lat": 51.347851, "lon": -1.341906, "tags": {"amenity": "charging_station", "access": "yes", "opening_hours": "24/7", "operator": "Shell", "name": "Shell Little Waitrose Tothill", "addr:country": "FR", "socket:type2_combo": "9", "socket:type2_combo:output": "150.0 kW", "socket:chademo": "9", "socket:chademo:output": "70.0 kW", "charging_station:output": "150.0 kW", "capacity": "9", "_source": "worldwide"}}, {"type": "node", "id": 1382346206, "lat": 51.34853, "lon": -1.341767, "tags": {"amenity": "charging_station", "access": "yes", "fee": "yes", "operator": "InstaVolt", "name": "McDonald's EV Rapid Charging Station Newbury", "addr:country": "FR", "socket:type2_combo": "4", "socket:type2_combo:output": "160.0 kW", "socket:chademo": "4", "socket:chademo:output": "60.0 kW", "charging_station:output": "160.0 kW", "capacity": "4", "_source": "worldwide"}}, {"type": "node", "id": 1297004139, "lat": 51.76821, "lon": -1.581902, "tags": {"amenity": "charging_station", "access": "yes", "brand": "InstaVolt", "operator": "InstaVolt", "name": "EV Car Charger", "addr:country": "GB", "_source": "worldwide"}}, {"type": "node", "id": 1370109686, "lat": 51.177022, "lon": -1.760571, "tags": {"amenity": "charging_station", "brand": "Gridserve", "opening_hours": "24/7", "operator": "Gridserve", "name": "Gridserve - Gridserve", "addr:postcode": "SP4 7SQ", "addr:city": "Wiltshire", "socket:type2_combo": "8", "socket:type2_combo:output": "350.0 kW", "socket:chademo": "4", "socket:chademo:output": "100.0 kW", "charging_station:output": "350.0 kW", "_source": "worldwide"}}, {"type": "node", "id": 1370362826, "lat": 51.156933, "lon": -1.346832, "tags": {"amenity": "charging_station", "brand": "Gridserve", "opening_hours": "24/7", "operator": "Gridserve", "name": "Gridserve", "addr:postcode": "SO21 3JY", "addr:city": "Winchester", "socket:type2": "2", "socket:type2:output": "11.0 kW", "socket:type2_combo": "1", "socket:type2_combo:output": "40.0 kW", "socket:chademo": "1", "socket:chademo:output": "40.0 kW", "charging_station:output": "40.0 kW", "_source": "worldwide"}}, {"type": "node", "id": 1370362827, "lat": 51.156517, "lon": -1.343675, "tags": {"amenity": "charging_station", "fee": "yes", "brand": "Gridserve", "opening_hours": "24/7", "operator": "Gridserve", "name": "Gridserve", "addr:postcode": "SO21 3JY", "addr:city": "Winchester", "socket:type2": "2", "socket:type2:output": "11.0 kW", "socket:type2_combo": "1", "socket:type2_combo:output": "40.0 kW", "socket:chademo": "1", "socket:chademo:output": "40.0 kW", "charging_station:output": "40.0 kW", "_source": "worldwide"}}, {"type": "node", "id": 1373697487, "lat": 51.749154, "lon": -1.260912, "tags": {"amenity": "charging_station", "access": "no", "name": "E-Taxis", "addr:country": "GB", "capacity": "6", "_source": "worldwide"}}, {"type": "node", "id": 1391781488, "lat": 51.998525, "lon": -1.736986, "tags": {"amenity": "charging_station", "fee": "yes", "operator": "EVBox", "name": "Batsford Arboretum and Garden Centre", "addr:country": "GB", "socket:type2": "6", "socket:type2:output": "7.0 kW", "charging_station:output": "7.0 kW", "capacity": "6", "_source": "worldwide"}}, {"type": "node", "id": 1394588754, "lat": 51.674924, "lon": -1.496381, "tags": {"amenity": "charging_station", "brand": "Gridserve", "opening_hours": "24/7", "operator": "Gridserve", "name": "Gridserve - Gridserve", "addr:postcode": "SN7 8PY", "addr:city": "Faringdon", "socket:type2": "14", "socket:type2:output": "11.0 kW", "charging_station:output": "11.0 kW", "_source": "worldwide"}}, {"type": "node", "id": 1394592409, "lat": 51.793824, "lon": -1.283511, "tags": {"amenity": "charging_station", "brand": "Gridserve", "opening_hours": "24/7", "operator": "Gridserve", "name": "Gridserve - Gridserve", "addr:postcode": "OX2 8JD", "addr:city": "Oxford", "socket:type2": "1", "socket:type2:output": "22.0 kW", "socket:type2_combo": "1", "socket:type2_combo:output": "50.0 kW", "socket:chademo": "1", "socket:chademo:output": "50.0 kW", "charging_station:output": "50.0 kW", "_source": "worldwide"}}, {"type": "node", "id": 1444136196, "lat": 51.951131, "lon": -1.52472, "tags": {"amenity": "charging_station", "operator": "Shell", "name": "Ladestation Shell", "addr:country": "GB", "_source": "worldwide"}}, {"type": "node", "id": 1448435449, "lat": 51.401774, "lon": -1.321078, "tags": {"amenity": "charging_station", "fee": "yes", "brand": "Mer", "operator": "Mer", "name": "Mer - Mer", "addr:country": "FR", "socket:type2": "4", "socket:type2:output": "11.0 kW", "charging_station:output": "11.0 kW", "capacity": "4", "_source": "worldwide"}}, {"type": "node", "id": 1462550536, "lat": 51.848348, "lon": -1.35296, "tags": {"amenity": "charging_station", "access": "yes", "fee": "yes", "operator": "EZ Charge", "name": "Ladestation EZ Charge", "addr:country": "GB", "capacity": "12", "_source": "worldwide"}}]}