{"id": "29--82", "latMin": 29, "lonMin": -82, "latMax": 30, "lonMax": -81, "generated": "2026-04-16T18:39:07.264Z", "count": 21, "pois": [{"type": "node", "id": 3683018144, "lat": 29.033365, "lon": -81.300634, "tags": {"amenity": "charging_station", "opening_hours": "24/7", "brand": "ChargePoint", "operator": "ChargePoint", "name": "ChargePoint", "socket:type1": "1", "capacity": "2", "_source": "worldwide"}}, {"type": "node", "id": 3683125785, "lat": 29.037411, "lon": -81.302644, "tags": {"amenity": "charging_station", "opening_hours": "24/7", "brand": "ChargePoint", "operator": "ChargePoint", "name": "ChargePoint", "socket:type1": "1", "capacity": "2", "_source": "worldwide"}}, {"type": "node", "id": 3683127934, "lat": 29.030072, "lon": -81.304628, "tags": {"amenity": "charging_station", "opening_hours": "24/7", "name": "EV Charging Station", "socket:type1": "2", "capacity": "2", "_source": "worldwide"}}, {"type": "node", "id": 3683128527, "lat": 29.027596, "lon": -81.306553, "tags": {"amenity": "charging_station", "opening_hours": "24/7", "name": "EV Charging Station", "socket:type1": "1", "capacity": "1", "_source": "worldwide"}}, {"type": "node", "id": 3725442003, "lat": 29.92429, "lon": -81.41602, "tags": {"amenity": "charging_station", "fee": "yes", "access": "customers", "opening_hours": "24/7", "brand": "Tesla Supercharger", "network": "Supercharger", "operator": "Tesla, Inc.", "name": "St. Augustine Supercharger", "addr:street": "State Road 16, Suite 200", "addr:housenumber": "2700", "addr:postcode": "32092", "addr:city": "St. Augustine", "addr:country": "US", "capacity": "6", "_source": "worldwide"}}, {"type": "node", "id": 3725458819, "lat": 29.10857, "lon": -81.03457, "tags": {"amenity": "charging_station", "fee": "yes", "access": "customers", "opening_hours": "24/7", "brand": "Tesla Supercharger", "network": "Supercharger", "operator": "Tesla", "name": "Port Orange Supercharger", "addr:street": "South Williamson Boulevard", "addr:housenumber": "5302", "addr:postcode": "32128", "addr:city": "Port Orange", "addr:country": "US", "capacity": "6", "_source": "worldwide"}}, {"type": "node", "id": 6127181133, "lat": 29.895118, "lon": -81.313449, "tags": {"amenity": "charging_station", "brand": "Tesla", "operator": "Tesla", "name": "Tesla Destination Charger", "_source": "worldwide"}}, {"type": "node", "id": 8597513660, "lat": 29.211662, "lon": -81.098599, "tags": {"amenity": "charging_station", "name": "EV Charging Station", "_source": "worldwide"}}, {"type": "node", "id": 8597624474, "lat": 29.212971, "lon": -81.099183, "tags": {"amenity": "charging_station", "name": "EV Charging Station", "_source": "worldwide"}}, {"type": "node", "id": 9285449457, "lat": 29.29104, "lon": -81.039289, "tags": {"amenity": "charging_station", "brand": "Blink", "operator": "Blink", "name": "Blink", "_source": "worldwide"}}, {"type": "node", "id": 9285568863, "lat": 29.255152, "lon": -81.117474, "tags": {"amenity": "charging_station", "brand": "Tesla, Inc.", "name": "Tesla Destination Charger", "_source": "worldwide"}}, {"type": "node", "id": 9285568865, "lat": 29.258114, "lon": -81.113702, "tags": {"amenity": "charging_station", "operator": "Electrify America", "name": "Electrify America", "_source": "worldwide"}}, {"type": "node", "id": 9285568868, "lat": 29.283824, "lon": -81.060746, "tags": {"amenity": "charging_station", "brand": "ChargePoint", "operator": "ChargePoint", "name": "ChargePoint", "_source": "worldwide"}}, {"type": "node", "id": 9294020949, "lat": 29.923219, "lon": -81.411846, "tags": {"amenity": "charging_station", "brand": "ChargePoint", "operator": "ChargePoint", "name": "ChargePoint", "_source": "worldwide"}}, {"type": "node", "id": 11343163264, "lat": 29.223337, "lon": -81.099983, "tags": {"amenity": "charging_station", "fee": "yes", "access": "yes", "opening_hours": "24/7", "brand": "Tesla Supercharger", "network": "Supercharger", "operator": "Tesla", "name": "Tesla Supercharger", "addr:street": "Gateway North Drive", "addr:housenumber": "2330", "addr:postcode": "32117", "addr:city": "Daytona Beach", "addr:country": "US", "capacity": "12", "_source": "worldwide"}}, {"type": "node", "id": 12242195410, "lat": 29.1833, "lon": -81.07888, "tags": {"amenity": "charging_station", "fee": "yes", "access": "yes", "opening_hours": "24/7", "brand": "Tesla Supercharger", "network": "Supercharger", "operator": "Tesla", "name": "Daytona Beach Supercharger", "addr:street": "West International Speedway Boulevard", "addr:housenumber": "2380", "addr:postcode": "32114", "addr:city": "Daytona Beach", "addr:country": "US", "capacity": "12", "_source": "worldwide"}}, {"type": "node", "id": 12923488248, "lat": 29.916767, "lon": -81.403482, "tags": {"amenity": "charging_station", "fee": "yes", "access": "yes", "opening_hours": "24/7", "brand": "Tesla Supercharger", "network": "Supercharger", "operator": "Tesla", "name": "Tesla Supercharger", "addr:street": "FL-16", "addr:housenumber": "2222", "addr:postcode": "32084", "addr:city": "St. Augustine", "addr:country": "US", "capacity": "12", "_source": "worldwide"}}, {"type": "node", "id": 12954775132, "lat": 29.209806, "lon": -81.023224, "tags": {"amenity": "charging_station", "fee": "yes", "access": "yes", "opening_hours": "24/7", "brand": "Tesla Supercharger", "network": "Supercharger", "operator": "Tesla", "name": "Tesla Supercharger", "_source": "worldwide"}}, {"type": "node", "id": 13180734469, "lat": 29.749365, "lon": -81.34474, "tags": {"amenity": "charging_station", "fee": "yes", "access": "yes", "brand": "GM Energy", "operator": "Flying J Travel Center", "name": "GM Energy", "socket:type1_combo": "4", "capacity": "4", "_source": "worldwide"}}, {"type": "node", "id": 13284186181, "lat": 29.915388, "lon": -81.413398, "tags": {"amenity": "charging_station", "fee": "yes", "access": "yes", "opening_hours": "24/7", "brand": "Tesla Supercharger", "network": "Supercharger", "operator": "Tesla", "name": "St. Augustine Supercharger", "_source": "worldwide"}}, {"type": "node", "id": 13577575816, "lat": 29.177733, "lon": -81.027647, "tags": {"amenity": "charging_station", "fee": "yes", "access": "yes", "opening_hours": "24/7", "brand": "Tesla Supercharger", "network": "Supercharger", "operator": "Tesla", "name": "Tesla Supercharger", "_source": "worldwide"}}]}