{"id": "52--9", "latMin": 52, "lonMin": -9, "latMax": 53, "lonMax": -8, "generated": "2026-04-16T18:39:08.544Z", "count": 40, "pois": [{"type": "node", "id": 2262773478, "lat": 52.266933, "lon": -9.709592, "tags": {"amenity": "charging_station", "fee": "yes", "brand": "ecars", "operator": "ESB Group", "name": "ESB Electric Vehicle Charge Point", "addr:street": "Brandon Car Park", "addr:city": "Tralee", "socket:type2": "2", "socket:type2:output": "22.0 kW", "charging_station:output": "22.0 kW", "capacity": "2", "authentication:none": "", "_source": "worldwide"}}, {"type": "node", "id": 3711194024, "lat": 52.6317, "lon": -9.598021, "tags": {"amenity": "charging_station", "access": "customers", "fee": "no", "operator": "Pure Camping", "name": "ecar Charge Point", "socket:type2": "1", "socket:type2:output": "3.7 kW", "charging_station:output": "3.7 kW", "capacity": "1", "authentication:none": "yes", "_source": "worldwide"}}, {"type": "node", "id": 3916949450, "lat": 52.45243, "lon": -9.061218, "tags": {"amenity": "charging_station", "fee": "yes", "operator": "ESB ecars", "name": "ESB Electric Vehicle Charge Point", "socket:type2": "2", "socket:type2:output": "22.0 kW", "charging_station:output": "22.0 kW", "capacity": "2", "_source": "worldwide"}}, {"type": "node", "id": 4893798610, "lat": 52.268061, "lon": -9.707784, "tags": {"amenity": "charging_station", "fee": "yes", "brand": "ecars", "operator": "ESB Group", "name": "ESB Electric Vehicle Charge Point", "socket:type2": "2", "socket:type2:output": "22.0 kW", "charging_station:output": "22.0 kW", "capacity": "2", "authentication:none": "", "_source": "worldwide"}}, {"type": "node", "id": 7551217652, "lat": 52.271076, "lon": -9.70996, "tags": {"amenity": "charging_station", "access": "yes", "fee": "yes", "brand": "ecars", "opening_hours": "24/7", "operator": "ESB Group", "name": "ESB Electric Vehicle Fast Charge Point", "socket:type2": "1", "socket:type2:output": "22.0 kW", "socket:type2_combo": "1", "socket:type2_combo:output": "50.0 kW", "socket:chademo": "1", "socket:chademo:output": "50.0 kW", "charging_station:output": "50.0 kW", "capacity": "2", "authentication:none": "", "_source": "worldwide"}}, {"type": "node", "id": 8886906273, "lat": 52.270868, "lon": -9.706595, "tags": {"amenity": "charging_station", "fee": "no", "operator": "EO", "name": "EO Charge Point", "socket:type2": "2", "socket:type2:output": "22.0 kW", "charging_station:output": "22.0 kW", "capacity": "2", "authentication:none": "", "_source": "worldwide"}}, {"type": "node", "id": 6417900096, "lat": 52.4487, "lon": -9.053104, "tags": {"amenity": "charging_station", "access": "yes", "fee": "yes", "brand": "ecars", "operator": "ESB Group", "name": "ESB Electric Vehicle Fast Charge Point", "socket:type2": "1", "socket:type2:output": "43.0 kW", "socket:type2_combo": "1", "socket:type2_combo:output": "50.0 kW", "socket:chademo": "1", "socket:chademo:output": "50.0 kW", "charging_station:output": "50.0 kW", "capacity": "2", "authentication:none": "", "_source": "worldwide"}}, {"type": "node", "id": 6935445921, "lat": 52.981884, "lon": -9.298025, "tags": {"amenity": "charging_station", "access": "customers", "fee": "no", "operator": "Kilshanny House", "name": "ecar Charge Point", "socket:type2": "1", "socket:type2:output": "3.7 kW", "charging_station:output": "3.7 kW", "capacity": "1", "authentication:none": "yes", "_source": "worldwide"}}, {"type": "node", "id": 6944960495, "lat": 52.854106, "lon": -9.398446, "tags": {"amenity": "charging_station", "access": "yes", "fee": "yes", "operator": "ESB ecars", "name": "ESB Electric Vehicle Charge Point", "socket:type2": "2", "socket:type2:output": "22.0 kW", "charging_station:output": "22.0 kW", "capacity": "2", "authentication:none": "", "_source": "worldwide"}}, {"type": "node", "id": 6944969349, "lat": 52.928923, "lon": -9.346429, "tags": {"amenity": "charging_station", "access": "yes", "fee": "yes", "brand": "ecars", "operator": "ESB Group", "name": "ESB Electric Vehicle Fast Charge Point", "socket:type2": "1", "socket:type2:output": "22.0 kW", "socket:type2_combo": "1", "socket:type2_combo:output": "50.0 kW", "socket:chademo": "1", "socket:chademo:output": "50.0 kW", "charging_station:output": "50.0 kW", "capacity": "2", "authentication:none": "", "_source": "worldwide"}}, {"type": "node", "id": 6944973171, "lat": 52.845425, "lon": -9.437483, "tags": {"amenity": "charging_station", "access": "customers", "fee": "no", "operator": "The Armada", "name": "EV Charging Stations", "socket:type2": "2", "socket:type2:output": "7.0 kW", "charging_station:output": "7.0 kW", "capacity": "2", "authentication:none": "yes", "_source": "worldwide"}}, {"type": "node", "id": 6945000580, "lat": 52.683344, "lon": -9.647017, "tags": {"amenity": "charging_station", "access": "yes", "fee": "yes", "operator": "ESB ecars", "name": "ESB Electric Vehicle Charge Point", "socket:type2": "2", "socket:type2:output": "22.0 kW", "charging_station:output": "22.0 kW", "capacity": "2", "_source": "worldwide"}}, {"type": "node", "id": 6945007731, "lat": 52.841067, "lon": -9.028242, "tags": {"amenity": "charging_station", "access": "customers", "fee": "no", "brand": "Tesla, Inc.", "operator": "Woodstock Hotel", "name": "Tesla Destination Charger", "socket:type2": "2", "socket:type2:output": "7.0 kW", "charging_station:output": "7.0 kW", "capacity": "2", "authentication:none": "yes", "_source": "worldwide"}}, {"type": "node", "id": 7551217623, "lat": 52.059523, "lon": -9.507238, "tags": {"amenity": "charging_station", "access": "yes", "fee": "yes", "opening_hours": "24/7", "operator": "ESB ecars", "name": "ESB Electric Vehicle Charge Point", "socket:type2": "2", "socket:type2:output": "22.0 kW", "charging_station:output": "22.0 kW", "capacity": "2", "_source": "worldwide"}}, {"type": "node", "id": 9055653871, "lat": 52.059027, "lon": -9.503368, "tags": {"amenity": "charging_station", "access": "customers", "fee": "no", "brand": "Porsche", "operator": "Porsche", "name": "Porsche Destination Charging", "socket:type2": "2", "socket:type2:output": "22.0 kW", "charging_station:output": "22.0 kW", "capacity": "2", "_source": "worldwide"}}, {"type": "node", "id": 7551217624, "lat": 52.052965, "lon": -9.507141, "tags": {"amenity": "charging_station", "access": "yes", "fee": "yes", "brand": "ecars", "opening_hours": "24/7", "operator": "ESB Group", "name": "ESB Electric Vehicle Fast Charge Point", "socket:type2": "1", "socket:type2:output": "43.0 kW", "socket:type2_combo": "1", "socket:type2_combo:output": "50.0 kW", "socket:chademo": "1", "socket:chademo:output": "50.0 kW", "charging_station:output": "50.0 kW", "capacity": "2", "authentication:none": "", "_source": "worldwide"}}, {"type": "node", "id": 7551217649, "lat": 52.107303, "lon": -9.786143, "tags": {"amenity": "charging_station", "access": "yes", "fee": "yes", "opening_hours": "24/7", "operator": "ESB ecars", "name": "ESB Electric Vehicle Charge Point", "socket:type2": "2", "socket:type2:output": "22.0 kW", "charging_station:output": "22.0 kW", "capacity": "2", "_source": "worldwide"}}, {"type": "node", "id": 7551217651, "lat": 52.261012, "lon": -9.715091, "tags": {"amenity": "charging_station", "access": "yes", "fee": "yes", "opening_hours": "24/7", "operator": "ESB ecars", "name": "ESB Electric Vehicle Charge Point", "socket:type2": "2", "socket:type2:output": "22.0 kW", "charging_station:output": "22.0 kW", "capacity": "2", "authentication:none": "", "_source": "worldwide"}}, {"type": "node", "id": 11619826184, "lat": 52.270931, "lon": -9.699808, "tags": {"amenity": "charging_station", "fee": "yes", "operator": "ePower", "name": "ePower EV Quick Charger", "socket:type2_combo": "1", "socket:type2_combo:output": "150.0 kW", "socket:chademo": "1", "socket:chademo:output": "100.0 kW", "charging_station:output": "150.0 kW", "capacity": "2", "authentication:none": "", "_source": "worldwide"}}, {"type": "node", "id": 7762068467, "lat": 52.060253, "lon": -9.483912, "tags": {"amenity": "charging_station", "access": "customers", "fee": "no", "brand": "Tesla, Inc.", "opening_hours": "24/7", "operator": "Hotel Killarney", "name": "Tesla Destination Charger", "socket:type2": "3", "socket:type2:output": "11.0 kW", "charging_station:output": "11.0 kW", "capacity": "3", "authentication:none": "yes", "_source": "worldwide"}}, {"type": "node", "id": 8941528295, "lat": 52.933057, "lon": -9.341121, "tags": {"amenity": "charging_station", "fee": "yes", "operator": "EVBox", "name": "EVBox Charging Station", "socket:type2": "2", "socket:type2:output": "22.0 kW", "charging_station:output": "22.0 kW", "capacity": "2", "authentication:none": "", "_source": "worldwide"}}, {"type": "node", "id": 11621605576, "lat": 52.937061, "lon": -9.344017, "tags": {"amenity": "charging_station", "fee": "yes", "operator": "Clenergy EV", "name": "Ladestation Clenergy EV", "socket:type2": "4", "socket:type2:output": "11.0 kW", "charging_station:output": "11.0 kW", "capacity": "4", "authentication:none": "", "_source": "worldwide"}}, {"type": "node", "id": 9050976816, "lat": 52.861832, "lon": -9.004546, "tags": {"amenity": "charging_station", "fee": "no", "operator": "EasyGo", "name": "EasyGo Charging Station", "socket:type2": "4", "socket:type2:output": "22.0 kW", "charging_station:output": "22.0 kW", "capacity": "4", "authentication:none": "", "_source": "worldwide"}}, {"type": "node", "id": 9053068907, "lat": 52.019032, "lon": -9.500848, "tags": {"amenity": "charging_station", "fee": "yes", "operator": "EVBox", "name": "EVBox Charging Station", "socket:type2": "2", "socket:type2:output": "7.0 kW", "charging_station:output": "7.0 kW", "capacity": "2", "_source": "worldwide"}}, {"type": "node", "id": 9055653870, "lat": 52.063509, "lon": -9.495234, "tags": {"amenity": "charging_station", "fee": "yes", "operator": "ESB ecars", "name": "ESB Electric Vehicle Charge Point", "socket:type2": "2", "socket:type2:output": "22.0 kW", "charging_station:output": "22.0 kW", "capacity": "2", "_source": "worldwide"}}, {"type": "node", "id": 9055653872, "lat": 52.05804, "lon": -9.504977, "tags": {"amenity": "charging_station", "access": "customers", "fee": "no", "brand": "Porsche", "operator": "Porsche", "name": "Porsche Destination Charging", "socket:type2": "2", "socket:type2:output": "22 kW", "charging_station:output": "22 kW", "capacity": "2", "_source": "worldwide"}}, {"type": "node", "id": 9055653873, "lat": 52.057077, "lon": -9.506166, "tags": {"amenity": "charging_station", "operator": "EasyGo", "name": "EasyGo Charging Station", "socket:type2": "1", "socket:type2:output": "22.0 kW", "charging_station:output": "22.0 kW", "capacity": "1", "_source": "worldwide"}}, {"type": "node", "id": 9055653874, "lat": 52.057528, "lon": -9.509775, "tags": {"amenity": "charging_station", "operator": "EasyGo", "name": "EasyGo Charging Station", "socket:type2": "2", "socket:type2:output": "22.0 kW", "charging_station:output": "22.0 kW", "capacity": "1", "authentication:none": "", "_source": "worldwide"}}, {"type": "node", "id": 13171772556, "lat": 52.057205, "lon": -9.511268, "tags": {"amenity": "charging_station", "_source": "worldwide"}}, {"type": "node", "id": 9152943635, "lat": 52.94101, "lon": -9.298795, "tags": {"amenity": "charging_station", "access": "permissive", "fee": "yes", "brand": "eStation", "operator": "eStation", "name": "eStation", "socket:type2": "2", "socket:type2:output": "22.0 kW", "charging_station:output": "22.0 kW", "capacity": "2", "authentication:none": "", "_source": "worldwide"}}, {"type": "node", "id": 9389312691, "lat": 52.044865, "lon": -9.503645, "tags": {"amenity": "charging_station", "fee": "no", "brand": "eStation", "operator": "The Gleneagle Hotel", "name": "eStation Charge Point", "socket:type2": "2", "socket:type2:output": "22.0 kW", "charging_station:output": "22.0 kW", "capacity": "2", "authentication:none": "yes", "_source": "worldwide"}}, {"type": "node", "id": 9883763908, "lat": 52.851181, "lon": -9.409003, "tags": {"amenity": "charging_station", "fee": "yes", "operator": "EasyGo", "name": "EasyGo Charging Station", "socket:type2_combo": "1", "socket:type2_combo:output": "50.0 kW", "socket:chademo": "1", "socket:chademo:output": "50.0 kW", "charging_station:output": "50.0 kW", "capacity": "1", "authentication:none": "", "_source": "worldwide"}}, {"type": "node", "id": 11295195336, "lat": 52.0597, "lon": -9.481069, "tags": {"amenity": "charging_station", "fee": "yes", "brand": "ESB ecars", "opening_hours": "24/7", "operator": "ESB Group", "name": "ESB Electric Vehicle High Power Charge Point", "socket:type2_combo": "4", "socket:type2_combo:output": "200.0 kW", "socket:chademo": "4", "socket:chademo:output": "70.0 kW", "charging_station:output": "200.0 kW", "capacity": "4", "authentication:none": "", "_source": "worldwide"}}, {"type": "node", "id": 11619668606, "lat": 52.26925, "lon": -9.712325, "tags": {"amenity": "charging_station", "fee": "yes", "operator": "EasyGo", "name": "EasyGo Fast Charger", "socket:type2_combo": "1", "socket:type2_combo:output": "75.0 kW", "socket:chademo": "1", "socket:chademo:output": "75.0 kW", "charging_station:output": "75.0 kW", "capacity": "2", "authentication:none": "", "_source": "worldwide"}}, {"type": "node", "id": 11619826185, "lat": 52.615409, "lon": -9.381257, "tags": {"amenity": "charging_station", "fee": "yes", "operator": "ePower", "name": "Ladestation ePower", "socket:type2_combo": "2", "socket:type2_combo:output": "50.0 kW", "charging_station:output": "50.0 kW", "capacity": "2", "authentication:none": "", "_source": "worldwide"}}, {"type": "node", "id": 11626597518, "lat": 52.265964, "lon": -9.683275, "tags": {"amenity": "charging_station", "fee": "yes", "brand": "ecars", "operator": "ESB Group", "name": "ESB Electric Vehicle High Power Charge Point", "socket:type2": "1", "socket:type2:output": "22.0 kW", "socket:type2_combo": "3", "socket:type2_combo:output": "50.0 kW", "socket:chademo": "3", "socket:chademo:output": "50.0 kW", "charging_station:output": "50.0 kW", "capacity": "3", "authentication:none": "", "_source": "worldwide"}}, {"type": "node", "id": 11741497222, "lat": 52.448924, "lon": -9.484188, "tags": {"amenity": "charging_station", "brand": "ecars", "operator": "ESB Group", "name": "ESB Group - ecars", "_source": "worldwide"}}, {"type": "node", "id": 12256230675, "lat": 52.641963, "lon": -9.476421, "tags": {"amenity": "charging_station", "brand": "ecars", "operator": "ESB Group", "name": "ESB Group - ecars", "_source": "worldwide"}}, {"type": "node", "id": 12256242405, "lat": 52.636183, "lon": -9.49008, "tags": {"amenity": "charging_station", "brand": "ecars", "operator": "ESB Group", "name": "ESB Group - ecars", "_source": "worldwide"}}, {"type": "node", "id": 1255387587, "lat": 52.260694, "lon": -9.6591, "tags": {"amenity": "charging_station", "access": "yes", "fee": "yes", "brand": "Tesla Supercharger", "opening_hours": "24/7", "operator": "Tesla", "name": "Tralee Supercharger", "socket:type2_combo": "4", "socket:type2_combo:output": "250.0 kW", "charging_station:output": "250.0 kW", "capacity": "4", "_source": "worldwide"}}]}