{"id": "5--76", "latMin": 5, "lonMin": -76, "latMax": 6, "lonMax": -75, "generated": "2026-04-16T18:39:07.221Z", "count": 6, "pois": [{"type": "node", "id": 4801534121, "lat": 5.003648, "lon": -75.85884, "tags": {"amenity": "charging_station", "brand": "EPM", "name": "Punto de carga EDS Acapulco (Caldas)", "_source": "worldwide"}}, {"type": "node", "id": 13009522234, "lat": 5.802665, "lon": -75.671993, "tags": {"amenity": "charging_station", "brand": "Celsia", "name": "Punto de carga CCO Concesión La Pintada", "_source": "worldwide"}}, {"type": "node", "id": 13009660822, "lat": 5.059303, "lon": -75.483464, "tags": {"amenity": "charging_station", "brand": "EPM", "name": "Punto de carga CHEC Ecoestación CDA Caldas", "_source": "worldwide"}}, {"type": "node", "id": 13009670207, "lat": 5.741497, "lon": -75.606838, "tags": {"amenity": "charging_station", "brand": "EPM", "name": "Punto de carga Restaurante Doña Rosa (La Pintada)", "_source": "worldwide"}}, {"type": "node", "id": 13009802968, "lat": 5.050202, "lon": -75.566145, "tags": {"amenity": "charging_station", "brand": "EPM", "name": "Punto de carga EDEQ Tambo La Manuela", "_source": "worldwide"}}, {"type": "node", "id": 13009864968, "lat": 5.065866, "lon": -75.490423, "tags": {"amenity": "charging_station", "brand": "EPM", "name": "Punto de carga CHEC Ecoestación Mall Plaza", "_source": "worldwide"}}]}