{"id": "61-11", "latMin": 61, "lonMin": 11, "latMax": 62, "lonMax": 12, "generated": "2026-04-16T18:39:08.796Z", "count": 11, "pois": [{"type": "node", "id": 4408910119, "lat": 61.136023, "lon": 11.375184, "tags": {"amenity": "charging_station", "access": "yes", "opening_hours": "24/7", "operator": "Lade i Norge", "name": "Universitetet i Innlandet, Rena", "addr:country": "SE", "socket:type2": "4", "socket:type2:output": "11.0 kW", "charging_station:output": "11.0 kW", "capacity": "4", "_source": "worldwide"}}, {"type": "node", "id": 5641328423, "lat": 61.425466, "lon": 11.079773, "tags": {"amenity": "charging_station", "access": "yes", "brand": "Recharge", "opening_hours": "24/7", "name": "Recharge Evenstad", "addr:country": "SE", "socket:type2": "2", "socket:type2:output": "11.0 kW", "socket:type2_combo": "2", "socket:type2_combo:output": "50.0 kW", "socket:chademo": "2", "socket:chademo:output": "50.0 kW", "charging_station:output": "50.0 kW", "capacity": "4", "_source": "worldwide"}}, {"type": "node", "id": 6037455984, "lat": 61.42538, "lon": 11.07836, "tags": {"amenity": "charging_station", "access": "yes", "opening_hours": "24/7", "operator": "Lade i Norge", "name": "Høgskolen Evenstad, Koppang", "addr:country": "SE", "socket:type2": "4", "socket:type2:output": "22.0 kW", "charging_station:output": "22.0 kW", "capacity": "4", "_source": "worldwide"}}, {"type": "node", "id": 5645685222, "lat": 61.132388, "lon": 11.368916, "tags": {"amenity": "charging_station", "access": "yes", "brand": "Recharge", "opening_hours": "24/7", "name": "Recharge Rena Torggata 14", "addr:country": "SE", "socket:type2": "2", "socket:type2:output": "11.0 kW", "socket:type2_combo": "2", "socket:type2_combo:output": "50.0 kW", "socket:chademo": "2", "socket:chademo:output": "50.0 kW", "charging_station:output": "50.0 kW", "capacity": "4", "_source": "worldwide"}}, {"type": "node", "id": 12824261974, "lat": 61.131329, "lon": 11.369983, "tags": {"amenity": "charging_station", "access": "yes", "brand": "Kople", "name": "Kople Kiwi Rena", "addr:country": "SE", "socket:type2_combo": "6", "socket:type2_combo:output": "300.0 kW", "socket:chademo": "1", "socket:chademo:output": "62.0 kW", "charging_station:output": "300.0 kW", "capacity": "6", "_source": "worldwide"}}, {"type": "node", "id": 6762237202, "lat": 61.757359, "lon": 11.961186, "tags": {"amenity": "charging_station", "access": "yes", "brand": "Recharge", "name": "Recharge Engerdal", "addr:country": "SE", "socket:type2": "2", "socket:type2:output": "11.0 kW", "socket:type2_combo": "2", "socket:type2_combo:output": "50.0 kW", "socket:chademo": "2", "socket:chademo:output": "50.0 kW", "charging_station:output": "50.0 kW", "capacity": "4", "_source": "worldwide"}}, {"type": "node", "id": 11169096654, "lat": 61.570125, "lon": 11.049623, "tags": {"amenity": "charging_station", "access": "yes", "brand": "Eviny", "name": "Eviny Koppang Senteret", "addr:country": "SE", "socket:type2": "1", "socket:type2:output": "22.0 kW", "socket:type2_combo": "4", "socket:type2_combo:output": "200.0 kW", "socket:chademo": "1", "socket:chademo:output": "62.0 kW", "charging_station:output": "200.0 kW", "capacity": "5", "_source": "worldwide"}}, {"type": "node", "id": 11185853274, "lat": 61.695013, "lon": 11.213908, "tags": {"amenity": "charging_station", "access": "yes", "brand": "Kople", "name": "Kople Åkrestrømmen", "addr:country": "SE", "socket:type2": "2", "socket:type2:output": "22.0 kW", "socket:type2_combo": "4", "socket:type2_combo:output": "75.0 kW", "socket:chademo": "4", "socket:chademo:output": "62.0 kW", "charging_station:output": "75.0 kW", "capacity": "6", "_source": "worldwide"}}, {"type": "node", "id": 11185853308, "lat": 61.883568, "lon": 11.083053, "tags": {"amenity": "charging_station", "access": "yes", "brand": "Kople", "name": "Kople Bullmuseet Rendalen Fv30", "addr:country": "SE", "socket:type2": "2", "socket:type2:output": "22.0 kW", "socket:type2_combo": "4", "socket:type2_combo:output": "75.0 kW", "socket:chademo": "4", "socket:chademo:output": "62.0 kW", "charging_station:output": "75.0 kW", "capacity": "6", "_source": "worldwide"}}, {"type": "node", "id": 12824261973, "lat": 61.301223, "lon": 11.764672, "tags": {"amenity": "charging_station", "access": "yes", "brand": "Kople", "name": "Kople Joker Osen", "addr:country": "SE", "socket:type2": "2", "socket:type2:output": "22.0 kW", "socket:type2_combo": "3", "socket:type2_combo:output": "150.0 kW", "socket:chademo": "2", "socket:chademo:output": "62.0 kW", "charging_station:output": "150.0 kW", "capacity": "5", "_source": "worldwide"}}, {"type": "node", "id": 12840594746, "lat": 61.130745, "lon": 11.375298, "tags": {"amenity": "charging_station", "brand": "Tesla", "name": "Tesla Rena Supercharger", "addr:country": "SE", "socket:type2_combo": "20", "socket:type2_combo:output": "250.0 kW", "charging_station:output": "250.0 kW", "capacity": "20", "_source": "worldwide"}}]}