{"id": "39--122", "latMin": 39, "lonMin": -122, "latMax": 40, "lonMax": -121, "generated": "2026-04-16T18:39:07.699Z", "count": 25, "pois": [{"type": "node", "id": 6977868862, "lat": 39.72663, "lon": -121.80254, "tags": {"amenity": "charging_station", "fee": "yes", "access": "customers", "opening_hours": "24/7", "brand": "Tesla Supercharger", "network": "Supercharger", "operator": "Tesla, Inc.", "name": "Chico Supercharger", "addr:street": "East 20th Street", "addr:housenumber": "1951", "addr:postcode": "95928", "addr:city": "Chico", "addr:country": "US", "capacity": "18", "_source": "worldwide"}}, {"type": "node", "id": 8854498372, "lat": 39.233412, "lon": -121.053692, "tags": {"amenity": "charging_station", "access": "private", "operator": "AJA Video Systems", "name": "AJA Video Systems", "_source": "worldwide"}}, {"type": "node", "id": 11261795838, "lat": 39.727557, "lon": -121.840257, "tags": {"amenity": "charging_station", "operator": "Electrify America", "name": "Electrify America", "addr:street": "Broadway Street", "addr:housenumber": "400", "addr:postcode": "95928", "addr:city": "Chico", "_source": "worldwide"}}, {"type": "node", "id": 11265863012, "lat": 39.146312, "lon": -121.634576, "tags": {"amenity": "charging_station", "operator": "Electrify America", "name": "Electrify America", "addr:street": "Butte House Road", "addr:housenumber": "1153", "addr:postcode": "95991", "addr:city": "Yuba City", "_source": "worldwide"}}, {"type": "node", "id": 11586077582, "lat": 39.72775, "lon": -121.843164, "tags": {"amenity": "charging_station", "brand": "ChargePoint", "operator": "ChargePoint", "name": "ChargePoint", "_source": "worldwide"}}, {"type": "node", "id": 11586080583, "lat": 39.761473, "lon": -121.829756, "tags": {"amenity": "charging_station", "brand": "ChargePoint", "operator": "ChargePoint", "name": "ChargePoint", "_source": "worldwide"}}, {"type": "node", "id": 11590565258, "lat": 39.730105, "lon": -121.792656, "tags": {"amenity": "charging_station", "brand": "ChargePoint", "operator": "ChargePoint", "name": "ChargePoint", "_source": "worldwide"}}, {"type": "node", "id": 11590712132, "lat": 39.725038, "lon": -121.835339, "tags": {"amenity": "charging_station", "brand": "ChargePoint", "operator": "ChargePoint", "name": "ChargePoint", "_source": "worldwide"}}, {"type": "node", "id": 11590724102, "lat": 39.726657, "lon": -121.802852, "tags": {"amenity": "charging_station", "brand": "ChargePoint", "operator": "ChargePoint", "name": "ChargePoint", "_source": "worldwide"}}, {"type": "node", "id": 11590734444, "lat": 39.724271, "lon": -121.813787, "tags": {"amenity": "charging_station", "brand": "ChargePoint", "operator": "ChargePoint", "name": "ChargePoint", "_source": "worldwide"}}, {"type": "node", "id": 11590764687, "lat": 39.728699, "lon": -121.799097, "tags": {"amenity": "charging_station", "brand": "ChargePoint", "operator": "ChargePoint", "name": "ChargePoint", "_source": "worldwide"}}, {"type": "node", "id": 11590764688, "lat": 39.143842, "lon": -121.585587, "tags": {"amenity": "charging_station", "brand": "ChargePoint", "operator": "ChargePoint", "name": "ChargePoint", "_source": "worldwide"}}, {"type": "node", "id": 11590823998, "lat": 39.648189, "lon": -121.651034, "tags": {"amenity": "charging_station", "brand": "ChargePoint", "operator": "ChargePoint", "name": "ChargePoint", "_source": "worldwide"}}, {"type": "node", "id": 11590827870, "lat": 39.502334, "lon": -121.55996, "tags": {"amenity": "charging_station", "brand": "ChargePoint", "operator": "ChargePoint", "name": "ChargePoint", "_source": "worldwide"}}, {"type": "node", "id": 11590828407, "lat": 39.145778, "lon": -121.584184, "tags": {"amenity": "charging_station", "brand": "ChargePoint", "operator": "ChargePoint", "name": "ChargePoint", "_source": "worldwide"}}, {"type": "node", "id": 11590877053, "lat": 39.725147, "lon": -121.805593, "tags": {"amenity": "charging_station", "brand": "ChargePoint", "operator": "ChargePoint", "name": "ChargePoint", "_source": "worldwide"}}, {"type": "node", "id": 11763798530, "lat": 39.1998, "lon": -121.06422, "tags": {"amenity": "charging_station", "fee": "yes", "access": "yes", "opening_hours": "24/7", "brand": "Tesla Supercharger", "network": "Supercharger", "operator": "Tesla", "name": "Grass Valley Supercharger", "addr:street": "Freeman Lane", "addr:housenumber": "692", "addr:postcode": "95949", "addr:city": "Grass Valley", "addr:country": "US", "capacity": "12", "_source": "worldwide"}}, {"type": "node", "id": 12264385368, "lat": 39.143009, "lon": -121.590612, "tags": {"amenity": "charging_station", "brand": "bp pulse", "operator": "bp pulse", "name": "bp pulse", "_source": "worldwide"}}, {"type": "node", "id": 12336239600, "lat": 39.714818, "lon": -121.813608, "tags": {"amenity": "charging_station", "fee": "yes", "brand": "EVgo", "operator": "EVgo", "name": "EVgo", "_source": "worldwide"}}, {"type": "node", "id": 12336264002, "lat": 39.762925, "lon": -121.843117, "tags": {"amenity": "charging_station", "brand": "ChargePoint", "operator": "ChargePoint", "name": "ChargePoint", "_source": "worldwide"}}, {"type": "node", "id": 12692255853, "lat": 39.724187, "lon": -121.813789, "tags": {"amenity": "charging_station", "name": "EV Charging Station", "_source": "worldwide"}}, {"type": "node", "id": 12944743585, "lat": 39.14783, "lon": -121.64786, "tags": {"amenity": "charging_station", "fee": "yes", "access": "customers", "opening_hours": "24/7", "brand": "Tesla Supercharger", "network": "Supercharger", "operator": "Tesla, Inc.", "name": "Yuba City Supercharger", "addr:street": "Tharp Road", "addr:housenumber": "1475", "addr:postcode": "95993", "addr:city": "Yuba City", "addr:country": "US", "capacity": "10", "_source": "worldwide"}}, {"type": "node", "id": 12944743816, "lat": 39.11114, "lon": -121.55662, "tags": {"amenity": "charging_station", "fee": "yes", "access": "yes", "opening_hours": "24/7", "brand": "Tesla Supercharger", "network": "Supercharger", "operator": "Tesla, Inc.", "name": "Marysville Supercharger", "addr:street": "Lindhurst Avenue", "addr:housenumber": "5416", "addr:postcode": "95901", "addr:city": "Marysville", "addr:country": "US", "capacity": "8", "_source": "worldwide"}}, {"type": "node", "id": 13511551826, "lat": 39.727858, "lon": -121.802447, "tags": {"amenity": "charging_station", "brand": "Blink", "operator": "Blink", "name": "Blink", "_source": "worldwide"}}, {"type": "node", "id": 13687635513, "lat": 39.724685, "lon": -121.804727, "tags": {"amenity": "charging_station", "brand": "ChargePoint", "operator": "ChargePoint", "name": "ChargePoint", "_source": "worldwide"}}]}