{"id": "55--2", "latMin": 55, "lonMin": -2, "latMax": 56, "lonMax": -1, "generated": "2026-04-16T18:39:08.737Z", "count": 38, "pois": [{"type": "node", "id": 3751988607, "lat": 55.692295, "lon": -2.866843, "tags": {"amenity": "charging_station", "operator": "evolt", "name": "Ladestation evolt", "addr:country": "GB", "capacity": "2", "_source": "worldwide"}}, {"type": "node", "id": 3752154317, "lat": 55.606024, "lon": -2.758945, "tags": {"amenity": "charging_station", "operator": "evolt", "name": "Ladestation evolt", "addr:country": "GB", "capacity": "2", "_source": "worldwide"}}, {"type": "node", "id": 1387148062, "lat": 55.603988, "lon": -2.765623, "tags": {"amenity": "charging_station", "addr:country": "GB", "_source": "worldwide"}}, {"type": "node", "id": 4049809489, "lat": 55.757064, "lon": -2.039062, "tags": {"amenity": "charging_station", "addr:country": "GB", "_source": "worldwide"}}, {"type": "node", "id": 6113518485, "lat": 55.47753, "lon": -2.552982, "tags": {"amenity": "charging_station", "operator": "ChargePlace Scotland", "name": "Ladestation ChargePlace Scotland", "addr:country": "GB", "capacity": "3", "_source": "worldwide"}}, {"type": "node", "id": 7244888686, "lat": 55.476862, "lon": -2.552985, "tags": {"amenity": "charging_station", "brand": "bp pulse", "operator": "bp pulse", "name": "bp pulse - bp pulse", "addr:country": "GB", "capacity": "1", "_source": "worldwide"}}, {"type": "node", "id": 11748844138, "lat": 55.478199, "lon": -2.552926, "tags": {"amenity": "charging_station", "operator": "zaptec", "name": "Ladestation zaptec", "addr:country": "GB", "capacity": "2", "_source": "worldwide"}}, {"type": "node", "id": 6386883037, "lat": 55.546551, "lon": -2.014852, "tags": {"amenity": "charging_station", "access": "yes", "fee": "yes", "opening_hours": "24/7", "operator": "Fuuse", "name": "Ladestation Fuuse", "addr:country": "GB", "socket:type2": "1", "socket:type2:output": "22.0 kW", "socket:type2_combo": "1", "socket:type2_combo:output": "50 kW", "socket:chademo": "1", "socket:chademo:output": "50 kW", "charging_station:output": "50 kW", "capacity": "2", "_source": "worldwide"}}, {"type": "node", "id": 11829808895, "lat": 55.545257, "lon": -2.011385, "tags": {"amenity": "charging_station", "fee": "yes", "opening_hours": "\"not 24/7\"", "operator": "Project EV", "name": "Ladestation Project EV", "addr:country": "GB", "socket:type2": "6", "socket:type2:output": "7.0 kW", "charging_station:output": "7.0 kW", "capacity": "6", "authentication:none": "", "_source": "worldwide"}}, {"type": "node", "id": 6620732878, "lat": 55.960281, "lon": -2.606203, "tags": {"amenity": "charging_station", "addr:country": "GB", "capacity": "2", "_source": "worldwide"}}, {"type": "node", "id": 7809826405, "lat": 55.428845, "lon": -2.78453, "tags": {"amenity": "charging_station", "operator": "ChargePlace Scotland", "name": "Teviotdale Leisure Centre", "addr:country": "GB", "_source": "worldwide"}}, {"type": "node", "id": 1352441766, "lat": 55.427747, "lon": -2.782529, "tags": {"amenity": "charging_station", "fee": "yes", "brand": "GeniePoint", "operator": "GeniePoint", "name": "GeniePoint - GeniePoint", "addr:country": "GB", "capacity": "2", "_source": "worldwide"}}, {"type": "node", "id": 1367669809, "lat": 55.427306, "lon": -2.783227, "tags": {"amenity": "charging_station", "addr:country": "GB", "_source": "worldwide"}}, {"type": "node", "id": 8519110407, "lat": 55.854575, "lon": -2.865595, "tags": {"amenity": "charging_station", "addr:country": "GB", "capacity": "2", "_source": "worldwide"}}, {"type": "node", "id": 8576423124, "lat": 55.638441, "lon": -2.676724, "tags": {"amenity": "charging_station", "operator": "ChargePlace Scotland", "name": "Ladestation ChargePlace Scotland", "addr:country": "GB", "capacity": "2", "_source": "worldwide"}}, {"type": "node", "id": 11766622382, "lat": 55.637183, "lon": -2.671346, "tags": {"amenity": "charging_station", "fee": "yes", "network": "Rolec EV", "operator": "Monta", "name": "Monta - Rolec EV", "addr:country": "GB", "capacity": "2", "authentication:none": "", "_source": "worldwide"}}, {"type": "node", "id": 11962981175, "lat": 55.637692, "lon": -2.671537, "tags": {"amenity": "charging_station", "fee": "yes", "network": "Rolec EV", "operator": "Monta", "name": "Monta - Rolec EV", "addr:country": "GB", "capacity": "2", "authentication:none": "", "_source": "worldwide"}}, {"type": "node", "id": 8868862467, "lat": 55.882682, "lon": -2.955769, "tags": {"amenity": "charging_station", "access": "private", "operator": "PodPoint", "name": "Ladestation PodPoint", "addr:country": "GB", "capacity": "2", "_source": "worldwide"}}, {"type": "node", "id": 8909998469, "lat": 55.976405, "lon": -2.888488, "tags": {"amenity": "charging_station", "addr:country": "GB", "_source": "worldwide"}}, {"type": "node", "id": 9015445686, "lat": 55.651998, "lon": -2.250299, "tags": {"amenity": "charging_station", "operator": "efacec", "name": "Ladestation efacec", "addr:country": "GB", "capacity": "1", "_source": "worldwide"}}, {"type": "node", "id": 9247749489, "lat": 55.546383, "lon": -2.842112, "tags": {"amenity": "charging_station", "addr:country": "GB", "_source": "worldwide"}}, {"type": "node", "id": 9704882092, "lat": 55.959199, "lon": -2.985445, "tags": {"amenity": "charging_station", "addr:country": "GB", "_source": "worldwide"}}, {"type": "node", "id": 9766884337, "lat": 55.870071, "lon": -2.089927, "tags": {"amenity": "charging_station", "access": "yes", "operator": "ChargePlace Scotland", "name": "Ladestation ChargePlace Scotland", "addr:country": "GB", "capacity": "2", "_source": "worldwide"}}, {"type": "node", "id": 9856583181, "lat": 55.641377, "lon": -2.278751, "tags": {"amenity": "charging_station", "addr:country": "GB", "capacity": "2", "_source": "worldwide"}}, {"type": "node", "id": 9910132176, "lat": 55.850375, "lon": -2.192586, "tags": {"amenity": "charging_station", "addr:country": "GB", "_source": "worldwide"}}, {"type": "node", "id": 10024359887, "lat": 55.882602, "lon": -2.302325, "tags": {"amenity": "charging_station", "access": "yes", "fee": "yes", "operator": "ChargePlace Scotland", "name": "Rapid (50 kWh) EV Charger", "addr:country": "GB", "capacity": "1", "_source": "worldwide"}}, {"type": "node", "id": 11185711147, "lat": 55.954998, "lon": -2.812601, "tags": {"amenity": "charging_station", "brand": "Osprey", "name": "Ladestation Osprey", "addr:country": "GB", "_source": "worldwide"}}, {"type": "node", "id": 11331150250, "lat": 55.144781, "lon": -2.253919, "tags": {"amenity": "charging_station", "addr:country": "GB", "_source": "worldwide"}}, {"type": "node", "id": 11359669261, "lat": 55.719566, "lon": -2.160638, "tags": {"amenity": "charging_station", "fee": "yes", "network": "EVopen", "opening_hours": "24/7", "operator": "evcharge.online", "name": "evcharge.online - EVopen", "addr:country": "GB", "socket:type2": "2", "socket:type2:output": "7.2 kW", "charging_station:output": "7.2 kW", "capacity": "2", "authentication:none": "", "_source": "worldwide"}}, {"type": "node", "id": 11465772671, "lat": 55.618778, "lon": -2.809156, "tags": {"amenity": "charging_station", "operator": "ChargePlace Scotland", "name": "Ladestation ChargePlace Scotland", "addr:country": "GB", "capacity": "2", "_source": "worldwide"}}, {"type": "node", "id": 11889402610, "lat": 55.350953, "lon": -2.128481, "tags": {"amenity": "charging_station", "addr:country": "GB", "_source": "worldwide"}}, {"type": "node", "id": 11980663586, "lat": 55.57842, "lon": -2.673892, "tags": {"amenity": "charging_station", "access": "yes", "fee": "yes", "brand": "Charge Place Scotland", "operator": "Charge Place Scotland", "name": "Charge Place Scotland - Charge Place Scotland", "addr:country": "GB", "capacity": "35", "_source": "worldwide"}}, {"type": "node", "id": 12143219027, "lat": 55.604535, "lon": -2.752386, "tags": {"amenity": "charging_station", "access": "private", "operator": "ChargePlace Scotland", "name": "Ladestation ChargePlace Scotland", "addr:country": "GB", "_source": "worldwide"}}, {"type": "node", "id": 1248938757, "lat": 55.601891, "lon": -2.752176, "tags": {"amenity": "charging_station", "access": "customers", "brand": "EV Power", "opening_hours": "24/7", "operator": "Motor Fuel Group", "name": "Motor Fuel Group - EV Power", "addr:country": "GB", "capacity": "150", "_source": "worldwide"}}, {"type": "node", "id": 12809511840, "lat": 55.336136, "lon": -2.104025, "tags": {"amenity": "charging_station", "addr:country": "GB", "capacity": "2", "_source": "worldwide"}}, {"type": "node", "id": 13005250964, "lat": 55.953675, "lon": -2.976052, "tags": {"amenity": "charging_station", "fee": "yes", "name": "East Lothian Council Journey Charger", "addr:country": "GB", "_source": "worldwide"}}, {"type": "node", "id": 13205329898, "lat": 55.547311, "lon": -2.01872, "tags": {"amenity": "charging_station", "fee": "yes", "addr:country": "GB", "capacity": "2", "_source": "worldwide"}}, {"type": "node", "id": 1377891409, "lat": 55.547227, "lon": -2.012726, "tags": {"amenity": "charging_station", "access": "yes", "fee": "yes", "opening_hours": "24/7", "operator": "Project EV", "name": "Ladestation Project EV", "addr:country": "GB", "socket:type2": "2", "socket:type2:output": "7.0 kW", "charging_station:output": "7.0 kW", "capacity": "2", "authentication:none": "", "_source": "worldwide"}}]}