{"id": "49--118", "latMin": 49, "lonMin": -118, "latMax": 50, "lonMax": -117, "generated": "2026-04-16T18:39:08.248Z", "count": 5, "pois": [{"type": "node", "id": 5855481260, "lat": 49.077621, "lon": -117.800464, "tags": {"amenity": "charging_station", "name": "EV Charging Station", "_source": "worldwide"}}, {"type": "node", "id": 9246704687, "lat": 49.294922, "lon": -117.653833, "tags": {"amenity": "charging_station", "fee": "yes", "access": "yes", "opening_hours": "24/7", "brand": "Tesla Supercharger", "network": "Supercharger", "operator": "Tesla, Inc.", "name": "Castlegar Supercharger", "addr:street": "Columbia Avenue", "addr:housenumber": "2000", "addr:postcode": "V1N 2W7", "addr:city": "Castlegar", "addr:country": "CA", "capacity": "6", "_source": "worldwide"}}, {"type": "node", "id": 11330369557, "lat": 49.193458, "lon": -117.278459, "tags": {"amenity": "charging_station", "fee": "no", "access": "yes", "brand": "FLO", "operator": "FLO", "name": "FLO", "_source": "worldwide"}}, {"type": "node", "id": 11989162377, "lat": 49.489434, "lon": -117.300801, "tags": {"amenity": "charging_station", "name": "EV Charging Station", "_source": "worldwide"}}, {"type": "node", "id": 12214339807, "lat": 49.990175, "lon": -117.370402, "tags": {"amenity": "charging_station", "operator": "Flo", "name": "Flo", "_source": "worldwide"}}]}