{"id": "49-10", "latMin": 49, "lonMin": 10, "latMax": 50, "lonMax": 11, "generated": "2026-04-16T18:39:08.308Z", "count": 583, "pois": [{"type": "node", "id": 1486479015, "lat": 49.463245, "lon": 10.998009, "tags": {"amenity": "charging_station", "access": "yes", "fee": "yes", "network": "LadeVerbundPlus", "opening_hours": "24/7", "operator": "infra fürth", "name": "infra fürth - LadeVerbundPlus", "addr:country": "DE", "socket:type2": "4", "socket:type2:output": "22.0 kW", "charging_station:output": "22.0 kW", "capacity": "4", "authentication:none": "yes", "_source": "worldwide"}}, {"type": "node", "id": 7179062739, "lat": 49.597982, "lon": 10.999361, "tags": {"amenity": "charging_station", "access": "yes", "fee": "yes", "network": "LadeverbundPlus", "opening_hours": "24/7", "operator": "Erlanger Stadtwerke", "name": "Erlanger Stadtwerke - LadeverbundPlus", "addr:street": "Parkplatzstraße 2t", "addr:postcode": "91052", "addr:city": "Erlangen", "addr:country": "DE", "socket:type2": "2", "socket:type2:output": "22.0 kW", "charging_station:output": "22.0 kW", "capacity": "2", "authentication:none": "", "_source": "worldwide"}}, {"type": "node", "id": 10790669402, "lat": 49.577102, "lon": 10.999186, "tags": {"amenity": "charging_station", "access": "permit", "operator": "Siemens SRE", "name": "Ladestation Siemens SRE", "addr:country": "DE", "socket:schuko": "1", "socket:schuko:output": "2.3 kW", "charging_station:output": "2.3 kW", "capacity": "45", "_source": "worldwide"}}, {"type": "node", "id": 13470864358, "lat": 49.594561, "lon": 10.999363, "tags": {"amenity": "charging_station", "operator": "Erlanger Stadtwerke", "name": "Ladestation Erlanger Stadtwerke", "addr:country": "DE", "_source": "worldwide"}}, {"type": "node", "id": 7490503495, "lat": 49.998998, "lon": 10.241755, "tags": {"amenity": "charging_station", "fee": "yes", "opening_hours": "24/7", "operator": "Gemeinde Schwebheim", "name": "Ladestation Gemeinde Schwebheim", "addr:country": "DE", "socket:type2": "2", "socket:type2:output": "22 kW", "charging_station:output": "22 kW", "capacity": "2", "_source": "worldwide"}}, {"type": "node", "id": 1983439454, "lat": 49.304833, "lon": 10.559602, "tags": {"amenity": "charging_station", "addr:country": "DE", "capacity": "2", "_source": "worldwide"}}, {"type": "node", "id": 12299773072, "lat": 49.303027, "lon": 10.568716, "tags": {"amenity": "charging_station", "fee": "yes", "network": "Ladeverbund+", "opening_hours": "24/7", "operator": "Stadtwerke Ansbach", "name": "Stadtwerke Ansbach - Ladeverbund+", "addr:country": "DE", "socket:type2": "2", "socket:type2:output": "22.0 kW", "charging_station:output": "22.0 kW", "capacity": "2", "_source": "worldwide"}}, {"type": "node", "id": 2619768442, "lat": 49.606138, "lon": 10.985413, "tags": {"amenity": "charging_station", "operator": "estw", "name": "Ladestation estw", "addr:country": "DE", "socket:type2": "2", "socket:type2:output": "22 kW", "charging_station:output": "22 kW", "capacity": "2", "_source": "worldwide"}}, {"type": "node", "id": 2953803117, "lat": 49.252446, "lon": 10.024096, "tags": {"amenity": "charging_station", "fee": "yes", "opening_hours": "24/7", "operator": "Gemeinde Rot am See", "name": "Ladestation Gemeinde Rot am See", "addr:street": "Raiffeisenstraße 1", "addr:postcode": "74585", "addr:city": "Rot am See", "socket:schuko": "2", "socket:schuko:output": "2.3 kW", "charging_station:output": "2.3 kW", "capacity": "2", "_source": "worldwide"}}, {"type": "node", "id": 2953803795, "lat": 49.131916, "lon": 10.055366, "tags": {"amenity": "charging_station", "operator": "Firma LSK Engineering Services", "name": "Elektrotankstelle", "addr:street": "Friedrich-Bergius-Straße 11", "addr:postcode": "74564", "addr:city": "Crailsheim", "socket:type2": "1", "socket:type2:output": "22 kW", "socket:schuko": "2", "socket:schuko:output": "2.3 kW", "charging_station:output": "22 kW", "_source": "worldwide"}}, {"type": "node", "id": 10542747444, "lat": 49.135556, "lon": 10.0599, "tags": {"amenity": "charging_station", "access": "yes", "brand": "ABL", "network": "Ladeverbund+", "operator": "Stadtwerke Crailsheim", "name": "Stadtwerke Crailsheim - ABL", "addr:street": "Voithstraße 1", "addr:postcode": "74564", "addr:city": "Crailsheim", "capacity": "2", "_source": "worldwide"}}, {"type": "node", "id": 3004457304, "lat": 49.181217, "lon": 10.069335, "tags": {"amenity": "charging_station", "access": "yes", "fee": "yes", "brand": "Tesla Supercharger", "opening_hours": "24/7", "operator": "Tesla", "name": "Satteldorf Supercharger", "addr:street": "Marco-Polo-Straße 1", "addr:postcode": "74589", "addr:city": "Satteldorf", "addr:country": "DE", "socket:type2_combo": "10", "socket:type2_combo:output": "250.0 kW", "socket:tesla_supercharger": "10", "socket:tesla_supercharger:output": "150 kW", "charging_station:output": "250.0 kW", "capacity": "10", "_source": "worldwide"}}, {"type": "node", "id": 7579880793, "lat": 49.180524, "lon": 10.072107, "tags": {"amenity": "charging_station", "fee": "no", "opening_hours": "Mo-Sa 08:00-20:00", "addr:country": "DE", "socket:type2": "1", "socket:type2:output": "22 kW", "socket:type2_combo": "1", "socket:type2_combo:output": "50 kW", "socket:chademo": "1", "socket:chademo:output": "50 kW", "charging_station:output": "50 kW", "capacity": "1", "_source": "worldwide"}}, {"type": "node", "id": 3421185210, "lat": 49.58233, "lon": 10.606447, "tags": {"amenity": "charging_station", "operator": "chrg.me", "name": "Ladestation chrg.me", "addr:country": "DE", "socket:type2": "5", "socket:type2:output": "22 kW", "socket:type2_combo": "1", "socket:type2_combo:output": "50 kW", "charging_station:output": "50 kW", "authentication:none": "", "_source": "worldwide"}}, {"type": "node", "id": 6297225807, "lat": 49.583922, "lon": 10.609815, "tags": {"amenity": "charging_station", "operator": "Stadtwerke Neustadt", "name": "Ladestation Stadtwerke Neustadt", "addr:street": "Markgrafenstraße 24", "addr:postcode": "91413", "addr:city": "Neustadt an der Aisch", "addr:country": "DE", "socket:type2": "1", "socket:type2:output": "22 kW", "charging_station:output": "22 kW", "_source": "worldwide"}}, {"type": "node", "id": 3588364373, "lat": 49.865538, "lon": 10.226114, "tags": {"amenity": "charging_station", "fee": "no", "opening_hours": "24/7", "operator": "UEZ Elektromobil", "name": "Ladestation UEZ Elektromobil", "addr:country": "DE", "socket:schuko": "6", "socket:schuko:output": "2.3 kW", "charging_station:output": "2.3 kW", "capacity": "6", "_source": "worldwide"}}, {"type": "node", "id": 6902234347, "lat": 49.865689, "lon": 10.224537, "tags": {"amenity": "charging_station", "access": "yes", "network": "Ladenetz", "opening_hours": "24/7", "operator": "Unterfränkische Überlandzentrale", "name": "Ladestation Georg-Berz-Straße", "addr:country": "DE", "socket:type2": "2", "socket:type2:output": "22.0 kW", "charging_station:output": "22.0 kW", "capacity": "2", "_source": "worldwide"}}, {"type": "node", "id": 3730390503, "lat": 49.769589, "lon": 10.470294, "tags": {"amenity": "charging_station", "access": "yes", "fee": "yes", "brand": "Tesla Supercharger", "opening_hours": "24/7", "operator": "Tesla", "name": "Geiselwind Supercharger", "addr:street": "Scheinfelder Straße 15", "addr:postcode": "96160", "addr:city": "Geiselwind", "addr:country": "DE", "socket:type2_combo": "34", "socket:type2_combo:output": "250.0 kW", "socket:tesla_supercharger": "34", "socket:tesla_supercharger:output": "150.0 kW", "charging_station:output": "250.0 kW", "capacity": "34", "_source": "worldwide"}}, {"type": "node", "id": 7210852097, "lat": 49.769061, "lon": 10.470821, "tags": {"amenity": "charging_station", "fee": "yes", "brand": "E.ON Drive", "operator": "E.ON", "name": "EON Schnellader Geiselwind", "addr:country": "DE", "socket:type2_combo": "4", "socket:type2_combo:output": "175.0 kW", "socket:chademo": "4", "socket:chademo:output": "60.0 kW", "charging_station:output": "175.0 kW", "capacity": "4", "_source": "worldwide"}}, {"type": "node", "id": 3767627607, "lat": 49.259973, "lon": 10.496915, "tags": {"amenity": "charging_station", "addr:country": "DE", "_source": "worldwide"}}, {"type": "node", "id": 10654083842, "lat": 49.258709, "lon": 10.501482, "tags": {"amenity": "charging_station", "access": "yes", "fee": "yes", "brand": "Aral pulse", "operator": "Aral", "name": "Aral - Aral pulse", "addr:country": "DE", "capacity": "300", "_source": "worldwide"}}, {"type": "node", "id": 10669390758, "lat": 49.257985, "lon": 10.501796, "tags": {"amenity": "charging_station", "access": "yes", "fee": "yes", "brand": "Tesla Supercharger", "opening_hours": "24/7", "operator": "Tesla", "name": "Herrieden Supercharger", "addr:street": "Am Eichelberg 1", "addr:postcode": "91567", "addr:city": "Herrieden", "addr:country": "DE", "socket:type2_combo": "12", "socket:type2_combo:output": "250.0 kW", "charging_station:output": "250.0 kW", "capacity": "12", "_source": "worldwide"}}, {"type": "node", "id": 3773334579, "lat": 49.477644, "lon": 10.990403, "tags": {"amenity": "charging_station", "access": "yes", "fee": "no", "opening_hours": "24/7", "operator": "infra fürth", "name": "Ladestation infra fürth", "addr:country": "DE", "socket:type2": "2", "socket:type2:output": "22 kW", "charging_station:output": "22 kW", "capacity": "1", "authentication:none": "yes", "_source": "worldwide"}}, {"type": "node", "id": 13149947393, "lat": 49.477362, "lon": 10.989023, "tags": {"amenity": "charging_station", "operator": "infra fürth", "name": "Ladestation infra fürth", "addr:country": "DE", "capacity": "4", "_source": "worldwide"}}, {"type": "node", "id": 3808282019, "lat": 49.913495, "lon": 10.869007, "tags": {"amenity": "charging_station", "brand": "MediaMarkt", "operator": "Stadt Bamberg", "name": "Stadt Bamberg - MediaMarkt", "addr:country": "DE", "socket:type2": "2", "socket:type2:output": "22 kW", "socket:schuko": "2", "socket:schuko:output": "2.3 kW", "charging_station:output": "22 kW", "capacity": "2", "_source": "worldwide"}}, {"type": "node", "id": 10670008005, "lat": 49.91164, "lon": 10.87614, "tags": {"amenity": "charging_station", "operator": "Lidl", "name": "Lidl", "addr:country": "DE", "capacity": "3", "_source": "worldwide"}}, {"type": "node", "id": 12756691874, "lat": 49.914116, "lon": 10.866407, "tags": {"amenity": "charging_station", "access": "yes", "fee": "yes", "brand": "Shell Recharge Solutions", "operator": "Shell Recharge", "name": "Shell Recharge - Shell Recharge Solutions", "addr:country": "DE", "capacity": "6", "_source": "worldwide"}}, {"type": "node", "id": 3873725710, "lat": 49.66078, "lon": 10.91919, "tags": {"amenity": "charging_station", "operator": "bft", "name": "Pickelmann", "addr:country": "DE", "capacity": "1", "_source": "worldwide"}}, {"type": "node", "id": 3938308493, "lat": 49.570216, "lon": 10.881915, "tags": {"amenity": "charging_station", "fee": "yes", "brand": "LadeVerbund+", "operator": "Herzo Werke", "name": "Herzo Werke - LadeVerbund+", "addr:country": "DE", "socket:type2": "4", "socket:type2:output": "11.0 kW", "charging_station:output": "11.0 kW", "capacity": "4", "_source": "worldwide"}}, {"type": "node", "id": 8393811438, "lat": 49.567832, "lon": 10.880843, "tags": {"amenity": "charging_station", "access": "yes", "fee": "yes", "network": "ladeverbund+", "opening_hours": "24/7", "operator": "Herzo Werke", "name": "Parkplatz An der Schütt", "addr:country": "DE", "socket:type2": "2", "socket:type2:output": "22.0 kW", "charging_station:output": "22.0 kW", "capacity": "2", "_source": "worldwide"}}, {"type": "node", "id": 8393811439, "lat": 49.567387, "lon": 10.882269, "tags": {"amenity": "charging_station", "access": "yes", "fee": "yes", "network": "Ladeverbund+", "opening_hours": "24/7", "operator": "Herzo Werke", "name": "Parkdeck an der Schütt", "addr:country": "DE", "socket:type2": "4", "socket:type2:output": "22.0 kW", "charging_station:output": "22.0 kW", "capacity": "4", "_source": "worldwide"}}, {"type": "node", "id": 11845209455, "lat": 49.569749, "lon": 10.877943, "tags": {"amenity": "charging_station", "access": "unknown", "operator": "bike-energy", "name": "Ladestation bike-energy", "addr:country": "DE", "_source": "worldwide"}}, {"type": "node", "id": 3995595193, "lat": 49.032947, "lon": 10.969847, "tags": {"amenity": "charging_station", "operator": "Stadt Weißenburg", "name": "Ladestation Elektrofahrzeug", "addr:country": "DE", "capacity": "1", "wheelchair": "yes", "authentication:none": "yes", "_source": "worldwide"}}, {"type": "node", "id": 3995595194, "lat": 49.031466, "lon": 10.970382, "tags": {"amenity": "charging_station", "operator": "Stadt Weißenburg", "name": "Ladestation E-Bikes", "addr:country": "DE", "authentication:none": "yes", "_source": "worldwide"}}, {"type": "node", "id": 10250575009, "lat": 49.026643, "lon": 10.975312, "tags": {"amenity": "charging_station", "access": "yes", "fee": "yes", "network": "LadeVerbundPlus", "operator": "Stadtwerke Weißenburg", "name": "Stadtwerke Weißenburg - LadeVerbundPlus", "addr:country": "DE", "socket:type2": "4", "socket:type2:output": "22.0 kW", "charging_station:output": "22.0 kW", "capacity": "4", "authentication:none": "", "_source": "worldwide"}}, {"type": "node", "id": 10944710368, "lat": 49.03083, "lon": 10.972777, "tags": {"amenity": "charging_station", "access": "yes", "fee": "yes", "network": "LadeVerbundPlus", "operator": "Stadtwerke Weißenburg", "name": "Stadtwerke Weißenburg - LadeVerbundPlus", "addr:country": "DE", "socket:type2": "2", "socket:type2:output": "22.0 kW", "charging_station:output": "22.0 kW", "capacity": "2", "authentication:none": "", "_source": "worldwide"}}, {"type": "node", "id": 12199257899, "lat": 49.029112, "lon": 10.970175, "tags": {"amenity": "charging_station", "access": "yes", "fee": "yes", "network": "LadeVerbundPlus", "operator": "Stadtwerke Weißenburg", "name": "Stadtwerke Weißenburg - LadeVerbundPlus", "addr:country": "DE", "socket:type2": "2", "socket:type2:output": "22.0 kW", "charging_station:output": "22.0 kW", "capacity": "2", "authentication:none": "", "_source": "worldwide"}}, {"type": "node", "id": 12201947843, "lat": 49.03175, "lon": 10.9747, "tags": {"amenity": "charging_station", "access": "yes", "fee": "yes", "network": "LadeVerbundPlus", "operator": "Stadtwerke Weißenburg", "name": "Stadtwerke Weißenburg - LadeVerbundPlus", "addr:country": "DE", "socket:type2": "4", "socket:type2:output": "22.0 kW", "charging_station:output": "22.0 kW", "capacity": "4", "authentication:none": "", "_source": "worldwide"}}, {"type": "node", "id": 12201947845, "lat": 49.029115, "lon": 10.965398, "tags": {"amenity": "charging_station", "access": "yes", "fee": "yes", "network": "Digital Energy Solutions", "operator": "Total Deutschland", "name": "Total Deutschland - Digital Energy Solutions", "addr:country": "DE", "socket:type2": "2", "socket:type2:output": "22.0 kW", "charging_station:output": "22.0 kW", "capacity": "2", "authentication:none": "", "_source": "worldwide"}}, {"type": "node", "id": 12395694424, "lat": 49.029582, "lon": 10.966037, "tags": {"amenity": "charging_station", "access": "yes", "operator": "N-ERGIE", "name": "Ladestation N-ERGIE", "addr:country": "DE", "capacity": "150", "_source": "worldwide"}}, {"type": "node", "id": 4070049636, "lat": 49.848394, "lon": 10.470233, "tags": {"amenity": "charging_station", "opening_hours": "24/7", "operator": "N-ERGIE", "name": "Ladestation N-ERGIE", "addr:country": "DE", "socket:type2": "4", "socket:type2:output": "22 kW", "charging_station:output": "22 kW", "capacity": "4", "_source": "worldwide"}}, {"type": "node", "id": 4070049643, "lat": 49.848362, "lon": 10.466555, "tags": {"amenity": "charging_station", "fee": "no", "opening_hours": "24/7", "operator": "N-ERGIE", "name": "Ladestation N-ERGIE", "addr:country": "DE", "capacity": "6", "authentication:none": "yes", "_source": "worldwide"}}, {"type": "node", "id": 4177430480, "lat": 49.73073, "lon": 10.141092, "tags": {"amenity": "charging_station", "operator": "Belectric Drive", "name": "Ladestation Belectric Drive", "addr:country": "DE", "_source": "worldwide"}}, {"type": "node", "id": 4214103877, "lat": 49.105503, "lon": 10.985317, "tags": {"amenity": "charging_station", "operator": "Markt Pleinfeld", "name": "Ladestation Markt Pleinfeld", "addr:country": "DE", "_source": "worldwide"}}, {"type": "node", "id": 4271048902, "lat": 49.442863, "lon": 10.994868, "tags": {"amenity": "charging_station", "fee": "yes", "opening_hours": "24/7", "operator": "Auto Menkhof", "name": "Ladestation Auto Menkhof", "addr:country": "DE", "socket:type2": "2", "socket:type2:output": "22 kW", "charging_station:output": "22 kW", "_source": "worldwide"}}, {"type": "node", "id": 4275446730, "lat": 49.483721, "lon": 10.973035, "tags": {"amenity": "charging_station", "fee": "yes", "network": "LadeVerbundPlus", "opening_hours": "24/7", "operator": "infra fürth", "name": "infra fürth - LadeVerbundPlus", "addr:country": "DE", "socket:type2": "2", "socket:type2:output": "22.0 kW", "charging_station:output": "22.0 kW", "capacity": "2", "authentication:none": "yes", "_source": "worldwide"}}, {"type": "node", "id": 13685070192, "lat": 49.483005, "lon": 10.966057, "tags": {"amenity": "charging_station", "access": "customers", "fee": "yes", "brand": "A.T.U", "operator": "Allego", "name": "Allego - A.T.U", "addr:country": "DE", "socket:type2_combo": "2", "socket:type2_combo:output": "150.0 kW", "charging_station:output": "150.0 kW", "capacity": "2", "_source": "worldwide"}}, {"type": "node", "id": 4275454908, "lat": 49.479953, "lon": 10.956434, "tags": {"amenity": "charging_station", "fee": "yes", "network": "LadeVerbundPlus", "opening_hours": "24/7", "operator": "infra fürth", "name": "infra fürth - LadeVerbundPlus", "addr:country": "DE", "socket:type2": "2", "socket:type2:output": "22.0 kW", "charging_station:output": "22.0 kW", "capacity": "2", "authentication:none": "yes", "_source": "worldwide"}}, {"type": "node", "id": 5301482107, "lat": 49.48204, "lon": 10.963627, "tags": {"amenity": "charging_station", "operator": "eeMobility / Siemens", "name": "Ladestation eeMobility / Siemens", "addr:country": "DE", "capacity": "2", "_source": "worldwide"}}, {"type": "node", "id": 4392991794, "lat": 49.574612, "lon": 10.630619, "tags": {"amenity": "charging_station", "access": "yes", "fee": "no", "brand": "bike-energy", "network": "bike-energy", "operator": "Neustädter Waldbad", "name": "bike-energy", "addr:street": "Eilersweg 6", "addr:postcode": "91413", "addr:city": "Neustadt an der Aisch", "addr:country": "DE", "socket:schuko": "2", "socket:schuko:output": "2.3 kW", "charging_station:output": "2.3 kW", "capacity": "8", "authentication:none": "yes", "_source": "worldwide"}}, {"type": "node", "id": 4393111237, "lat": 49.431677, "lon": 10.942725, "tags": {"amenity": "charging_station", "addr:country": "DE", "_source": "worldwide"}}, {"type": "node", "id": 4467543545, "lat": 49.779351, "lon": 10.246337, "tags": {"amenity": "charging_station", "fee": "yes", "brand": "Innogy", "opening_hours": "24/7", "operator": "Innogy", "name": "Innogy Haidt Süd", "addr:country": "DE", "socket:type2": "1", "socket:type2:output": "43.0 kW", "socket:type2_combo": "1", "socket:type2_combo:output": "50.0 kW", "socket:chademo": "1", "socket:chademo:output": "50.0 kW", "charging_station:output": "50.0 kW", "capacity": "2", "_source": "worldwide"}}, {"type": "node", "id": 4594587354, "lat": 49.781137, "lon": 10.244865, "tags": {"amenity": "charging_station", "fee": "yes", "opening_hours": "24/7", "operator": "Charge-ON", "name": "Charge-ON - Charge-ON GmbH", "addr:country": "DE", "socket:type2_combo": "1", "socket:type2_combo:output": "50.0 kW", "socket:chademo": "1", "socket:chademo:output": "50.0 kW", "charging_station:output": "50.0 kW", "capacity": "2", "authentication:none": "yes", "_source": "worldwide"}}, {"type": "node", "id": 4476438170, "lat": 49.86126, "lon": 10.175709, "tags": {"amenity": "charging_station", "name": "Elektro-Bike Ladestation", "addr:country": "DE", "socket:schuko": "3", "socket:schuko:output": "2.3 kW", "charging_station:output": "2.3 kW", "_source": "worldwide"}}, {"type": "node", "id": 1419920362, "lat": 49.859474, "lon": 10.175836, "tags": {"amenity": "charging_station", "access": "yes", "fee": "yes", "operator": "Campingplatz Escherndorf", "name": "Ladestation Campingplatz Escherndorf", "addr:country": "DE", "capacity": "2", "_source": "worldwide"}}, {"type": "node", "id": 4502247862, "lat": 49.918677, "lon": 10.80796, "tags": {"amenity": "charging_station", "addr:country": "DE", "_source": "worldwide"}}, {"type": "node", "id": 4503042013, "lat": 49.78702, "lon": 10.022079, "tags": {"amenity": "charging_station", "access": "private", "addr:country": "DE", "capacity": "1", "_source": "worldwide"}}, {"type": "node", "id": 4591150201, "lat": 49.945485, "lon": 10.016339, "tags": {"amenity": "charging_station", "network": "E.ON", "opening_hours": "24/7", "operator": "Tank & Rast", "name": "Riedener Wald West", "addr:country": "DE", "socket:type2_combo": "2", "socket:type2_combo:output": "50.0 kW", "charging_station:output": "50.0 kW", "authentication:none": "yes", "_source": "worldwide"}}, {"type": "node", "id": 4592956391, "lat": 49.581718, "lon": 10.930677, "tags": {"amenity": "charging_station", "fee": "no", "opening_hours": "24/7", "operator": "Tank & Rast", "name": "Aurach Nord", "addr:country": "DE", "socket:type2": "1", "socket:type2:output": "43.0 kW", "socket:type2_combo": "1", "socket:type2_combo:output": "50.0 kW", "socket:chademo": "1", "socket:chademo:output": "50.0 kW", "charging_station:output": "50.0 kW", "capacity": "2", "authentication:none": "yes", "_source": "worldwide"}}, {"type": "node", "id": 4592963291, "lat": 49.582249, "lon": 10.927081, "tags": {"amenity": "charging_station", "fee": "no", "opening_hours": "24/7", "operator": "Tank & Rast", "name": "Aurach Süd", "addr:country": "DE", "socket:type2": "1", "socket:type2:output": "43.0 kW", "socket:type2_combo": "1", "socket:type2_combo:output": "50.0 kW", "socket:chademo": "1", "socket:chademo:output": "50.0 kW", "charging_station:output": "50.0 kW", "capacity": "3", "authentication:none": "yes", "_source": "worldwide"}}, {"type": "node", "id": 8527776115, "lat": 49.581794, "lon": 10.926847, "tags": {"amenity": "charging_station", "access": "yes", "fee": "yes", "opening_hours": "24/7", "operator": "EnBW", "name": "EnBW - EnBW Energie Baden-Württemberg AG", "addr:country": "DE", "socket:type2": "1", "socket:type2:output": "22 kW", "socket:type2_combo": "1", "socket:type2_combo:output": "50.0 kW", "socket:chademo": "1", "socket:chademo:output": "50.0 kW", "charging_station:output": "50.0 kW", "capacity": "2", "_source": "worldwide"}}, {"type": "node", "id": 4683073410, "lat": 49.240975, "lon": 10.355915, "tags": {"amenity": "charging_station", "access": "yes", "fee": "yes", "brand": "Innogy", "opening_hours": "24/7", "operator": "Innogy", "name": "BAT Frankenhöhe Süd A6", "addr:country": "DE", "socket:type2": "1", "socket:type2:output": "22 kW", "socket:type2_combo": "1", "socket:type2_combo:output": "50.0 kW", "socket:chademo": "1", "socket:chademo:output": "50 kW", "charging_station:output": "50.0 kW", "capacity": "1", "_source": "worldwide"}}, {"type": "node", "id": 4683092342, "lat": 49.242724, "lon": 10.353315, "tags": {"amenity": "charging_station", "access": "yes", "fee": "yes", "operator": "Tank & Rast", "name": "Ladestation Tank & Rast", "addr:country": "DE", "socket:type2": "1", "socket:type2:output": "22 kW", "socket:type2_combo": "1", "socket:type2_combo:output": "50 kW", "socket:chademo": "1", "socket:chademo:output": "50 kW", "charging_station:output": "50 kW", "capacity": "1", "_source": "worldwide"}}, {"type": "node", "id": 4743899561, "lat": 49.664774, "lon": 10.061098, "tags": {"amenity": "charging_station", "name": "Parkplatz Brunnenstraße", "addr:country": "DE", "socket:type2": "2", "socket:type2:output": "22 kW", "charging_station:output": "22 kW", "capacity": "2", "_source": "worldwide"}}, {"type": "node", "id": 11992565206, "lat": 49.666396, "lon": 10.060758, "tags": {"amenity": "charging_station", "access": "yes", "fee": "no", "opening_hours": "Mo-Fr 09:00-21:00; Tu off; Sa 14:00-21:00; Su,PH 10:30-21:00 || \"Nutzbar zu den Öffnungszeiten des Restaurant Flockenwerk\"", "addr:country": "DE", "capacity": "10", "authentication:none": "yes", "_source": "worldwide"}}, {"type": "node", "id": 4743902225, "lat": 49.664367, "lon": 10.065425, "tags": {"amenity": "charging_station", "access": "yes", "fee": "no", "brand": "bike-energy", "network": "bike energy", "opening_hours": "24/7", "operator": "bike-energy", "name": "bike-energy", "addr:country": "DE", "socket:schuko": "1", "socket:schuko:output": "2.3 kW", "charging_station:output": "2.3 kW", "capacity": "4", "authentication:none": "yes", "_source": "worldwide"}}, {"type": "node", "id": 4784703232, "lat": 49.308492, "lon": 10.968406, "tags": {"amenity": "charging_station", "fee": "no", "opening_hours": "24/7", "operator": "Tank & Rast", "name": "Ladestation Tank & Rast", "addr:country": "DE", "socket:type2": "1", "socket:type2:output": "43.0 kW", "socket:type2_combo": "1", "socket:type2_combo:output": "50.0 kW", "socket:chademo": "1", "socket:chademo:output": "50.0 kW", "charging_station:output": "50.0 kW", "capacity": "3", "authentication:none": "yes", "_source": "worldwide"}}, {"type": "node", "id": 4784713733, "lat": 49.305863, "lon": 10.968848, "tags": {"amenity": "charging_station", "fee": "no", "opening_hours": "24/7", "operator": "Tank & Rast", "name": "Ladestation Tank & Rast", "addr:country": "DE", "socket:type2": "1", "socket:type2:output": "43.0 kW", "socket:type2_combo": "1", "socket:type2_combo:output": "50.0 kW", "socket:chademo": "1", "socket:chademo:output": "50.0 kW", "charging_station:output": "50.0 kW", "capacity": "3", "authentication:none": "yes", "_source": "worldwide"}}, {"type": "node", "id": 4803011181, "lat": 49.81604, "lon": 10.989892, "tags": {"amenity": "charging_station", "operator": "Optik Porzky", "name": "Ladestation Optik Porzky", "addr:country": "DE", "socket:schuko": "1", "socket:schuko:output": "2.3 kW", "charging_station:output": "2.3 kW", "_source": "worldwide"}}, {"type": "node", "id": 4834689857, "lat": 49.577245, "lon": 10.883673, "tags": {"amenity": "charging_station", "access": "customers", "fee": "no", "opening_hours": "Mo-Sa 08:00-20:00", "operator": "Denn's Biomarkt", "name": "Ladestation Denn's Biomarkt", "addr:country": "DE", "socket:type2": "2", "socket:type2:output": "22.0 kW", "socket:schuko": "2", "socket:schuko:output": "2.3 kW", "charging_station:output": "22.0 kW", "capacity": "2", "_source": "worldwide"}}, {"type": "node", "id": 4916715555, "lat": 49.579534, "lon": 10.881446, "tags": {"amenity": "charging_station", "operator": "Herzo Werke", "name": "Ladestation Herzo Werke", "addr:country": "DE", "capacity": "2", "_source": "worldwide"}}, {"type": "node", "id": 7271918406, "lat": 49.57939, "lon": 10.883142, "tags": {"amenity": "charging_station", "operator": "WAS Servicecentrum", "name": "Ladestation WAS Servicecentrum", "addr:country": "DE", "capacity": "2", "_source": "worldwide"}}, {"type": "node", "id": 13123280970, "lat": 49.579437, "lon": 10.887076, "tags": {"amenity": "charging_station", "access": "yes", "fee": "yes", "brand": "eviny", "opening_hours": "24/7", "operator": "eviny", "name": "eviny - eviny", "addr:country": "DE", "socket:type2_combo": "8", "socket:type2_combo:output": "200.0 kW", "charging_station:output": "200.0 kW", "capacity": "8", "_source": "worldwide"}}, {"type": "node", "id": 13123353300, "lat": 49.578927, "lon": 10.885604, "tags": {"amenity": "charging_station", "access": "yes", "fee": "yes", "brand": "Aral pulse", "operator": "Aral", "name": "Aral - Aral pulse", "addr:country": "DE", "socket:type2_combo": "4", "socket:type2_combo:output": "150.0 kW", "charging_station:output": "150.0 kW", "capacity": "4", "_source": "worldwide"}}, {"type": "node", "id": 4868299197, "lat": 49.86732, "lon": 10.182836, "tags": {"amenity": "charging_station", "fee": "no", "operator": "N-ERGIE", "name": "Ladestation N-ERGIE", "addr:country": "DE", "socket:schuko": "1", "socket:schuko:output": "2.3 kW", "charging_station:output": "2.3 kW", "capacity": "4", "authentication:none": "yes", "_source": "worldwide"}}, {"type": "node", "id": 6356676233, "lat": 49.867251, "lon": 10.182115, "tags": {"amenity": "charging_station", "fee": "yes", "opening_hours": "24/7", "operator": "N-ERGIE", "name": "Ladestation N-ERGIE", "addr:country": "DE", "socket:type2": "2", "socket:type2:output": "22 kW", "charging_station:output": "22 kW", "capacity": "2", "_source": "worldwide"}}, {"type": "node", "id": 4900353557, "lat": 49.044662, "lon": 10.487906, "tags": {"amenity": "charging_station", "addr:street": "Römerpark Ruffenhofen 1", "addr:postcode": "91749", "addr:city": "Wittelshofen", "capacity": "3", "_source": "worldwide"}}, {"type": "node", "id": 4908184732, "lat": 49.198632, "lon": 10.17581, "tags": {"amenity": "charging_station", "fee": "no", "addr:country": "DE", "socket:type2": "2", "socket:type2:output": "22 kW", "charging_station:output": "22 kW", "capacity": "2", "authentication:none": "yes", "_source": "worldwide"}}, {"type": "node", "id": 4990163955, "lat": 49.441135, "lon": 10.959358, "tags": {"amenity": "charging_station", "access": "yes", "fee": "yes", "network": "Ladeverbund+", "opening_hours": "24/7", "operator": "Stadtwerke Zirndorf", "name": "Ladestation Kolbstraße", "addr:street": "Kolbstraße 3", "addr:postcode": "90513", "addr:city": "Zirndorf", "socket:type2": "2", "socket:type2:output": "22.0 kW", "charging_station:output": "22.0 kW", "capacity": "2", "_source": "worldwide"}}, {"type": "node", "id": 5057348966, "lat": 49.144737, "lon": 10.91299, "tags": {"amenity": "charging_station", "operator": "N-ERGIE", "name": "Ladestation N-ERGIE", "addr:country": "DE", "_source": "worldwide"}}, {"type": "node", "id": 13404376061, "lat": 49.144118, "lon": 10.916187, "tags": {"amenity": "charging_station", "operator": "N-ERGIE", "name": "Ladestation N-ERGIE", "addr:country": "DE", "socket:type2": "2", "socket:type2:output": "22 kW", "charging_station:output": "22 kW", "capacity": "2", "_source": "worldwide"}}, {"type": "node", "id": 5110955623, "lat": 49.485692, "lon": 10.21286, "tags": {"amenity": "charging_station", "operator": "Tank & Rast", "name": "Ladestation Tank & Rast", "addr:country": "DE", "capacity": "8", "_source": "worldwide"}}, {"type": "node", "id": 9045534831, "lat": 49.484369, "lon": 10.211935, "tags": {"amenity": "charging_station", "fee": "yes", "brand": "Ionity", "operator": "IONITY", "name": "IONITY Charging Station", "addr:country": "DE", "capacity": "4", "_source": "worldwide"}}, {"type": "node", "id": 5149388489, "lat": 49.233157, "lon": 10.498089, "tags": {"amenity": "charging_station", "name": "Ladestation Marktplatz", "addr:country": "DE", "_source": "worldwide"}}, {"type": "node", "id": 5152284960, "lat": 49.237844, "lon": 10.49656, "tags": {"amenity": "charging_station", "addr:country": "DE", "_source": "worldwide"}}, {"type": "node", "id": 10725407672, "lat": 49.235437, "lon": 10.496122, "tags": {"amenity": "charging_station", "addr:country": "DE", "_source": "worldwide"}}, {"type": "node", "id": 5176564316, "lat": 49.431107, "lon": 10.971227, "tags": {"amenity": "charging_station", "operator": "N-ERGIE", "name": "Ladestation N-ERGIE", "addr:country": "DE", "capacity": "2", "_source": "worldwide"}}, {"type": "node", "id": 5197069843, "lat": 49.615054, "lon": 10.509584, "tags": {"amenity": "charging_station", "addr:country": "DE", "_source": "worldwide"}}, {"type": "node", "id": 5261787749, "lat": 49.900838, "lon": 10.884771, "tags": {"amenity": "charging_station", "fee": "yes", "operator": "STWB Stadtwerke Bamberg", "name": "Ladestation STWB Stadtwerke Bamberg", "addr:country": "DE", "capacity": "2", "_source": "worldwide"}}, {"type": "node", "id": 5403251954, "lat": 49.903521, "lon": 10.887307, "tags": {"amenity": "charging_station", "opening_hours": "24/7", "operator": "Stadtwerke Bamberg", "name": "Ladestation Stadtwerke Bamberg", "addr:country": "DE", "capacity": "2", "_source": "worldwide"}}, {"type": "node", "id": 6987393105, "lat": 49.902812, "lon": 10.90671, "tags": {"amenity": "charging_station", "opening_hours": "24/7", "operator": "Stadtwerke Bamberg", "name": "Ladestation Stadtwerke Bamberg", "addr:country": "DE", "socket:type2": "2", "socket:type2:output": "22 kW", "charging_station:output": "22 kW", "capacity": "2", "_source": "worldwide"}}, {"type": "node", "id": 9937569233, "lat": 49.901426, "lon": 10.900058, "tags": {"amenity": "charging_station", "operator": "Stadtwerke Bamberg", "name": "Ladestation Stadtwerke Bamberg", "addr:country": "DE", "socket:type2": "2", "socket:type2:output": "22 kW", "charging_station:output": "22 kW", "capacity": "2", "_source": "worldwide"}}, {"type": "node", "id": 5380474939, "lat": 49.932442, "lon": 10.95469, "tags": {"amenity": "charging_station", "network": "New Motion", "operator": "Gemeinde Memmelsdorf", "name": "Gemeinde Memmelsdorf - New Motion", "addr:country": "DE", "socket:type2": "2", "socket:type2:output": "22.0 kW", "charging_station:output": "22.0 kW", "capacity": "2", "_source": "worldwide"}}, {"type": "node", "id": 6994336353, "lat": 49.929192, "lon": 10.95374, "tags": {"amenity": "charging_station", "opening_hours": "24/7", "addr:country": "DE", "_source": "worldwide"}}, {"type": "node", "id": 5444100927, "lat": 49.63553, "lon": 10.882436, "tags": {"amenity": "charging_station", "operator": "promedias", "name": "promedias - promedias GmbH", "addr:country": "DE", "socket:type2": "2", "socket:type2:output": "22 kW", "charging_station:output": "22 kW", "_source": "worldwide"}}, {"type": "node", "id": 5461245292, "lat": 49.898943, "lon": 10.899448, "tags": {"amenity": "charging_station", "operator": "Landratsamt Bamberg", "name": "Ladestation Landratsamt Bamberg", "addr:country": "DE", "capacity": "2", "_source": "worldwide"}}, {"type": "node", "id": 7887793482, "lat": 49.895216, "lon": 10.899294, "tags": {"amenity": "charging_station", "operator": "TheNewMotion", "name": "Ladestation TheNewMotion", "addr:country": "DE", "capacity": "2", "_source": "worldwide"}}, {"type": "node", "id": 11469029805, "lat": 49.476911, "lon": 10.975794, "tags": {"amenity": "charging_station", "fee": "yes", "operator": "infra fürth gmbh", "name": "Ladestation infra fürth gmbh", "addr:country": "DE", "socket:type2": "6", "socket:type2:output": "22 kW", "charging_station:output": "22 kW", "capacity": "6", "_source": "worldwide"}}, {"type": "node", "id": 5528095766, "lat": 49.847366, "lon": 10.492885, "tags": {"amenity": "charging_station", "operator": "EVlink", "name": "Ladestation EVlink", "addr:country": "DE", "socket:type2": "2", "socket:type2:output": "22 kW", "charging_station:output": "22 kW", "capacity": "2", "_source": "worldwide"}}, {"type": "node", "id": 5572019694, "lat": 49.380436, "lon": 10.178871, "tags": {"amenity": "charging_station", "access": "yes", "fee": "yes", "opening_hours": "24/7", "operator": "Stadtwerke Rothenburg ob der Tauber", "name": "Stadtwerke Rothenburg ob der Tauber - Stadtwerke Rothenburg ob der Tauber GmbH", "addr:country": "DE", "socket:type2": "2", "socket:type2:output": "22 kW", "socket:schuko": "2", "socket:schuko:output": "2.3 kW", "charging_station:output": "22 kW", "capacity": "2", "_source": "worldwide"}}, {"type": "node", "id": 11810107782, "lat": 49.381211, "lon": 10.18039, "tags": {"amenity": "charging_station", "operator": "N-ERGIE", "name": "Ladestation N-ERGIE", "addr:country": "DE", "capacity": "2", "_source": "worldwide"}}, {"type": "node", "id": 5572050035, "lat": 49.067494, "lon": 10.333476, "tags": {"amenity": "charging_station", "operator": "Stadtwerke Dinkelsbühl", "name": "Ladestation Stadtwerke Dinkelsbühl", "addr:country": "DE", "capacity": "22", "_source": "worldwide"}}, {"type": "node", "id": 10654427968, "lat": 49.069718, "lon": 10.327166, "tags": {"amenity": "charging_station", "access": "yes", "fee": "yes", "operator": "Comfortcharge", "name": "Ladestation Comfortcharge", "addr:country": "DE", "capacity": "150", "_source": "worldwide"}}, {"type": "node", "id": 13592051756, "lat": 49.067866, "lon": 10.329264, "tags": {"amenity": "charging_station", "operator": "EWE Go", "name": "Ladestation EWE Go", "addr:country": "DE", "capacity": "2", "_source": "worldwide"}}, {"type": "node", "id": 5599721964, "lat": 49.483469, "lon": 10.997639, "tags": {"amenity": "charging_station", "operator": "infra fürth", "name": "Ladestation infra fürth", "addr:country": "DE", "capacity": "2", "_source": "worldwide"}}, {"type": "node", "id": 5662831632, "lat": 49.90026, "lon": 10.923366, "tags": {"amenity": "charging_station", "operator": "Stadtwerke Bamberg", "name": "Ladestation Stadtwerke Bamberg", "addr:country": "DE", "capacity": "2", "_source": "worldwide"}}, {"type": "node", "id": 5711336331, "lat": 49.987529, "lon": 10.854715, "tags": {"amenity": "charging_station", "fee": "yes", "operator": "Stadt Baunach", "name": "Ladestation Stadt Baunach", "addr:country": "DE", "socket:cee_blue": "6", "socket:cee_blue:output": "3.7 kW", "charging_station:output": "3.7 kW", "_source": "worldwide"}}, {"type": "node", "id": 5711336332, "lat": 49.987541, "lon": 10.854486, "tags": {"amenity": "charging_station", "fee": "yes", "operator": "Stadt Baunach", "name": "Ladestation Stadt Baunach", "addr:country": "DE", "socket:cee_blue": "6", "socket:cee_blue:output": "3.7 kW", "charging_station:output": "3.7 kW", "_source": "worldwide"}}, {"type": "node", "id": 11111836028, "lat": 49.987557, "lon": 10.850799, "tags": {"amenity": "charging_station", "access": "yes", "fee": "no", "operator": "VG Baunach", "name": "Parkplatz Alte Brauerei", "addr:country": "DE", "capacity": "3", "_source": "worldwide"}}, {"type": "node", "id": 5752255048, "lat": 49.303944, "lon": 10.166708, "tags": {"amenity": "charging_station", "addr:country": "DE", "_source": "worldwide"}}, {"type": "node", "id": 5894991052, "lat": 49.458779, "lon": 10.852027, "tags": {"amenity": "charging_station", "operator": "Gemeindewerke Cadolzburg", "name": "Ladestation Pisendelplatz", "addr:country": "DE", "capacity": "1", "_source": "worldwide"}}, {"type": "node", "id": 5981330324, "lat": 49.458807, "lon": 10.850966, "tags": {"amenity": "charging_station", "brand": "bike-energy", "operator": "bike-energy", "name": "bike-energy", "addr:country": "DE", "_source": "worldwide"}}, {"type": "node", "id": 5926475114, "lat": 49.461007, "lon": 10.851656, "tags": {"amenity": "charging_station", "fee": "yes", "operator": "Gemeindewerke Cadolzburg", "name": "Am Höhbuck", "addr:country": "DE", "socket:type2": "2", "socket:type2:output": "22 kW", "charging_station:output": "22 kW", "_source": "worldwide"}}, {"type": "node", "id": 5926475115, "lat": 49.46599, "lon": 10.86284, "tags": {"amenity": "charging_station", "access": "yes", "fee": "yes", "network": "Ladeverbund+", "opening_hours": "24/7", "operator": "Gemeindewerke Cadolzburg", "name": "Ladestation Einkaufszentrum", "addr:country": "DE", "socket:type2": "2", "socket:type2:output": "22.0 kW", "charging_station:output": "22.0 kW", "capacity": "2", "authentication:none": "", "_source": "worldwide"}}, {"type": "node", "id": 5926475116, "lat": 49.459581, "lon": 10.856458, "tags": {"amenity": "charging_station", "fee": "yes", "opening_hours": "24/7", "operator": "Gemeindewerke Cadolzburg", "name": "Ladesäule Brunnenstraße", "addr:country": "DE", "socket:type2": "2", "socket:type2:output": "22 kW", "charging_station:output": "22 kW", "_source": "worldwide"}}, {"type": "node", "id": 7745151846, "lat": 49.459343, "lon": 10.85811, "tags": {"amenity": "charging_station", "brand": "bike-energy", "operator": "bike-energy", "name": "Bike Energy Ladestation", "addr:country": "DE", "_source": "worldwide"}}, {"type": "node", "id": 5965001607, "lat": 49.301333, "lon": 10.576154, "tags": {"amenity": "charging_station", "fee": "yes", "opening_hours": "24/7", "operator": "Stadtwerke Ansbach", "name": "Ladestation Stadtwerke Ansbach", "addr:country": "DE", "socket:type2": "2", "socket:type2:output": "22.0 kW", "charging_station:output": "22.0 kW", "capacity": "2", "_source": "worldwide"}}, {"type": "node", "id": 6580080533, "lat": 49.303882, "lon": 10.576157, "tags": {"amenity": "charging_station", "fee": "yes", "opening_hours": "24/7", "addr:country": "DE", "socket:type2": "2", "socket:type2:output": "22.0 kW", "charging_station:output": "22.0 kW", "capacity": "2", "_source": "worldwide"}}, {"type": "node", "id": 9226721171, "lat": 49.305377, "lon": 10.575629, "tags": {"amenity": "charging_station", "addr:country": "DE", "capacity": "2", "_source": "worldwide"}}, {"type": "node", "id": 11815211553, "lat": 49.302683, "lon": 10.57529, "tags": {"amenity": "charging_station", "fee": "yes", "operator": "Stadtwerke Ansbach", "name": "Ladestation Stadtwerke Ansbach", "addr:country": "DE", "socket:type2": "2", "socket:type2:output": "22.0 kW", "charging_station:output": "22.0 kW", "capacity": "2", "_source": "worldwide"}}, {"type": "node", "id": 12304581522, "lat": 49.305454, "lon": 10.572486, "tags": {"amenity": "charging_station", "fee": "yes", "opening_hours": "24/7", "addr:country": "DE", "socket:type2_combo": "2", "socket:type2_combo:output": "150.0 kW", "charging_station:output": "150.0 kW", "capacity": "2", "_source": "worldwide"}}, {"type": "node", "id": 6098164286, "lat": 49.435106, "lon": 10.967699, "tags": {"amenity": "charging_station", "operator": "Kaufland", "name": "Ladestation Kaufland", "addr:country": "DE", "capacity": "2", "_source": "worldwide"}}, {"type": "node", "id": 6101325366, "lat": 49.819915, "lon": 10.732339, "tags": {"amenity": "charging_station", "fee": "yes", "opening_hours": "24/7", "addr:country": "DE", "socket:type2": "2", "socket:type2:output": "22 kW", "charging_station:output": "22 kW", "capacity": "2", "_source": "worldwide"}}, {"type": "node", "id": 6135842976, "lat": 49.071604, "lon": 10.318626, "tags": {"amenity": "charging_station", "operator": "SWD", "name": "Ladestation SWD", "addr:country": "DE", "capacity": "2", "_source": "worldwide"}}, {"type": "node", "id": 13545666839, "lat": 49.0719, "lon": 10.320097, "tags": {"amenity": "charging_station", "access": "yes", "operator": "SWD", "name": "Ladestation SWD", "addr:country": "DE", "capacity": "2", "_source": "worldwide"}}, {"type": "node", "id": 6251733073, "lat": 49.026796, "lon": 10.984851, "tags": {"amenity": "charging_station", "operator": "Kaufland", "name": "Ladestation Kaufland", "addr:country": "DE", "socket:type2": "1", "socket:type2:output": "43.0 kW", "socket:type2_combo": "1", "socket:type2_combo:output": "50.0 kW", "socket:chademo": "1", "socket:chademo:output": "50.0 kW", "charging_station:output": "50.0 kW", "capacity": "2", "wheelchair": "yes", "_source": "worldwide"}}, {"type": "node", "id": 12201338719, "lat": 49.029876, "lon": 10.977813, "tags": {"amenity": "charging_station", "access": "yes", "fee": "yes", "network": "LadeVerbundPlus", "operator": "Stadtwerke Weißenburg", "name": "Stadtwerke Weißenburg - LadeVerbundPlus", "addr:country": "DE", "socket:type2": "4", "socket:type2:output": "22.0 kW", "charging_station:output": "22.0 kW", "capacity": "4", "authentication:none": "", "_source": "worldwide"}}, {"type": "node", "id": 6269219052, "lat": 49.509954, "lon": 10.196087, "tags": {"amenity": "charging_station", "fee": "yes", "opening_hours": "24/7", "operator": "Fastned", "name": "Fastned Uffenheim-Langensteinach", "addr:street": "Am Buchholz", "addr:postcode": "97215", "addr:city": "Uffenheim", "socket:type2": "1", "socket:type2:output": "38.0 kW", "socket:chademo": "1", "socket:chademo:output": "50.0 kW", "charging_station:output": "50.0 kW", "authentication:none": "", "_source": "worldwide"}}, {"type": "node", "id": 6270881901, "lat": 49.91622, "lon": 10.898312, "tags": {"amenity": "charging_station", "fee": "yes", "network": "Ladeverbund+", "opening_hours": "24/7", "operator": "solid", "name": "Ladestation P+R Kronacher Straße", "addr:country": "DE", "socket:type2": "8", "socket:type2:output": "22.0 kW", "charging_station:output": "22.0 kW", "capacity": "8", "authentication:none": "", "_source": "worldwide"}}, {"type": "node", "id": 6270881904, "lat": 49.71461, "lon": 10.895614, "tags": {"amenity": "charging_station", "access": "yes", "network": "NewMotion", "operator": "Gemeinde Adelsdorf", "name": "Sparkasse", "addr:country": "DE", "socket:type2": "2", "socket:type2:output": "22.0 kW", "charging_station:output": "22.0 kW", "capacity": "2", "_source": "worldwide"}}, {"type": "node", "id": 6270881905, "lat": 49.708004, "lon": 10.882678, "tags": {"amenity": "charging_station", "network": "NewMotion", "operator": "Elektro Amon", "name": "Elektro Amon", "addr:country": "DE", "socket:type2": "2", "socket:type2:output": "22.0 kW", "charging_station:output": "22.0 kW", "capacity": "1", "_source": "worldwide"}}, {"type": "node", "id": 6270881906, "lat": 49.707806, "lon": 10.831781, "tags": {"amenity": "charging_station", "brand": "E.ON Drive", "network": "E.ON", "operator": "E.ON", "name": "Freibad", "addr:country": "DE", "socket:type2": "2", "socket:type2:output": "22.0 kW", "charging_station:output": "22.0 kW", "capacity": "2", "_source": "worldwide"}}, {"type": "node", "id": 6270881907, "lat": 49.697742, "lon": 10.806922, "tags": {"amenity": "charging_station", "network": "E.ON", "operator": "E.ON", "name": "Verwaltungsgemeinschaft", "addr:country": "DE", "socket:type2": "2", "socket:type2:output": "22.0 kW", "charging_station:output": "22.0 kW", "capacity": "2", "_source": "worldwide"}}, {"type": "node", "id": 6270881908, "lat": 49.703859, "lon": 10.804522, "tags": {"amenity": "charging_station", "brand": "E.ON Drive", "network": "E.ON", "operator": "E.ON", "name": "Stadtverwaltung", "addr:country": "DE", "socket:type2": "2", "socket:type2:output": "22.0 kW", "charging_station:output": "22.0 kW", "capacity": "2", "_source": "worldwide"}}, {"type": "node", "id": 6270881909, "lat": 49.705044, "lon": 10.80245, "tags": {"amenity": "charging_station", "brand": "E.ON Drive", "network": "E.ON", "operator": "E.ON", "name": "Parkplatz Engelgarten", "addr:country": "DE", "socket:type2": "1", "socket:type2:output": "22.0 kW", "socket:type2_combo": "1", "socket:type2_combo:output": "50.0 kW", "socket:chademo": "1", "socket:chademo:output": "50.0 kW", "charging_station:output": "50.0 kW", "capacity": "2", "_source": "worldwide"}}, {"type": "node", "id": 6273101271, "lat": 49.636525, "lon": 10.902242, "tags": {"amenity": "charging_station", "fee": "yes", "name": "Hannberg", "addr:country": "DE", "socket:type2": "2", "socket:type2:output": "22.0 kW", "charging_station:output": "22.0 kW", "capacity": "2", "_source": "worldwide"}}, {"type": "node", "id": 6295527239, "lat": 49.636795, "lon": 10.703987, "tags": {"amenity": "charging_station", "name": "Ladeverbund+ Ladestation", "addr:street": "Neustädter Straße 17-19", "addr:postcode": "91462", "addr:city": "Dachsbach", "capacity": "2", "_source": "worldwide"}}, {"type": "node", "id": 6297222870, "lat": 49.638832, "lon": 10.59863, "tags": {"amenity": "charging_station", "name": "Ladeverbundplus Ladestation", "addr:street": "Neustädter Straße 19", "addr:postcode": "91481", "addr:city": "Münchsteinach", "_source": "worldwide"}}, {"type": "node", "id": 6297223744, "lat": 49.632081, "lon": 10.693001, "tags": {"amenity": "charging_station", "name": "Ladeverbundplus Ladestation", "addr:street": "Hauptstraße 19", "addr:postcode": "91466", "addr:city": "Gerhardshofen", "capacity": "2", "_source": "worldwide"}}, {"type": "node", "id": 6297225899, "lat": 49.671818, "lon": 10.719831, "tags": {"amenity": "charging_station", "name": "Ladeverbundplus Ladestation", "addr:street": "Neuweststraße 1", "addr:postcode": "91486", "addr:city": "Uehlfeld", "_source": "worldwide"}}, {"type": "node", "id": 6297237459, "lat": 49.572854, "lon": 10.610006, "tags": {"amenity": "charging_station", "name": "chargeIT mobility Charging Station", "addr:street": "Konrad-Adenauer-Straße 2", "addr:postcode": "91413", "addr:city": "Neustadt an der Aisch", "addr:country": "DE", "_source": "worldwide"}}, {"type": "node", "id": 6297237460, "lat": 49.571174, "lon": 10.610738, "tags": {"amenity": "charging_station", "operator": "Neustadtwerke", "name": "Ladestation Neustadtwerke", "addr:street": "Hans-Böckler-Straße 3", "addr:postcode": "91413", "addr:city": "Neustadt an der Aisch", "addr:country": "DE", "_source": "worldwide"}}, {"type": "node", "id": 11469033655, "lat": 49.574949, "lon": 10.604596, "tags": {"amenity": "charging_station", "operator": "Comfortcharge", "name": "Ladestation Comfortcharge", "addr:country": "DE", "socket:type2": "1", "socket:type2:output": "22 kW", "socket:type2_combo": "1", "socket:type2_combo:output": "50 kW", "socket:chademo": "1", "socket:chademo:output": "50 kW", "charging_station:output": "50 kW", "authentication:none": "", "_source": "worldwide"}}, {"type": "node", "id": 6297247398, "lat": 49.550807, "lon": 10.715231, "tags": {"amenity": "charging_station", "operator": "Ladeverbund+", "name": "Ladestation Ladeverbund+", "addr:country": "DE", "_source": "worldwide"}}, {"type": "node", "id": 1462577706, "lat": 49.551495, "lon": 10.717976, "tags": {"amenity": "charging_station", "access": "yes", "network": "Park&Charge", "opening_hours": "24/7 open \"Mit Park&Charge Schlüssel\" || Mo-Fr 08:00-12:00 open \"Kontaktieren sie bitte das Vorzimmer und lassen für sich aufschließen\" || Th 14:00-18:00 open \"Kontaktieren sie bitte das Vorzimmer und lassen für sich aufschließen\" || \"nach Vereinbarung\"", "operator": "Markt Emskirchen", "name": "Stromtankstelle Emskirchen", "addr:street": "Erlanger Straße 2", "addr:postcode": "91448", "addr:city": "Emskirchen", "addr:country": "DE", "capacity": "1", "_source": "worldwide"}}, {"type": "node", "id": 6314695589, "lat": 49.272522, "lon": 10.68214, "tags": {"amenity": "charging_station", "brand": "bike-energy", "operator": "bike-energy", "name": "bike-energy", "addr:country": "DE", "capacity": "3", "_source": "worldwide"}}, {"type": "node", "id": 6316474425, "lat": 49.790491, "lon": 10.026068, "tags": {"amenity": "charging_station", "fee": "no", "operator": "WVV", "name": "Ladestation WVV", "addr:country": "DE", "_source": "worldwide"}}, {"type": "node", "id": 6318103188, "lat": 49.78717, "lon": 10.031224, "tags": {"amenity": "charging_station", "fee": "yes", "operator": "Würzburger Versorgungs- und Verkehrs-GmbH", "name": "Ladestation Würzburger Versorgungs- und Verkehrs-GmbH", "addr:country": "DE", "capacity": "4", "_source": "worldwide"}}, {"type": "node", "id": 6325927559, "lat": 49.494898, "lon": 10.790963, "tags": {"amenity": "charging_station", "brand": "bike-energy", "operator": "bike-energy", "name": "bike-energy", "addr:country": "DE", "capacity": "4", "_source": "worldwide"}}, {"type": "node", "id": 6337517578, "lat": 49.545901, "lon": 10.232418, "tags": {"amenity": "charging_station", "brand": "bike-energy", "operator": "bike-energy", "name": "bike-energy Ladestation", "addr:street": "Ringstraße 10", "addr:postcode": "97215", "addr:city": "Uffenheim", "addr:country": "DE", "capacity": "2", "_source": "worldwide"}}, {"type": "node", "id": 7727162422, "lat": 49.545614, "lon": 10.231392, "tags": {"amenity": "charging_station", "operator": "Stadtwerke Uffenheim", "name": "Ladestation Stadtwerke Uffenheim", "addr:country": "DE", "capacity": "2", "_source": "worldwide"}}, {"type": "node", "id": 11210277214, "lat": 49.543361, "lon": 10.228625, "tags": {"amenity": "charging_station", "fee": "yes", "brand": "Stadtwerke Uffenheim", "opening_hours": "24/7", "name": "Ladestation Stadtwerke Uffenheim", "addr:country": "DE", "socket:type2": "2", "socket:type2:output": "22.0 kW", "charging_station:output": "22.0 kW", "_source": "worldwide"}}, {"type": "node", "id": 11913768451, "lat": 49.544579, "lon": 10.231289, "tags": {"amenity": "charging_station", "fee": "yes", "brand": "Neustadtwerke", "opening_hours": "24/7", "name": "Ladestation Neustadtwerke", "addr:country": "DE", "socket:type2": "2", "socket:type2:output": "22.0 kW", "charging_station:output": "22.0 kW", "capacity": "2", "_source": "worldwide"}}, {"type": "node", "id": 6342872621, "lat": 49.633949, "lon": 10.820106, "tags": {"amenity": "charging_station", "addr:country": "DE", "_source": "worldwide"}}, {"type": "node", "id": 6357917603, "lat": 49.894809, "lon": 10.888782, "tags": {"amenity": "charging_station", "fee": "yes", "opening_hours": "24/7", "operator": "Stadtwerke Bamberg", "name": "Ladestation Stadtwerke Bamberg", "addr:country": "DE", "capacity": "2", "_source": "worldwide"}}, {"type": "node", "id": 7169788615, "lat": 49.896088, "lon": 10.897995, "tags": {"amenity": "charging_station", "fee": "yes", "operator": "Stadtwerke Bamberg", "name": "Ladestation Stadtwerke Bamberg", "addr:country": "DE", "capacity": "2", "_source": "worldwide"}}, {"type": "node", "id": 11819836142, "lat": 49.898958, "lon": 10.89633, "tags": {"amenity": "charging_station", "operator": "Stadtwerke Bamberg", "name": "Ladestation Stadtwerke Bamberg", "addr:country": "DE", "capacity": "2", "_source": "worldwide"}}, {"type": "node", "id": 6357917613, "lat": 49.896093, "lon": 10.883927, "tags": {"amenity": "charging_station", "fee": "yes", "opening_hours": "24/7", "operator": "Stadtwerke Bamberg", "name": "Ladestation Stadtwerke Bamberg", "addr:country": "DE", "socket:type2": "2", "socket:type2:output": "22 kW", "charging_station:output": "22 kW", "capacity": "2", "_source": "worldwide"}}, {"type": "node", "id": 6360095316, "lat": 49.54784, "lon": 10.662261, "tags": {"amenity": "charging_station", "network": "bike-energy", "operator": "Baumhaus der Biergarten", "name": "bike-energy Ladestation", "addr:postcode": "91448", "addr:city": "Emskirchen", "addr:country": "DE", "capacity": "2", "_source": "worldwide"}}, {"type": "node", "id": 6418377308, "lat": 49.794153, "lon": 10.344154, "tags": {"amenity": "charging_station", "addr:country": "DE", "socket:type2": "4", "socket:type2:output": "22 kW", "charging_station:output": "22 kW", "capacity": "4", "_source": "worldwide"}}, {"type": "node", "id": 6451524050, "lat": 49.762707, "lon": 10.825508, "tags": {"amenity": "charging_station", "fee": "no", "operator": "Bäckerei Burkard", "name": "Ladestation Bäckerei Burkard", "addr:country": "DE", "socket:schuko": "2", "socket:schuko:output": "2.3 kW", "charging_station:output": "2.3 kW", "capacity": "2", "_source": "worldwide"}}, {"type": "node", "id": 6480298489, "lat": 49.999261, "lon": 10.250442, "tags": {"amenity": "charging_station", "operator": "ÜZ Lülsfeld und Gemeinde Schwebheim", "name": "Ladestation ÜZ Lülsfeld und Gemeinde Schwebheim", "addr:country": "DE", "capacity": "2", "_source": "worldwide"}}, {"type": "node", "id": 6483854543, "lat": 49.998309, "lon": 10.244169, "tags": {"amenity": "charging_station", "addr:country": "DE", "capacity": "2", "_source": "worldwide"}}, {"type": "node", "id": 6488769692, "lat": 49.75546, "lon": 10.97174, "tags": {"amenity": "charging_station", "addr:country": "DE", "_source": "worldwide"}}, {"type": "node", "id": 6492762285, "lat": 49.756877, "lon": 10.976807, "tags": {"amenity": "charging_station", "operator": "N-ERGIE", "name": "Ladestation N-ERGIE", "addr:country": "DE", "capacity": "2", "_source": "worldwide"}}, {"type": "node", "id": 6515451296, "lat": 49.981337, "lon": 10.212335, "tags": {"amenity": "charging_station", "operator": "UZ Lülsfeld", "name": "Ladestation UZ Lülsfeld", "addr:country": "DE", "capacity": "2", "_source": "worldwide"}}, {"type": "node", "id": 6532710389, "lat": 49.7593, "lon": 10.954667, "tags": {"amenity": "charging_station", "access": "yes", "operator": "VRmobil", "name": "Ladestation VRmobil", "addr:country": "DE", "capacity": "4", "_source": "worldwide"}}, {"type": "node", "id": 9546988058, "lat": 49.759793, "lon": 10.955237, "tags": {"amenity": "charging_station", "addr:country": "DE", "capacity": "2", "_source": "worldwide"}}, {"type": "node", "id": 10162506772, "lat": 49.759113, "lon": 10.955711, "tags": {"amenity": "charging_station", "access": "yes", "fee": "no", "name": "E-Bike Ladestelle", "addr:country": "DE", "socket:schuko": "4", "socket:schuko:output": "2.3 kW", "charging_station:output": "2.3 kW", "capacity": "4", "_source": "worldwide"}}, {"type": "node", "id": 6537280218, "lat": 49.986753, "lon": 10.224752, "tags": {"amenity": "charging_station", "opening_hours": "24/7", "addr:country": "DE", "capacity": "2", "_source": "worldwide"}}, {"type": "node", "id": 10141144967, "lat": 49.987787, "lon": 10.221095, "tags": {"amenity": "charging_station", "fee": "yes", "opening_hours": "24/7", "operator": "Gemeinde Röthlein", "name": "Ladestation Gemeinde Röthlein", "addr:country": "DE", "socket:schuko": "4", "socket:schuko:output": "2.3 kW", "charging_station:output": "2.3 kW", "capacity": "4", "authentication:none": "yes", "_source": "worldwide"}}, {"type": "node", "id": 6624773666, "lat": 49.52654, "lon": 10.486752, "tags": {"amenity": "charging_station", "operator": "N-Ergie", "name": "Ladestation N-Ergie", "addr:country": "DE", "capacity": "2", "_source": "worldwide"}}, {"type": "node", "id": 6627413216, "lat": 49.817498, "lon": 10.351683, "tags": {"amenity": "charging_station", "name": "E-Bike-Ladestation", "addr:country": "DE", "_source": "worldwide"}}, {"type": "node", "id": 6662262470, "lat": 49.98452, "lon": 10.312874, "tags": {"amenity": "charging_station", "addr:country": "DE", "capacity": "2", "_source": "worldwide"}}, {"type": "node", "id": 6755496693, "lat": 49.987922, "lon": 10.850882, "tags": {"amenity": "charging_station", "addr:country": "DE", "socket:type2": "2", "socket:type2:output": "22 kW", "charging_station:output": "22 kW", "_source": "worldwide"}}, {"type": "node", "id": 6771807034, "lat": 49.990164, "lon": 10.844558, "tags": {"amenity": "charging_station", "fee": "no", "operator": "Messingschlager GmbH & Co", "name": "Messingschlager GmbH & Co - Messingschlager GmbH & Co KG", "addr:country": "DE", "socket:schuko": "2", "socket:schuko:output": "2.3 kW", "charging_station:output": "2.3 kW", "capacity": "2", "_source": "worldwide"}}, {"type": "node", "id": 10162396290, "lat": 49.988593, "lon": 10.854399, "tags": {"amenity": "charging_station", "access": "yes", "fee": "no", "name": "E-Bike Ladestelle", "addr:country": "DE", "socket:schuko": "14", "socket:schuko:output": "2.3 kW", "charging_station:output": "2.3 kW", "capacity": "14", "_source": "worldwide"}}, {"type": "node", "id": 6782514010, "lat": 49.463833, "lon": 10.986536, "tags": {"amenity": "charging_station", "fee": "yes", "network": "LadeVerbundPlus", "opening_hours": "24/7", "operator": "infra fürth", "name": "infra fürth - LadeVerbundPlus", "addr:country": "DE", "socket:type2": "2", "socket:type2:output": "22.0 kW", "charging_station:output": "22.0 kW", "capacity": "2", "authentication:none": "yes", "_source": "worldwide"}}, {"type": "node", "id": 13482121701, "lat": 49.465139, "lon": 10.994168, "tags": {"amenity": "charging_station", "access": "yes", "fee": "yes", "network": "LadeVerbundPlus", "operator": "infra fürth", "name": "infra fürth - LadeVerbundPlus", "addr:country": "DE", "socket:type2": "2", "socket:type2:output": "22.0 kW", "charging_station:output": "22.0 kW", "capacity": "1", "_source": "worldwide"}}, {"type": "node", "id": 13510268571, "lat": 49.462142, "lon": 10.994195, "tags": {"amenity": "charging_station", "fee": "yes", "network": "LadeVerbundPlus", "opening_hours": "24/7", "operator": "infra fürth", "name": "infra fürth - LadeVerbundPlus", "addr:country": "DE", "socket:type2": "2", "socket:type2:output": "22.0 kW", "charging_station:output": "22.0 kW", "capacity": "2", "_source": "worldwide"}}, {"type": "node", "id": 6818303436, "lat": 49.668243, "lon": 10.926274, "tags": {"amenity": "charging_station", "access": "yes", "operator": "Gemeinde Röttenbach", "name": "Ladestation Gemeinde Röttenbach", "addr:country": "DE", "capacity": "4", "_source": "worldwide"}}, {"type": "node", "id": 6818303437, "lat": 49.667969, "lon": 10.927186, "tags": {"amenity": "charging_station", "access": "yes", "operator": "Gemeinde Röttenbach", "name": "Ladestation Gemeinde Röttenbach", "addr:country": "DE", "capacity": "2", "_source": "worldwide"}}, {"type": "node", "id": 6953526849, "lat": 49.901266, "lon": 10.341999, "tags": {"amenity": "charging_station", "operator": "netto", "name": "Ladestation netto", "addr:country": "DE", "capacity": "2", "_source": "worldwide"}}, {"type": "node", "id": 7013304226, "lat": 49.45315, "lon": 10.639723, "tags": {"amenity": "charging_station", "operator": "N-ERGIE", "name": "Ladestation N-ERGIE", "addr:country": "DE", "capacity": "2", "_source": "worldwide"}}, {"type": "node", "id": 7013337813, "lat": 49.457111, "lon": 10.645046, "tags": {"amenity": "charging_station", "addr:country": "DE", "_source": "worldwide"}}, {"type": "node", "id": 7029820755, "lat": 49.996768, "lon": 10.201792, "tags": {"amenity": "charging_station", "operator": "ÜZ Lülsfeld", "name": "Ladestation ÜZ Lülsfeld", "addr:country": "DE", "socket:type2": "2", "socket:type2:output": "22 kW", "socket:schuko": "2", "socket:schuko:output": "2.3 kW", "charging_station:output": "22 kW", "capacity": "2", "_source": "worldwide"}}, {"type": "node", "id": 9033399545, "lat": 49.99626, "lon": 10.203539, "tags": {"amenity": "charging_station", "access": "private", "addr:country": "DE", "capacity": "4", "_source": "worldwide"}}, {"type": "node", "id": 10140945349, "lat": 49.994392, "lon": 10.200397, "tags": {"amenity": "charging_station", "opening_hours": "24/7", "operator": "ÜZ Lülsfeld", "name": "ÜZ Lülsfeld", "addr:country": "DE", "socket:type2": "2", "socket:type2:output": "22 kW", "charging_station:output": "22 kW", "capacity": "2", "_source": "worldwide"}}, {"type": "node", "id": 7042169376, "lat": 49.500856, "lon": 10.414794, "tags": {"amenity": "charging_station", "operator": "Stadtwerke Bad Windsheim", "name": "Ladestation Stadtwerke Bad Windsheim", "addr:country": "DE", "capacity": "2", "_source": "worldwide"}}, {"type": "node", "id": 11117042477, "lat": 49.50617, "lon": 10.412978, "tags": {"amenity": "charging_station", "fee": "yes", "brand": "Stadtwerke Bad Windsheim", "opening_hours": "24/7", "name": "Ladestation Stadtwerke Bad Windsheim", "addr:country": "DE", "socket:type2": "2", "socket:type2:output": "22.0 kW", "charging_station:output": "22.0 kW", "capacity": "2", "_source": "worldwide"}}, {"type": "node", "id": 7049608817, "lat": 49.168549, "lon": 10.967888, "tags": {"amenity": "charging_station", "addr:country": "DE", "_source": "worldwide"}}, {"type": "node", "id": 7056563461, "lat": 49.498357, "lon": 10.419026, "tags": {"amenity": "charging_station", "fee": "no", "operator": "Stadtwerke Bad Windsheim", "name": "Ladestation Stadtwerke Bad Windsheim", "addr:country": "DE", "capacity": "6", "_source": "worldwide"}}, {"type": "node", "id": 7076394811, "lat": 49.587773, "lon": 10.978434, "tags": {"amenity": "charging_station", "access": "yes", "fee": "yes", "network": "LadeverbundPlus", "opening_hours": "24/7", "operator": "Erlanger Stadtwerke", "name": "Erlanger Stadtwerke - LadeverbundPlus", "addr:street": "Damaschkestraße 129a", "addr:postcode": "91056", "addr:city": "Erlangen", "addr:country": "DE", "socket:type2": "2", "socket:type2:output": "22.0 kW", "charging_station:output": "22.0 kW", "capacity": "2", "authentication:none": "", "_source": "worldwide"}}, {"type": "node", "id": 13272797838, "lat": 49.587467, "lon": 10.975364, "tags": {"amenity": "charging_station", "access": "yes", "fee": "yes", "network": "EnBW Hypernetz", "opening_hours": "24/7", "operator": "EnBW", "name": "EnBW - EnBW Hypernetz", "addr:street": "Neumühle 1", "addr:postcode": "91056", "addr:city": "Erlangen", "addr:country": "DE", "socket:type2_combo": "2", "socket:type2_combo:output": "100.0 kW", "charging_station:output": "100.0 kW", "capacity": "2", "_source": "worldwide"}}, {"type": "node", "id": 7076851209, "lat": 49.944219, "lon": 10.02, "tags": {"amenity": "charging_station", "fee": "yes", "network": "Ionity", "operator": "IONITY", "name": "IONITY - Ionity", "addr:country": "DE", "socket:type2_combo": "1", "socket:type2_combo:output": "350.0 kW", "charging_station:output": "350.0 kW", "capacity": "1", "authentication:none": "yes", "_source": "worldwide"}}, {"type": "node", "id": 7115155283, "lat": 49.965593, "lon": 10.204377, "tags": {"amenity": "charging_station", "fee": "yes", "opening_hours": "24/7", "operator": "ÜZ Lülsfeld", "name": "Ladestation ÜZ Lülsfeld", "addr:country": "DE", "socket:type2": "2", "socket:type2:output": "22 kW", "charging_station:output": "22 kW", "capacity": "2", "_source": "worldwide"}}, {"type": "node", "id": 7115975478, "lat": 49.903903, "lon": 10.860419, "tags": {"amenity": "charging_station", "operator": "Stadt Bamberg", "name": "Ladestation Stadt Bamberg", "addr:country": "DE", "capacity": "2", "_source": "worldwide"}}, {"type": "node", "id": 7120033153, "lat": 49.376202, "lon": 10.187546, "tags": {"amenity": "charging_station", "addr:country": "DE", "_source": "worldwide"}}, {"type": "node", "id": 11005691916, "lat": 49.373185, "lon": 10.18681, "tags": {"amenity": "charging_station", "fee": "yes", "operator": "Lidl", "name": "Ladestation Lidl", "addr:country": "DE", "socket:type2": "2", "socket:type2:output": "22.0 kW", "charging_station:output": "22.0 kW", "capacity": "2", "_source": "worldwide"}}, {"type": "node", "id": 1313827485, "lat": 49.377836, "lon": 10.191176, "tags": {"amenity": "charging_station", "access": "customers", "operator": "EnBW", "name": "EnBW - EnBW Energie Baden-Württemberg AG", "addr:country": "DE", "capacity": "4", "_source": "worldwide"}}, {"type": "node", "id": 7132696912, "lat": 49.399195, "lon": 10.889149, "tags": {"amenity": "charging_station", "access": "yes", "fee": "yes", "network": "Ladeverbund+", "operator": "N-ERGIE", "name": "N-ERGIE - Ladeverbund+", "addr:country": "DE", "socket:type2": "2", "socket:type2:output": "22.0 kW", "charging_station:output": "22.0 kW", "capacity": "2", "authentication:none": "", "_source": "worldwide"}}, {"type": "node", "id": 7142848225, "lat": 49.967606, "lon": 10.889424, "tags": {"amenity": "charging_station", "access": "yes", "fee": "yes", "brand": "Shell Recharge", "operator": "Gemeinde Breitengüßbach", "name": "Ladestation am Bauhof", "addr:country": "DE", "socket:type2": "2", "socket:type2:output": "11.0 kW", "charging_station:output": "11.0 kW", "capacity": "2", "_source": "worldwide"}}, {"type": "node", "id": 7185156922, "lat": 49.311103, "lon": 10.568767, "tags": {"amenity": "charging_station", "access": "yes", "fee": "no", "operator": "Stadtwerke Ansbach", "name": "Ladestation Stadtwerke Ansbach", "addr:country": "DE", "capacity": "2", "_source": "worldwide"}}, {"type": "node", "id": 12299636741, "lat": 49.310858, "lon": 10.558185, "tags": {"amenity": "charging_station", "operator": "ALDI Süd", "name": "Ladestation ALDI Süd", "addr:country": "DE", "capacity": "2", "_source": "worldwide"}}, {"type": "node", "id": 13376093395, "lat": 49.307076, "lon": 10.568256, "tags": {"amenity": "charging_station", "fee": "yes", "operator": "Allego", "name": "Ladestation Allego", "addr:country": "DE", "capacity": "10", "_source": "worldwide"}}, {"type": "node", "id": 7244993653, "lat": 49.070079, "lon": 10.208282, "tags": {"amenity": "charging_station", "fee": "yes", "opening_hours": "24/7", "operator": "EnBW", "name": "EnBW - EnBW Energie Baden-Württemberg AG", "addr:country": "DE", "socket:type2": "2", "socket:type2:output": "22 kW", "charging_station:output": "22 kW", "capacity": "2", "_source": "worldwide"}}, {"type": "node", "id": 7256191801, "lat": 49.981516, "lon": 10.100651, "tags": {"amenity": "charging_station", "opening_hours": "24/7", "addr:country": "DE", "socket:schuko": "3", "socket:schuko:output": "2.3 kW", "charging_station:output": "2.3 kW", "capacity": "3", "_source": "worldwide"}}, {"type": "node", "id": 7990835765, "lat": 49.98144, "lon": 10.101784, "tags": {"amenity": "charging_station", "fee": "yes", "opening_hours": "24/7", "operator": "ÜZ Lülsfeld", "name": "Ladestation ÜZ Lülsfeld", "addr:country": "DE", "socket:type2": "2", "socket:type2:output": "22 kW", "charging_station:output": "22 kW", "capacity": "2", "_source": "worldwide"}}, {"type": "node", "id": 8329973551, "lat": 49.981977, "lon": 10.101014, "tags": {"amenity": "charging_station", "opening_hours": "24/7", "operator": "VR-Bank Schweinfurt", "name": "VR-Bank Schweinfurt - VR-Bank Schweinfurt eG", "addr:country": "DE", "socket:type2": "2", "socket:type2:output": "22 kW", "charging_station:output": "22 kW", "capacity": "2", "_source": "worldwide"}}, {"type": "node", "id": 7266672193, "lat": 49.700891, "lon": 10.260113, "tags": {"amenity": "charging_station", "access": "yes", "fee": "yes", "operator": "N-Ergie", "name": "Ladeverbund+", "addr:country": "DE", "socket:type2": "2", "socket:type2:output": "22.0 kW", "charging_station:output": "22.0 kW", "capacity": "2", "authentication:none": "", "_source": "worldwide"}}, {"type": "node", "id": 7342719339, "lat": 49.578612, "lon": 10.992458, "tags": {"amenity": "charging_station", "operator": "Erlanger Stadtwerke", "name": "Ladestation Erlanger Stadtwerke", "addr:country": "DE", "socket:type2": "2", "socket:type2:output": "22.0 kW", "charging_station:output": "22.0 kW", "capacity": "2", "_source": "worldwide"}}, {"type": "node", "id": 7343441570, "lat": 49.778127, "lon": 10.065783, "tags": {"amenity": "charging_station", "access": "yes", "fee": "yes", "brand": "Aral pulse", "opening_hours": "24/7", "operator": "BP Europa", "name": "BP Europa - Aral pulse", "addr:country": "DE", "socket:type2": "1", "socket:type2:output": "22.0 kW", "socket:type2_combo": "1", "socket:type2_combo:output": "50.0 kW", "socket:chademo": "1", "socket:chademo:output": "50.0 kW", "charging_station:output": "50.0 kW", "capacity": "2", "authentication:none": "yes", "_source": "worldwide"}}, {"type": "node", "id": 7781313396, "lat": 49.778222, "lon": 10.069032, "tags": {"amenity": "charging_station", "fee": "yes", "brand": "allego", "opening_hours": "24/7", "operator": "Allego", "name": "Allego - allego", "addr:country": "DE", "socket:type2_combo": "1", "socket:type2_combo:output": "50.0 kW", "socket:chademo": "1", "socket:chademo:output": "50.0 kW", "charging_station:output": "50.0 kW", "capacity": "2", "authentication:none": "yes", "_source": "worldwide"}}, {"type": "node", "id": 10800228610, "lat": 49.778647, "lon": 10.065667, "tags": {"amenity": "charging_station", "access": "yes", "addr:country": "DE", "_source": "worldwide"}}, {"type": "node", "id": 1485127947, "lat": 49.778768, "lon": 10.068761, "tags": {"amenity": "charging_station", "access": "yes", "fee": "yes", "brand": "Tesla Supercharger", "opening_hours": "24/7", "operator": "Tesla", "name": "Dettelbach Supercharger", "addr:country": "DE", "socket:type2_combo": "16", "socket:type2_combo:output": "250.0 kW", "socket:tesla_supercharger": "18", "socket:tesla_supercharger:output": "150.0 kW", "charging_station:output": "250.0 kW", "capacity": "18", "_source": "worldwide"}}, {"type": "node", "id": 7359460373, "lat": 49.661903, "lon": 10.068438, "tags": {"amenity": "charging_station", "access": "yes", "operator": "Überlandwerk Schäftersheim", "name": "Überlandwerk Schäftersheim Charging Station", "addr:country": "DE", "capacity": "2", "_source": "worldwide"}}, {"type": "node", "id": 8712472761, "lat": 49.661933, "lon": 10.073543, "tags": {"amenity": "charging_station", "fee": "no", "opening_hours": "24/7", "operator": "Lidl eCharge", "name": "Ladestation Lidl eCharge", "addr:country": "DE", "socket:type2_combo": "1", "socket:type2_combo:output": "50.0 kW", "socket:chademo": "1", "socket:chademo:output": "50.0 kW", "charging_station:output": "50.0 kW", "capacity": "2", "authentication:none": "", "_source": "worldwide"}}, {"type": "node", "id": 7359894785, "lat": 49.170828, "lon": 10.077505, "tags": {"amenity": "charging_station", "fee": "yes", "network": "EnBW", "opening_hours": "24/7", "operator": "EnBW Ostwürttemberg DonauRies", "name": "EnBW Ostwürttemberg DonauRies - EnBW", "addr:country": "DE", "socket:type2": "1", "socket:type2:output": "26.0 kW", "charging_station:output": "26.0 kW", "capacity": "1", "_source": "worldwide"}}, {"type": "node", "id": 7367624246, "lat": 49.879343, "lon": 10.919531, "tags": {"amenity": "charging_station", "access": "yes", "addr:country": "DE", "capacity": "3", "_source": "worldwide"}}, {"type": "node", "id": 7370699733, "lat": 49.992182, "lon": 10.24751, "tags": {"amenity": "charging_station", "fee": "yes", "opening_hours": "24/7", "operator": "ÜZ Lülsfeld / Gemeinde Schwebheim", "name": "Ladestation ÜZ Lülsfeld / Gemeinde Schwebheim", "addr:country": "DE", "socket:type2": "2", "socket:type2:output": "22 kW", "charging_station:output": "22 kW", "capacity": "2", "_source": "worldwide"}}, {"type": "node", "id": 7395696116, "lat": 49.990333, "lon": 10.248668, "tags": {"amenity": "charging_station", "fee": "no", "opening_hours": "24/7", "operator": "Gemeinde Schwebheim", "name": "Elektrotankstelle Fahrrad", "addr:country": "DE", "socket:schuko": "4", "socket:schuko:output": "2.3 kW", "charging_station:output": "2.3 kW", "capacity": "4", "authentication:none": "yes", "_source": "worldwide"}}, {"type": "node", "id": 7389911673, "lat": 49.921404, "lon": 10.179104, "tags": {"amenity": "charging_station", "fee": "yes", "opening_hours": "24/7", "operator": "ÜZ Lülzfeld", "name": "Ladestation ÜZ Lülzfeld", "addr:country": "DE", "socket:type2": "2", "socket:type2:output": "22 kW", "charging_station:output": "22 kW", "capacity": "2", "_source": "worldwide"}}, {"type": "node", "id": 7389912439, "lat": 49.947362, "lon": 10.186187, "tags": {"amenity": "charging_station", "fee": "yes", "opening_hours": "24/7", "operator": "ÜZ Lülzfeld", "name": "Ladestation ÜZ Lülzfeld", "addr:country": "DE", "socket:type2": "2", "socket:type2:output": "22 kW", "charging_station:output": "22 kW", "capacity": "2", "_source": "worldwide"}}, {"type": "node", "id": 7395636311, "lat": 49.99425, "lon": 10.252824, "tags": {"amenity": "charging_station", "fee": "no", "opening_hours": "24/7", "operator": "Gemeinde Schwebheim", "name": "Ladestation Gemeinde Schwebheim", "addr:country": "DE", "socket:schuko": "4", "socket:schuko:output": "2.3 kW", "charging_station:output": "2.3 kW", "capacity": "4", "authentication:none": "yes", "_source": "worldwide"}}, {"type": "node", "id": 7451351387, "lat": 49.666426, "lon": 10.468817, "tags": {"amenity": "charging_station", "addr:country": "DE", "_source": "worldwide"}}, {"type": "node", "id": 7452214822, "lat": 49.857828, "lon": 10.693334, "tags": {"amenity": "charging_station", "fee": "yes", "brand": "ChargePoint", "operator": "ChargePoint", "name": "ChargePoint", "addr:country": "DE", "socket:type2": "2", "socket:type2:output": "22 kW", "charging_station:output": "22 kW", "capacity": "2", "_source": "worldwide"}}, {"type": "node", "id": 7452214823, "lat": 49.931481, "lon": 10.815738, "tags": {"amenity": "charging_station", "fee": "no", "brand": "ChargePoint", "operator": "NewMotion", "name": "ChargePoint", "addr:country": "DE", "socket:type2": "2", "socket:type2:output": "22 kW", "charging_station:output": "22 kW", "capacity": "2", "_source": "worldwide"}}, {"type": "node", "id": 7490127103, "lat": 49.626532, "lon": 10.837076, "tags": {"amenity": "charging_station", "operator": "N-Energie", "name": "Ladestation N-Energie", "addr:country": "DE", "capacity": "2", "_source": "worldwide"}}, {"type": "node", "id": 12294275892, "lat": 49.626164, "lon": 10.83616, "tags": {"amenity": "charging_station", "access": "yes", "brand": "EnBW", "opening_hours": "24/7", "operator": "EnBW", "name": "EnBW Schnellladestation", "addr:street": "Am Mühlberg 11", "addr:postcode": "91085", "addr:city": "Weisendorf", "capacity": "4", "authentication:none": "", "_source": "worldwide"}}, {"type": "node", "id": 7551318999, "lat": 49.704924, "lon": 10.26037, "tags": {"amenity": "charging_station", "access": "yes", "fee": "no", "name": "Iphofen Maktplatz Bike Energy", "addr:country": "DE", "socket:schuko": "1", "socket:schuko:output": "2.3 kW", "charging_station:output": "2.3 kW", "capacity": "4", "authentication:none": "yes", "_source": "worldwide"}}, {"type": "node", "id": 7551386311, "lat": 49.62357, "lon": 10.538479, "tags": {"amenity": "charging_station", "access": "yes", "fee": "yes", "operator": "Ladeverbund+ Charging Station", "name": "Ladestation Ladeverbund+ Charging Station", "addr:country": "DE", "capacity": "2", "_source": "worldwide"}}, {"type": "node", "id": 7566888343, "lat": 49.973898, "lon": 10.17433, "tags": {"amenity": "charging_station", "access": "yes", "fee": "no", "name": "E-Bike Ladestation Garstadt", "addr:country": "DE", "capacity": "3", "_source": "worldwide"}}, {"type": "node", "id": 7566904020, "lat": 49.883072, "lon": 10.158638, "tags": {"amenity": "charging_station", "access": "yes", "fee": "no", "brand": "bike-energy", "operator": "bike-energy", "name": "bike-energy", "addr:country": "DE", "capacity": "3", "_source": "worldwide"}}, {"type": "node", "id": 7579871706, "lat": 49.140154, "lon": 10.034185, "tags": {"amenity": "charging_station", "fee": "no", "operator": "Kaufland", "name": "Ladestation Kaufland", "addr:country": "DE", "socket:type2": "1", "socket:type2:output": "22 kW", "socket:type2_combo": "1", "socket:type2_combo:output": "50 kW", "socket:chademo": "1", "socket:chademo:output": "50 kW", "charging_station:output": "50 kW", "capacity": "2", "_source": "worldwide"}}, {"type": "node", "id": 10719412742, "lat": 49.13862, "lon": 10.036163, "tags": {"amenity": "charging_station", "access": "yes", "fee": "yes", "brand": "Ladeverbund+", "network": "Ladeverbund+", "operator": "Stadtwerke Crailsheim", "name": "Stadtwerke Crailsheim - Ladeverbund+", "addr:street": "Bürgermeister-Demuth-Allee", "addr:postcode": "74564", "addr:city": "Crailsheim", "capacity": "2", "_source": "worldwide"}}, {"type": "node", "id": 10758619288, "lat": 49.141798, "lon": 10.038763, "tags": {"amenity": "charging_station", "access": "yes", "fee": "yes", "brand": "Ladeverbund+", "network": "Ladeverbund+", "operator": "Stadtwerke Crailsheim", "name": "Stadtwerke Crailsheim - Ladeverbund+", "addr:street": "Haller Straße", "addr:postcode": "74564", "addr:city": "Crailsheim", "socket:type2": "2", "socket:type2:output": "22.0 kW", "charging_station:output": "22.0 kW", "capacity": "2", "_source": "worldwide"}}, {"type": "node", "id": 13376338101, "lat": 49.141344, "lon": 10.037938, "tags": {"amenity": "charging_station", "operator": "Wirelane", "name": "Ladestation Wirelane", "addr:country": "DE", "socket:type2": "2", "socket:type2:output": "22.0 kW", "charging_station:output": "22.0 kW", "_source": "worldwide"}}, {"type": "node", "id": 7737673381, "lat": 49.404429, "lon": 10.793636, "tags": {"amenity": "charging_station", "access": "yes", "operator": "chargeIT mobility - Solid", "name": "P&R - Nürnberger Straße - Großhabersdorf", "addr:country": "DE", "capacity": "2", "_source": "worldwide"}}, {"type": "node", "id": 7786752541, "lat": 49.829719, "lon": 10.20529, "tags": {"amenity": "charging_station", "operator": "ÜZ Mainfranken", "name": "Ladestation ÜZ Mainfranken", "addr:country": "DE", "socket:type2": "2", "socket:type2:output": "22 kW", "charging_station:output": "22 kW", "capacity": "2", "_source": "worldwide"}}, {"type": "node", "id": 7817946867, "lat": 49.433758, "lon": 10.301016, "tags": {"amenity": "charging_station", "operator": "N-ERGIE", "name": "Wildbad 1", "addr:country": "DE", "socket:type2": "2", "socket:type2:output": "22.0 kW", "charging_station:output": "22.0 kW", "capacity": "2", "_source": "worldwide"}}, {"type": "node", "id": 7882008872, "lat": 49.360653, "lon": 10.408458, "tags": {"amenity": "charging_station", "fee": "no", "addr:country": "DE", "capacity": "2", "_source": "worldwide"}}, {"type": "node", "id": 7902717473, "lat": 49.813241, "lon": 10.984984, "tags": {"amenity": "charging_station", "operator": "Shell Recharge", "name": "Ladesäule Franken Lagune", "addr:country": "DE", "socket:type2": "2", "socket:type2:output": "11.0 kW", "charging_station:output": "11.0 kW", "capacity": "2", "_source": "worldwide"}}, {"type": "node", "id": 11160196535, "lat": 49.813286, "lon": 10.985686, "tags": {"amenity": "charging_station", "access": "yes", "fee": "no", "brand": "E-Bike Ladestation", "operator": "Landratsamt Bamberg", "name": "E-Bike Ladestation FrankenLagune", "addr:country": "DE", "capacity": "14", "_source": "worldwide"}}, {"type": "node", "id": 7903236261, "lat": 49.287627, "lon": 10.66138, "tags": {"amenity": "charging_station", "fee": "yes", "network": "Ladeverbund+", "opening_hours": "24/7", "operator": "N-Ergie", "name": "Sachsen bei Ansbach, Rathaus", "addr:country": "DE", "socket:type2": "2", "socket:type2:output": "22 kW", "charging_station:output": "22 kW", "capacity": "2", "_source": "worldwide"}}, {"type": "node", "id": 11875851872, "lat": 49.289308, "lon": 10.664337, "tags": {"amenity": "charging_station", "access": "yes", "operator": "N-Ergie AG, Ladeverbund+", "name": "Ladestation N-Ergie AG, Ladeverbund+", "addr:country": "DE", "capacity": "2", "_source": "worldwide"}}, {"type": "node", "id": 7903279424, "lat": 49.226663, "lon": 10.727717, "tags": {"amenity": "charging_station", "fee": "yes", "opening_hours": "24/7", "operator": "N-Ergie AG, ladeverbund+", "name": "Ladesation Wolframs Eschenbach, An der Stadtmauer", "addr:country": "DE", "socket:type2": "2", "socket:type2:output": "22 kW", "charging_station:output": "22 kW", "capacity": "2", "_source": "worldwide"}}, {"type": "node", "id": 7903279425, "lat": 49.225985, "lon": 10.722377, "tags": {"amenity": "charging_station", "fee": "yes", "opening_hours": "24/7", "operator": "N-Ergie AG, ladeverbund+", "name": "Ladestation N-Ergie AG, ladeverbund+", "addr:country": "DE", "socket:type2": "2", "socket:type2:output": "22 kW", "charging_station:output": "22 kW", "capacity": "2", "_source": "worldwide"}}, {"type": "node", "id": 7973310021, "lat": 49.983627, "lon": 10.107156, "tags": {"amenity": "charging_station", "fee": "yes", "opening_hours": "24/7", "operator": "ÜZ Lülsfeld", "name": "Ladestation ÜZ Lülsfeld", "addr:country": "DE", "socket:type2": "2", "socket:type2:output": "22 kW", "charging_station:output": "22 kW", "capacity": "2", "_source": "worldwide"}}, {"type": "node", "id": 7993084396, "lat": 49.569804, "lon": 10.9036, "tags": {"amenity": "charging_station", "operator": "Herzo Werke", "name": "Ladestation Herzo Werke", "addr:country": "DE", "capacity": "2", "_source": "worldwide"}}, {"type": "node", "id": 8018445819, "lat": 49.912414, "lon": 10.87968, "tags": {"amenity": "charging_station", "operator": "Bayernwerk", "name": "Ladestation Bayernwerk", "addr:country": "DE", "capacity": "2", "_source": "worldwide"}}, {"type": "node", "id": 8074532215, "lat": 49.830717, "lon": 10.925145, "tags": {"amenity": "charging_station", "addr:country": "DE", "_source": "worldwide"}}, {"type": "node", "id": 8121425188, "lat": 49.556838, "lon": 10.917399, "tags": {"amenity": "charging_station", "access": "yes", "fee": "yes", "operator": "Ladeverbund+", "name": "Ladestation Ladeverbund+", "addr:country": "DE", "capacity": "2", "_source": "worldwide"}}, {"type": "node", "id": 8151739370, "lat": 49.70281, "lon": 10.127434, "tags": {"amenity": "charging_station", "addr:country": "DE", "_source": "worldwide"}}, {"type": "node", "id": 10727283793, "lat": 49.702892, "lon": 10.123948, "tags": {"amenity": "charging_station", "addr:country": "DE", "_source": "worldwide"}}, {"type": "node", "id": 8177452200, "lat": 49.067881, "lon": 10.314096, "tags": {"amenity": "charging_station", "operator": "SWD Stadtwerke Dinkelsbühl", "name": "Ladestation SWD Stadtwerke Dinkelsbühl", "addr:country": "DE", "capacity": "2", "_source": "worldwide"}}, {"type": "node", "id": 13089090233, "lat": 49.069544, "lon": 10.31463, "tags": {"amenity": "charging_station", "access": "permit", "opening_hours": "Mo-Su 07:30-22:00", "operator": "Dinkelsbühl", "name": "Ladestation Dinkelsbühl", "addr:country": "DE", "capacity": "16", "_source": "worldwide"}}, {"type": "node", "id": 8177553441, "lat": 49.06889, "lon": 10.324849, "tags": {"amenity": "charging_station", "operator": "Stadtwerke Dinkelsbühl", "name": "Ladestation Stadtwerke Dinkelsbühl", "addr:country": "DE", "capacity": "2", "_source": "worldwide"}}, {"type": "node", "id": 11883464227, "lat": 49.068058, "lon": 10.318602, "tags": {"amenity": "charging_station", "operator": "Ladeverbund+", "name": "Ladestation Ladeverbund+", "addr:country": "DE", "socket:type2": "2", "socket:type2:output": "22 kW", "charging_station:output": "22 kW", "capacity": "2", "_source": "worldwide"}}, {"type": "node", "id": 8194790514, "lat": 49.973308, "lon": 10.8751, "tags": {"amenity": "charging_station", "access": "yes", "operator": "EnBW", "name": "HPC Breitengüßbach", "addr:country": "DE", "socket:type2_combo": "4", "socket:type2_combo:output": "150.0 kW", "charging_station:output": "150.0 kW", "capacity": "4", "authentication:none": "", "_source": "worldwide"}}, {"type": "node", "id": 9160376195, "lat": 49.97345, "lon": 10.873805, "tags": {"amenity": "charging_station", "operator": "Aldi", "name": "Ladestation Aldi", "addr:country": "DE", "capacity": "2", "_source": "worldwide"}}, {"type": "node", "id": 12790186509, "lat": 49.973024, "lon": 10.872839, "tags": {"amenity": "charging_station", "fee": "yes", "addr:country": "DE", "_source": "worldwide"}}, {"type": "node", "id": 8210829184, "lat": 49.06435, "lon": 10.314232, "tags": {"amenity": "charging_station", "operator": "Ladeverbund+", "name": "Ladestation Ladeverbund+", "addr:country": "DE", "capacity": "2", "_source": "worldwide"}}, {"type": "node", "id": 11883843031, "lat": 49.064425, "lon": 10.311362, "tags": {"amenity": "charging_station", "addr:country": "DE", "socket:type2": "2", "socket:type2:output": "22 kW", "charging_station:output": "22 kW", "capacity": "2", "_source": "worldwide"}}, {"type": "node", "id": 8222556568, "lat": 49.114936, "lon": 10.755372, "tags": {"amenity": "charging_station", "addr:country": "DE", "capacity": "6", "_source": "worldwide"}}, {"type": "node", "id": 8244987139, "lat": 49.900865, "lon": 10.349172, "tags": {"amenity": "charging_station", "access": "yes", "opening_hours": "24/7", "addr:country": "DE", "socket:schuko": "3", "socket:schuko:output": "2.3 kW", "charging_station:output": "2.3 kW", "capacity": "3", "_source": "worldwide"}}, {"type": "node", "id": 10316952023, "lat": 49.900218, "lon": 10.35139, "tags": {"amenity": "charging_station", "access": "yes", "operator": "ÜZ Mainfranken", "name": "Ladestation ÜZ Mainfranken", "addr:country": "DE", "capacity": "2", "_source": "worldwide"}}, {"type": "node", "id": 11648497143, "lat": 49.901522, "lon": 10.356217, "tags": {"amenity": "charging_station", "access": "yes", "operator": "ÜZ Mainfranken", "name": "Ladestation ÜZ Mainfranken", "addr:country": "DE", "capacity": "2", "_source": "worldwide"}}, {"type": "node", "id": 8308913144, "lat": 49.592875, "lon": 10.948609, "tags": {"amenity": "charging_station", "access": "yes", "fee": "yes", "network": "LadeverbundPlus", "opening_hours": "24/7", "operator": "Erlanger Stadtwerke", "name": "Erlanger Stadtwerke - LadeverbundPlus", "addr:street": "An den Häuslinger Wegäckern 1", "addr:postcode": "91056", "addr:city": "Erlangen", "addr:country": "DE", "socket:type2": "2", "socket:type2:output": "22.0 kW", "charging_station:output": "22.0 kW", "capacity": "2", "authentication:none": "", "_source": "worldwide"}}, {"type": "node", "id": 12798860065, "lat": 49.592449, "lon": 10.94558, "tags": {"amenity": "charging_station", "access": "yes", "fee": "yes", "network": "LadeverbundPlus", "opening_hours": "24/7", "operator": "Erlanger Stadtwerke", "name": "Erlanger Stadtwerke - LadeverbundPlus", "addr:street": "Frankenalbstraße 10t", "addr:postcode": "91056", "addr:city": "Erlangen", "addr:country": "DE", "socket:type2": "2", "socket:type2:output": "22.0 kW", "charging_station:output": "22.0 kW", "capacity": "2", "authentication:none": "", "_source": "worldwide"}}, {"type": "node", "id": 8313199128, "lat": 49.865564, "lon": 10.85427, "tags": {"amenity": "charging_station", "operator": "Seniotel", "name": "Ladestation Seniotel", "addr:country": "DE", "_source": "worldwide"}}, {"type": "node", "id": 11495423266, "lat": 49.866743, "lon": 10.84476, "tags": {"amenity": "charging_station", "name": "Ladestation für E-Autos", "addr:country": "DE", "capacity": "2", "_source": "worldwide"}}, {"type": "node", "id": 8393811437, "lat": 49.530427, "lon": 10.860287, "tags": {"amenity": "charging_station", "access": "yes", "fee": "yes", "opening_hours": "24/7", "operator": "N-ERGIE", "name": "Schulplatz", "addr:country": "DE", "socket:type2": "2", "socket:type2:output": "22.0 kW", "charging_station:output": "22.0 kW", "capacity": "2", "_source": "worldwide"}}, {"type": "node", "id": 8393811440, "lat": 49.572975, "lon": 10.867033, "tags": {"amenity": "charging_station", "access": "yes", "fee": "yes", "network": "Ladeverbund+", "opening_hours": "24/7", "operator": "Herzo Werke", "name": "Freizeitbad Atlantis", "addr:country": "DE", "socket:type2": "2", "socket:type2:output": "22.0 kW", "charging_station:output": "22.0 kW", "capacity": "2", "_source": "worldwide"}}, {"type": "node", "id": 8846805769, "lat": 49.575527, "lon": 10.871415, "tags": {"amenity": "charging_station", "access": "customers", "fee": "yes", "network": "Ladeverbund+", "operator": "Herzo Werke", "name": "Herzo Werke - Ladeverbund+", "addr:country": "DE", "socket:type2": "2", "socket:type2:output": "22.0 kW", "charging_station:output": "22.0 kW", "capacity": "2", "_source": "worldwide"}}, {"type": "node", "id": 11501483028, "lat": 49.574109, "lon": 10.873914, "tags": {"amenity": "charging_station", "access": "yes", "fee": "yes", "network": "LadeverbundPlus", "opening_hours": "24/7", "operator": "Herzo Werke", "name": "Herzo Werke - LadeverbundPlus", "addr:street": "Kantstraße 15", "addr:postcode": "91074", "addr:city": "Herzogenaurach", "addr:country": "DE", "socket:type2": "4", "socket:type2:output": "22.0 kW", "charging_station:output": "22.0 kW", "capacity": "4", "authentication:none": "", "_source": "worldwide"}}, {"type": "node", "id": 8442203259, "lat": 49.575287, "lon": 10.906571, "tags": {"amenity": "charging_station", "addr:country": "DE", "_source": "worldwide"}}, {"type": "node", "id": 8460749757, "lat": 49.928761, "lon": 10.876078, "tags": {"amenity": "charging_station", "access": "yes", "fee": "yes", "operator": "NewMotion", "name": "New Motion Charging Station", "addr:country": "DE", "capacity": "11", "_source": "worldwide"}}, {"type": "node", "id": 8499171717, "lat": 49.496325, "lon": 10.804292, "tags": {"amenity": "charging_station", "access": "customers", "fee": "yes", "addr:country": "DE", "capacity": "2", "_source": "worldwide"}}, {"type": "node", "id": 13672564030, "lat": 49.496283, "lon": 10.801128, "tags": {"amenity": "charging_station", "fee": "yes", "network": "LadeverbundPlus", "operator": "N-ERGIE", "name": "N-ERGIE - LadeverbundPlus", "addr:country": "DE", "capacity": "2", "_source": "worldwide"}}, {"type": "node", "id": 8520199183, "lat": 49.179707, "lon": 10.335946, "tags": {"amenity": "charging_station", "addr:country": "DE", "_source": "worldwide"}}, {"type": "node", "id": 8580502096, "lat": 49.565449, "lon": 10.91243, "tags": {"amenity": "charging_station", "fee": "yes", "brand": "LadeVerbundPlus", "operator": "Herzo Energie", "name": "Herzo Energie - LadeVerbundPlus", "addr:country": "DE", "capacity": "2", "_source": "worldwide"}}, {"type": "node", "id": 8615035355, "lat": 49.739252, "lon": 10.161172, "tags": {"amenity": "charging_station", "fee": "no", "opening_hours": "24/7", "operator": "Landratsamt Kitzingen", "name": "Ladestation Landratsamt Kitzingen", "addr:country": "DE", "socket:type2": "2", "socket:type2:output": "22 kW", "charging_station:output": "22 kW", "capacity": "2", "_source": "worldwide"}}, {"type": "node", "id": 8615035360, "lat": 49.739678, "lon": 10.163125, "tags": {"amenity": "charging_station", "fee": "yes", "opening_hours": "24/7", "operator": "LKW Kitzingen", "name": "Ladestation LKW Kitzingen", "addr:country": "DE", "socket:type2": "2", "socket:type2:output": "22 kW", "charging_station:output": "22 kW", "capacity": "2", "_source": "worldwide"}}, {"type": "node", "id": 11281099485, "lat": 49.736786, "lon": 10.163334, "tags": {"amenity": "charging_station", "fee": "yes", "opening_hours": "24/7", "operator": "LKW Kitzingen", "name": "Ladestation LKW Kitzingen", "addr:country": "DE", "socket:type2": "2", "socket:type2:output": "22 kW", "charging_station:output": "22 kW", "capacity": "2", "_source": "worldwide"}}, {"type": "node", "id": 11281099486, "lat": 49.735981, "lon": 10.163478, "tags": {"amenity": "charging_station", "fee": "yes", "opening_hours": "24/7", "operator": "LKW Kitzingen", "name": "Ladestation LKW Kitzingen", "addr:country": "DE", "socket:type2": "2", "socket:type2:output": "22 kW", "charging_station:output": "22 kW", "capacity": "2", "_source": "worldwide"}}, {"type": "node", "id": 8615846556, "lat": 49.828343, "lon": 10.990052, "tags": {"amenity": "charging_station", "operator": "EnBW", "name": "ENBW / Batzner", "addr:country": "DE", "capacity": "2", "_source": "worldwide"}}, {"type": "node", "id": 8638285817, "lat": 49.10715, "lon": 10.3797, "tags": {"amenity": "charging_station", "access": "yes", "fee": "no", "brand": "Spelsberg", "name": "Spelsberg BCS E-Bike Ladestation", "addr:country": "DE", "socket:schuko": "2", "socket:schuko:output": "2.3 kW", "charging_station:output": "2.3 kW", "capacity": "4", "_source": "worldwide"}}, {"type": "node", "id": 8640801698, "lat": 49.723712, "lon": 10.272111, "tags": {"amenity": "charging_station", "fee": "no", "opening_hours": "24/7", "operator": "N-ERGIE", "name": "Ladestation N-ERGIE", "addr:country": "DE", "socket:type2": "2", "socket:type2:output": "22 kW", "charging_station:output": "22 kW", "capacity": "2", "_source": "worldwide"}}, {"type": "node", "id": 8699460318, "lat": 49.511572, "lon": 10.884408, "tags": {"amenity": "charging_station", "operator": "N-ERGIE", "name": "Ladestation N-ERGIE", "addr:country": "DE", "socket:type2": "2", "socket:type2:output": "22.0 kW", "charging_station:output": "22.0 kW", "_source": "worldwide"}}, {"type": "node", "id": 11888597630, "lat": 49.512394, "lon": 10.878368, "tags": {"amenity": "charging_station", "addr:country": "DE", "_source": "worldwide"}}, {"type": "node", "id": 13635216380, "lat": 49.513259, "lon": 10.882643, "tags": {"amenity": "charging_station", "operator": "N-ERGIE", "name": "Ladestation N-ERGIE", "addr:country": "DE", "socket:type2": "2", "socket:type2:output": "22.0 kW", "charging_station:output": "22.0 kW", "_source": "worldwide"}}, {"type": "node", "id": 8769504072, "lat": 49.803568, "lon": 10.229675, "tags": {"amenity": "charging_station", "access": "private", "operator": "N-ERGIE", "name": "Ladestation N-ERGIE", "addr:country": "DE", "capacity": "2", "_source": "worldwide"}}, {"type": "node", "id": 8814126222, "lat": 49.513306, "lon": 10.975297, "tags": {"amenity": "charging_station", "access": "yes", "fee": "yes", "operator": "Ladeverbund+", "name": "Ladeverbund+ Charging Station", "addr:country": "DE", "capacity": "2", "_source": "worldwide"}}, {"type": "node", "id": 8814126223, "lat": 49.512448, "lon": 10.982735, "tags": {"amenity": "charging_station", "access": "yes", "fee": "yes", "network": "LadeVerbundPlus", "opening_hours": "24/7", "operator": "infra fürth", "name": "infra fürth - LadeVerbundPlus", "addr:country": "DE", "socket:type2": "2", "socket:type2:output": "22.0 kW", "charging_station:output": "22.0 kW", "capacity": "2", "authentication:none": "yes", "_source": "worldwide"}}, {"type": "node", "id": 8814126224, "lat": 49.492154, "lon": 10.941641, "tags": {"amenity": "charging_station", "access": "yes", "fee": "yes", "network": "LadeVerbundPlus", "opening_hours": "24/7", "operator": "infra fürth", "name": "infra fürth - LadeVerbundPlus", "addr:country": "DE", "socket:type2": "2", "socket:type2:output": "22.0 kW", "charging_station:output": "22.0 kW", "capacity": "2", "authentication:none": "yes", "_source": "worldwide"}}, {"type": "node", "id": 8814126225, "lat": 49.494435, "lon": 10.911767, "tags": {"amenity": "charging_station", "access": "yes", "fee": "yes", "network": "LadeVerbundPlus", "opening_hours": "24/7", "operator": "infra fürth", "name": "infra fürth - LadeVerbundPlus", "addr:country": "DE", "socket:type2": "2", "socket:type2:output": "22.0 kW", "charging_station:output": "22.0 kW", "capacity": "2", "authentication:none": "yes", "_source": "worldwide"}}, {"type": "node", "id": 8815092896, "lat": 49.569886, "lon": 10.99181, "tags": {"amenity": "charging_station", "access": "yes", "fee": "yes", "brand": "ChargePoint", "operator": "ChargePoint", "name": "Brucklyn Parkhaus Charging Station", "addr:country": "DE", "capacity": "2", "_source": "worldwide"}}, {"type": "node", "id": 8831088738, "lat": 49.471933, "lon": 10.027578, "tags": {"amenity": "charging_station", "fee": "yes", "opening_hours": "24/7", "operator": "solid", "name": "Kieselallee 1", "addr:country": "DE", "socket:type2": "2", "socket:type2:output": "22 kW", "charging_station:output": "22 kW", "_source": "worldwide"}}, {"type": "node", "id": 8865618407, "lat": 49.579514, "lon": 10.84499, "tags": {"amenity": "charging_station", "access": "yes", "fee": "no", "opening_hours": "24/7", "operator": "Privat", "name": "Elektro Camping", "addr:country": "DE", "capacity": "2", "_source": "worldwide"}}, {"type": "node", "id": 8916644883, "lat": 49.15732, "lon": 10.55038, "tags": {"amenity": "charging_station", "operator": "N-ERGIE", "name": "Ladestation N-ERGIE", "addr:country": "DE", "_source": "worldwide"}}, {"type": "node", "id": 8936083700, "lat": 49.489936, "lon": 10.97492, "tags": {"amenity": "charging_station", "access": "yes", "fee": "yes", "network": "LadeVerbundPlus", "opening_hours": "24/7", "operator": "infra fürth", "name": "infra fürth - LadeVerbundPlus", "addr:country": "DE", "socket:type2": "2", "socket:type2:output": "22.0 kW", "charging_station:output": "22.0 kW", "capacity": "2", "authentication:none": "yes", "_source": "worldwide"}}, {"type": "node", "id": 8942149117, "lat": 49.419583, "lon": 10.84819, "tags": {"amenity": "charging_station", "access": "yes", "fee": "no", "brand": "Spelsberg", "name": "Spelsberg BCS E-Bike Ladestation", "addr:country": "DE", "socket:schuko": "2", "socket:schuko:output": "2.3 kW", "charging_station:output": "2.3 kW", "capacity": "4", "_source": "worldwide"}}, {"type": "node", "id": 8943778655, "lat": 49.873409, "lon": 10.882157, "tags": {"amenity": "charging_station", "opening_hours": "24/7", "operator": "Stadtwerke Bamberg", "name": "Ladestation Stadtwerke Bamberg", "addr:country": "DE", "capacity": "2", "_source": "worldwide"}}, {"type": "node", "id": 8947327716, "lat": 49.134375, "lon": 10.070335, "tags": {"amenity": "charging_station", "fee": "no", "operator": "Stadtwerke Crailsheim", "name": "Ladestation Stadtwerke Crailsheim", "addr:country": "DE", "capacity": "2", "_source": "worldwide"}}, {"type": "node", "id": 10735044386, "lat": 49.13409, "lon": 10.064998, "tags": {"amenity": "charging_station", "access": "yes", "fee": "yes", "brand": "Ladeverbund+", "network": "Ladeverbund+", "operator": "Stadtwerke Crailsheim", "name": "Stadtwerke Crailsheim - Ladeverbund+", "addr:street": "Friedenstraße", "addr:postcode": "74564", "addr:city": "Crailsheim", "capacity": "2", "_source": "worldwide"}},