{"id": "50-20", "latMin": 50, "lonMin": 20, "latMax": 51, "lonMax": 21, "generated": "2026-04-16T18:39:08.400Z", "count": 9, "pois": [{"type": "node", "id": 534312014, "lat": 50.841524, "lon": 20.484442, "tags": {"amenity": "charging_station", "access": "yes", "fee": "yes", "brand": "Shell Recharge", "operator": "Shell Recharge", "name": "Budowa stacji paliw i restauracji", "addr:country": "PL", "capacity": "4", "_source": "worldwide"}}, {"type": "node", "id": 1155020485, "lat": 50.016713, "lon": 20.958933, "tags": {"amenity": "charging_station", "addr:country": "PL", "capacity": "2", "_source": "worldwide"}}, {"type": "node", "id": 1441912565, "lat": 50.088215, "lon": 20.005446, "tags": {"amenity": "charging_station", "fee": "yes", "brand": "Ekoenergetyka", "operator": "Orlen", "name": "Orlen - Ekoenergetyka", "addr:country": "PL", "capacity": "2", "_source": "worldwide"}}, {"type": "node", "id": 1453993455, "lat": 50.089605, "lon": 20.006239, "tags": {"amenity": "charging_station", "access": "yes", "fee": "yes", "operator": "Kaufland", "name": "Ladestation Kaufland", "addr:country": "PL", "capacity": "2", "_source": "worldwide"}}, {"type": "node", "id": 1454870754, "lat": 50.012837, "lon": 20.015825, "tags": {"amenity": "charging_station", "access": "private", "operator": "MPK Kraków", "name": "Ladestation MPK Kraków", "addr:country": "PL", "capacity": "1", "_source": "worldwide"}}, {"type": "node", "id": 1454872654, "lat": 50.01452, "lon": 20.021644, "tags": {"amenity": "charging_station", "addr:country": "PL", "capacity": "2", "_source": "worldwide"}}, {"type": "node", "id": 1456765066, "lat": 50.01191, "lon": 20.924216, "tags": {"amenity": "charging_station", "fee": "yes", "operator": "Biedronka", "name": "Ladestation Biedronka", "addr:country": "PL", "capacity": "2", "_source": "worldwide"}}, {"type": "node", "id": 1492736905, "lat": 50.015571, "lon": 20.023532, "tags": {"amenity": "charging_station", "access": "yes", "operator": "ZTP Kraków", "name": "Ladestation ZTP Kraków", "addr:country": "PL", "socket:type2": "2", "socket:type2:output": "22.0 kW", "charging_station:output": "22.0 kW", "capacity": "2", "_source": "worldwide"}}, {"type": "node", "id": 1497916141, "lat": 50.085284, "lon": 20.0399, "tags": {"amenity": "charging_station", "addr:country": "PL", "capacity": "2", "_source": "worldwide"}}]}