{"id": "38-29", "latMin": 38, "lonMin": 29, "latMax": 39, "lonMax": 30, "generated": "2026-04-16T18:39:07.690Z", "count": 1023, "pois": [{"type": "node", "id": 8820622919, "lat": 38.1204965, "lon": 29.0606101, "tags": {"amenity": "restaurant"}}, {"type": "node", "id": 9628704717, "lat": 38.1196341, "lon": 29.0610289, "tags": {"name": "Güney Şelalesi", "name:de": "Güney-Wasserfall", "name:en": "Güney Waterfall", "name:fa": "آبشار گونی", "name:ru": "Гюнейский водопад", "tourism": "attraction", "waterway": "waterfall", "wikidata": "Q27876674", "wikipedia": "tr:Güney Şelalesi"}}, {"type": "node", "id": 7602609931, "lat": 38.1580529, "lon": 29.0622289, "tags": {"amenity": "fuel"}}, {"type": "node", "id": 11611095569, "lat": 38.15413, "lon": 29.0638789, "tags": {"amenity": "pharmacy", "name": "Dalca Eczanesi", "phone": "+90 258 451 2903"}}, {"type": "node", "id": 11611095669, "lat": 38.1548554, "lon": 29.064293, "tags": {"amenity": "pharmacy", "name": "Sağlık Eczanesi", "phone": "+90 258 451 2137"}}, {"type": "node", "id": 11412131821, "lat": 38.156586, "lon": 29.0692538, "tags": {"amenity": "fuel"}}, {"type": "node", "id": 11619328976, "lat": 38.0313878, "lon": 29.1787295, "tags": {"amenity": "pharmacy", "name": "Demet Eczanesi", "phone": "+90 258 278 6035"}}, {"type": "node", "id": 6159279541, "lat": 38.0274426, "lon": 29.2707469, "tags": {"amenity": "parking"}}, {"type": "node", "id": 11676083810, "lat": 38.0715941, "lon": 29.4073705, "tags": {"amenity": "fuel"}}, {"type": "node", "id": 11612610470, "lat": 38.0820087, "lon": 29.3925067, "tags": {"amenity": "pharmacy", "healthcare": "pharmacy", "name": "Koca Eczanesi", "phone": "+90 258 751 2996"}}, {"type": "node", "id": 11612610176, "lat": 38.0824338, "lon": 29.3971697, "tags": {"amenity": "pharmacy", "healthcare": "pharmacy", "name": "Gündüz Eczanesi", "phone": "+90 258 751 3486"}}, {"type": "node", "id": 11612610177, "lat": 38.0824061, "lon": 29.3965588, "tags": {"amenity": "pharmacy", "healthcare": "pharmacy", "name": "Onur Eczanesi", "phone": "+90 258 751 3040"}}, {"type": "node", "id": 11612610669, "lat": 38.0823956, "lon": 29.3968488, "tags": {"amenity": "pharmacy", "healthcare": "pharmacy", "name": "Kent Eczanesi", "phone": "+90 258 751 3079"}}, {"type": "node", "id": 11612610670, "lat": 38.0823944, "lon": 29.3967103, "tags": {"amenity": "pharmacy", "healthcare": "pharmacy", "name": "Çal Eczanesi", "phone": "+90 258 751 3971"}}, {"type": "node", "id": 11676083809, "lat": 38.0797257, "lon": 29.3998073, "tags": {"amenity": "fuel"}}, {"type": "node", "id": 3700950831, "lat": 38.1185644, "lon": 29.3965421, "tags": {"amenity": "fuel", "source": "bing"}}, {"type": "node", "id": 11612610469, "lat": 38.1529921, "lon": 29.3789618, "tags": {"amenity": "pharmacy", "name": "Akkent Eczanesi", "phone": "+90 258 761 4595"}}, {"type": "node", "id": 1979238845, "lat": 38.1487641, "lon": 29.4707864, "tags": {"amenity": "fuel", "source": "bing"}}, {"type": "node", "id": 11592841870, "lat": 38.1563634, "lon": 29.4773424, "tags": {"amenity": "pharmacy", "healthcare": "pharmacy", "name": "Selen Eczanesi", "phone": "+90 258 757 2100"}}, {"type": "node", "id": 1888091650, "lat": 38.0357242, "lon": 29.5793507, "tags": {"amenity": "fuel", "source": "bing"}}, {"type": "node", "id": 11592841771, "lat": 38.0403416, "lon": 29.7384152, "tags": {"amenity": "pharmacy", "name": "Hayat Eczanesi", "phone": "+90 258 741 8009"}}, {"type": "node", "id": 9299987356, "lat": 38.1163662, "lon": 29.6359793, "tags": {"amenity": "fuel"}}, {"type": "node", "id": 11592841871, "lat": 38.1165757, "lon": 29.6414648, "tags": {"amenity": "pharmacy", "name": "Doğa Eczanesi", "phone": "+90 258 722 4422"}}, {"type": "node", "id": 11592841973, "lat": 38.116489, "lon": 29.6418285, "tags": {"amenity": "pharmacy", "name": "Kıralan Eczanesi", "phone": "+90 258 722 4343"}}, {"type": "node", "id": 1888093176, "lat": 38.1269264, "lon": 29.6426609, "tags": {"amenity": "fuel", "source": "bing"}}, {"type": "node", "id": 9299987357, "lat": 38.1328103, "lon": 29.6446021, "tags": {"amenity": "fuel"}}, {"type": "node", "id": 9299987360, "lat": 38.1379433, "lon": 29.6444585, "tags": {"amenity": "fuel"}}, {"type": "node", "id": 11592841974, "lat": 38.1360448, "lon": 29.6481031, "tags": {"amenity": "pharmacy", "name": "Çıtak Eczanesi", "phone": "+90 258 722 5282"}}, {"type": "node", "id": 11592842669, "lat": 38.1355359, "lon": 29.6474983, "tags": {"amenity": "pharmacy", "name": "Özbek Eczanesi", "phone": "+90 258 722 4412"}}, {"type": "node", "id": 9299987361, "lat": 38.1423783, "lon": 29.6442298, "tags": {"amenity": "fuel"}}, {"type": "node", "id": 9299987362, "lat": 38.1426029, "lon": 29.6435124, "tags": {"amenity": "fuel"}}, {"type": "node", "id": 5421001915, "lat": 38.0114998, "lon": 29.9627116, "tags": {"amenity": "fuel"}}, {"type": "node", "id": 6827104014, "lat": 38.0364377, "lon": 29.896555, "tags": {"amenity": "bicycle_parking", "bicycle_parking": "building"}}, {"type": "node", "id": 4362229190, "lat": 38.0412043, "lon": 29.8853937, "tags": {"amenity": "pharmacy", "healthcare": "pharmacy", "name": "Fazilet Eczanesi", "phone": "+90 272 431 2407"}}, {"type": "node", "id": 4362234289, "lat": 38.0416412, "lon": 29.8851622, "tags": {"amenity": "pharmacy", "healthcare": "pharmacy", "name": "Ege Eczanesi", "phone": "+90 272 431 3110"}}, {"type": "node", "id": 4362234389, "lat": 38.0414203, "lon": 29.8856883, "tags": {"amenity": "atm", "opening_hours": "24/7", "operator": "Deniz Bank"}}, {"type": "node", "id": 3955318884, "lat": 38.2707619, "lon": 29.1036692, "tags": {"amenity": "fuel", "brand": "Petrol Ofisi", "brand:wikidata": "Q1278087", "name": "Petrol Ofisi"}}, {"type": "node", "id": 2654364187, "lat": 38.2103063, "lon": 29.2925696, "tags": {"amenity": "drinking_water", "name": "Topuz Çeşmesi", "source": "GPS"}}, {"type": "node", "id": 1309306635, "lat": 38.3573574, "lon": 29.2090778, "tags": {"access": "yes", "addr:postcode": "64700", "addr:street": "Blaundos yolu", "alt_name": "Blaundus", "archaeological_site": "city", "historic": "archaeological_site", "is_in": "Turkey, Uşak, Ulubey", "name": "Blaundus Antik Kenti", "name:el": "Βλαῦνδος", "opening_hours": "24/7", "tourism": "attraction", "wikidata": "Q263669", "wikimedia_commons": "Category:Blaundos", "wikipedia": "tr:Blaundos"}}, {"type": "node", "id": 6977531685, "lat": 38.5383564, "lon": 29.0678836, "tags": {"addr:postcode": "64600", "addr:street": "Düzköy, Eşme", "historic": "castle", "name": "Mesotimelos Antik Kenti", "opening_hours": "24/7"}}, {"type": "node", "id": 11612610169, "lat": 38.4177523, "lon": 29.2821699, "tags": {"amenity": "pharmacy", "name": "Buket Eczanesi", "phone": "+90 276 716 1212"}}, {"type": "node", "id": 11612610170, "lat": 38.4193846, "lon": 29.2903165, "tags": {"amenity": "pharmacy", "name": "Sağlık Eczanesi", "phone": "+90 276 716 1402"}}, {"type": "node", "id": 11612610171, "lat": 38.4197262, "lon": 29.2900608, "tags": {"amenity": "pharmacy", "name": "Gamze Eczanesi", "phone": "+90 276 716 1039"}}, {"type": "node", "id": 11612610172, "lat": 38.4200786, "lon": 29.2903072, "tags": {"amenity": "pharmacy", "name": "Toklu Eczanesi", "phone": "+90 276 716 2808"}}, {"type": "node", "id": 13056202779, "lat": 38.4194136, "lon": 29.2911189, "tags": {"mapillary": "1380060523034781", "name": "Hocaoğlu Market", "shop": "convenience"}}, {"type": "node", "id": 2881717909, "lat": 38.4109503, "lon": 29.299657, "tags": {"tourism": "viewpoint"}}, {"type": "node", "id": 5030128933, "lat": 38.4138691, "lon": 29.3000784, "tags": {"tourism": "camp_site"}}, {"type": "node", "id": 5030128934, "lat": 38.413552, "lon": 29.299545, "tags": {"amenity": "restaurant", "name": "Ulubey Macera Parkı"}}, {"type": "node", "id": 2881717629, "lat": 38.4143004, "lon": 29.3007567, "tags": {"tourism": "viewpoint"}}, {"type": "node", "id": 6134956395, "lat": 38.4143368, "lon": 29.2998667, "tags": {"tourism": "camp_site"}}, {"type": "node", "id": 5030128935, "lat": 38.4180527, "lon": 29.3040166, "tags": {"tourism": "viewpoint"}}, {"type": "node", "id": 5030131831, "lat": 38.4191677, "lon": 29.3042355, "tags": {"tourism": "viewpoint"}}, {"type": "node", "id": 5030131832, "lat": 38.4190703, "lon": 29.3040335, "tags": {"amenity": "restaurant"}}, {"type": "node", "id": 9043730301, "lat": 38.4196592, "lon": 29.3044569, "tags": {"name": "10₺ Glass Bottom", "tourism": "viewpoint"}}, {"type": "node", "id": 9043758213, "lat": 38.4184711, "lon": 29.3040241, "tags": {"tourism": "viewpoint"}}, {"type": "node", "id": 9043814317, "lat": 38.4183197, "lon": 29.3035605, "tags": {"amenity": "bicycle_parking"}}, {"type": "node", "id": 9043814326, "lat": 38.4183789, "lon": 29.3043792, "tags": {"amenity": "cafe", "cuisine": "turkish"}}, {"type": "node", "id": 11817898503, "lat": 38.417711, "lon": 29.3043115, "tags": {"artwork_type": "statue", "name": "ULUBEY", "tourism": "artwork"}}, {"type": "node", "id": 13056202771, "lat": 38.4215525, "lon": 29.2904834, "tags": {"artwork_type": "sculpture", "tourism": "artwork"}}, {"type": "node", "id": 13056202781, "lat": 38.4210799, "lon": 29.2910508, "tags": {"access": "yes", "amenity": "drinking_water"}}, {"type": "node", "id": 13056202782, "lat": 38.4234922, "lon": 29.2925881, "tags": {"amenity": "shelter", "shelter_type": "public_transport"}}, {"type": "node", "id": 5030130425, "lat": 38.4271753, "lon": 29.2896745, "tags": {"amenity": "fuel", "compressed_air": "no"}}, {"type": "node", "id": 9295723037, "lat": 38.4329964, "lon": 29.2968315, "tags": {"amenity": "fuel", "compressed_air": "yes"}}, {"type": "node", "id": 1308575590, "lat": 38.4368369, "lon": 29.2971987, "tags": {"amenity": "fuel", "compressed_air": "yes", "name": "Karahan Petrol", "opening_hours": "Mo-Su,PH 00:00-00:00"}}, {"type": "node", "id": 11817886350, "lat": 38.4151458, "lon": 29.3099263, "tags": {"tourism": "viewpoint"}}, {"type": "node", "id": 9295723056, "lat": 38.4801721, "lon": 29.3173687, "tags": {"amenity": "fuel"}}, {"type": "node", "id": 6011703185, "lat": 38.5661924, "lon": 29.239848, "tags": {"amenity": "cafe"}}, {"type": "node", "id": 2384373202, "lat": 38.6579348, "lon": 29.0336675, "tags": {"amenity": "fuel", "brand": "Petrol Ofisi", "brand:wikidata": "Q1278087", "name": "Petrol Ofisi", "source": "bing"}}, {"type": "node", "id": 11076866942, "lat": 38.659317, "lon": 29.039298, "tags": {"amenity": "drinking_water"}}, {"type": "node", "id": 6977531788, "lat": 38.6398406, "lon": 29.0504988, "tags": {"addr:street": "Eşme yolu, Örencik", "internet_access": "wlan", "name": "Örencik Termal Tesisleri", "tourism": "hotel"}}, {"type": "node", "id": 5409623500, "lat": 38.6529039, "lon": 29.1467407, "tags": {"amenity": "fuel"}}, {"type": "node", "id": 5409623501, "lat": 38.6538151, "lon": 29.1451999, "tags": {"amenity": "fuel", "name": "Hypco"}}, {"type": "node", "id": 8930812917, "lat": 38.6535918, "lon": 29.1456599, "tags": {"amenity": "restaurant", "name": "Köfteci Sami"}}, {"type": "node", "id": 2384373234, "lat": 38.6614802, "lon": 29.0766693, "tags": {"amenity": "fuel", "brand": "Moil", "brand:wikidata": "Q62296914", "compressed_air": "yes", "name": "M Oil", "source": "bing"}}, {"type": "node", "id": 11076866952, "lat": 38.6612648, "lon": 29.0861052, "tags": {"amenity": "drinking_water"}}, {"type": "node", "id": 2203493392, "lat": 38.6618084, "lon": 29.0972957, "tags": {"amenity": "fuel", "brand": "Parkoil", "name": "Parkoil", "source": "bing"}}, {"type": "node", "id": 3479873895, "lat": 38.6719043, "lon": 29.198135, "tags": {"amenity": "fuel"}}, {"type": "node", "id": 3479871788, "lat": 38.672222, "lon": 29.2071882, "tags": {"amenity": "fuel"}}, {"type": "node", "id": 11271426170, "lat": 38.6729072, "lon": 29.2180739, "tags": {"amenity": "fuel", "brand": "Petrol Ofisi", "brand:wikidata": "Q1278087", "name": "Petrol Ofisi"}}, {"type": "node", "id": 12299944576, "lat": 38.6769454, "lon": 29.2176767, "tags": {"amenity": "charging_station", "brand": "Trugo Şarj İstasyonu"}}, {"type": "node", "id": 3479853457, "lat": 38.6760494, "lon": 29.2535593, "tags": {"amenity": "fuel", "brand": "Petrol Ofisi", "brand:wikidata": "Q1278087", "compressed_air": "yes", "name": "Petrol Ofisi", "operator": "Karahan Petrol"}}, {"type": "node", "id": 5823740954, "lat": 38.6563347, "lon": 29.3341539, "tags": {"access": "yes", "caravans": "yes", "fee": "no", "name": "Yeşil Karaağaç Kamp Alanı", "operator": "Uşak Belediyesi", "tents": "yes", "tourism": "camp_site"}}, {"type": "node", "id": 3479857527, "lat": 38.6765632, "lon": 29.2556138, "tags": {"amenity": "fuel", "brand": "Aytemiz", "brand:wikidata": "Q62274352", "compressed_air": "yes", "name": "Aytemiz", "operator": "Gazi 64 Petrol"}}, {"type": "node", "id": 3479859388, "lat": 38.6786248, "lon": 29.2600471, "tags": {"amenity": "fuel", "brand": "Petrall", "compressed_air": "yes", "name": "Petrall", "operator": "Çelebi Petrol"}}, {"type": "node", "id": 3479856997, "lat": 38.6767048, "lon": 29.3060065, "tags": {"amenity": "fuel", "brand": "Best", "brand:wikidata": "Q127592740", "compressed_air": "yes", "name": "Best"}}, {"type": "node", "id": 13048223735, "lat": 38.7005724, "lon": 29.2599674, "tags": {"shop": "convenience"}}, {"type": "node", "id": 11539227932, "lat": 38.6754082, "lon": 29.3247986, "tags": {"amenity": "fuel", "brand": "Lukoil", "brand:wikidata": "Q329347", "name": "Lukoil"}}, {"type": "node", "id": 5424486469, "lat": 38.6768274, "lon": 29.3279672, "tags": {"amenity": "fuel", "brand": "Eses", "name": "Eses"}}, {"type": "node", "id": 1872242472, "lat": 38.7251609, "lon": 29.2011438, "tags": {"amenity": "fuel", "source": "bing"}}, {"type": "node", "id": 9988574973, "lat": 38.9894702, "lon": 29.1230414, "tags": {"man_made": "monitoring_station", "monitoring:weather": "yes", "operator": "Meteroloji Genel Müdürlüğü"}}, {"type": "node", "id": 11639947070, "lat": 38.9953595, "lon": 29.1219178, "tags": {"amenity": "pharmacy", "name": "Karahan Eczanesi", "phone": "+90 274 571 2790"}}, {"type": "node", "id": 12593288921, "lat": 38.8683346, "lon": 29.2863228, "tags": {"amenity": "fuel", "brand": "Shell", "brand:wikidata": "Q110716465", "name": "Shell"}}, {"type": "node", "id": 12593331595, "lat": 38.870167, "lon": 29.2876684, "tags": {"name": "Ayaz Market", "shop": "convenience"}}, {"type": "node", "id": 12593331596, "lat": 38.8698749, "lon": 29.2875197, "tags": {"name": "Ayan Gıda Pazarı", "shop": "convenience"}}, {"type": "node", "id": 12593332010, "lat": 38.8692035, "lon": 29.2875509, "tags": {"name": "Şahin Market", "shop": "convenience"}}, {"type": "node", "id": 9413354399, "lat": 38.993939, "lon": 29.1742533, "tags": {"amenity": "fuel"}}, {"type": "node", "id": 13055717426, "lat": 38.9403697, "lon": 29.2580885, "tags": {"tourism": "hotel"}}, {"type": "node", "id": 5404302330, "lat": 38.9203735, "lon": 29.3021229, "tags": {"amenity": "fuel"}}, {"type": "node", "id": 13055719631, "lat": 38.9235135, "lon": 29.303255, "tags": {"amenity": "restaurant"}}, {"type": "node", "id": 5520753421, "lat": 38.9293612, "lon": 29.3016813, "tags": {"amenity": "fuel", "name": "oz bay petrol"}}, {"type": "node", "id": 5387836790, "lat": 38.9367833, "lon": 29.314323, "tags": {"amenity": "restaurant", "name": "Aydoğdu Dinlenme Tesisi"}}, {"type": "node", "id": 5520753321, "lat": 38.9368024, "lon": 29.314891, "tags": {"amenity": "fuel", "name": "gediz petrol"}}, {"type": "node", "id": 13127943016, "lat": 38.9825208, "lon": 29.2817096, "tags": {"access": "yes", "amenity": "drinking_water"}}, {"type": "node", "id": 11505641286, "lat": 38.2234768, "lon": 29.428815, "tags": {"amenity": "fuel"}}, {"type": "node", "id": 6012789188, "lat": 38.230221, "lon": 29.4188477, "tags": {"tourism": "hotel"}}, {"type": "node", "id": 11612610369, "lat": 38.2300126, "lon": 29.419005, "tags": {"amenity": "pharmacy", "name": "Şehitoğlu Eczanesi", "phone": "+90 258 791 1599"}}, {"type": "node", "id": 11612610175, "lat": 38.2291731, "lon": 29.4197928, "tags": {"amenity": "pharmacy", "name": "Sağlık Eczanesi", "phone": "+90 258 791 2496"}}, {"type": "node", "id": 11612610269, "lat": 38.2296858, "lon": 29.4192625, "tags": {"amenity": "pharmacy", "name": "Gülcan Eczanesi", "phone": "+90 258 791 1212"}}, {"type": "node", "id": 2190996703, "lat": 38.3601571, "lon": 29.4105464, "tags": {"amenity": "fuel", "source": "bing"}}, {"type": "node", "id": 6977531885, "lat": 38.3893665, "lon": 29.4138882, "tags": {"name": "Hasköy Hasarı", "tourism": "artwork"}}, {"type": "node", "id": 11612610173, "lat": 38.3210885, "lon": 29.5328771, "tags": {"amenity": "pharmacy", "name": "Hayat Eczanesi", "phone": "+90 276 517 1347"}}, {"type": "node", "id": 11612610174, "lat": 38.3208498, "lon": 29.5316166, "tags": {"amenity": "pharmacy", "name": "Barış Eczanesi", "phone": "+90 276 517 1770"}}, {"type": "node", "id": 12155020345, "lat": 38.317509, "lon": 29.5344842, "tags": {"brand": "A101", "brand:wikidata": "Q6034496", "name": "A101", "shop": "convenience"}}, {"type": "node", "id": 11549109976, "lat": 38.3234326, "lon": 29.5420916, "tags": {"amenity": "fuel"}}, {"type": "node", "id": 3196544971, "lat": 38.3289143, "lon": 29.5481279, "tags": {"amenity": "fuel"}}, {"type": "node", "id": 3196544972, "lat": 38.3294822, "lon": 29.5513923, "tags": {"amenity": "fuel"}}, {"type": "node", "id": 4699022904, "lat": 38.280009, "lon": 29.723655, "tags": {"addr:city": "Denizli", "addr:country": "TR", "addr:district": "Çivril", "addr:housenumber": "90", "addr:neighbourhood": "Kızılcasöğüt Mahallesi", "addr:postcode": "20600", "addr:street": "Denizli Caddesi Çivril Denizli Yolu", "amenity": "fuel", "brand:wikidata": "Q7072824", "brand:wikipedia": "tr:Opet", "contact:phone": "+90 2587134881", "fuel:diesel": "yes", "fuel:euro_diesel": "yes", "fuel:lpg": "yes", "name": "Opet Çivril", "operator": "Opet Petrolcülük A.Ş.", "source": "Yellow Pages Türkiye", "website": "https://www.opet.com.tr/"}}, {"type": "node", "id": 6801567849, "lat": 38.288064, "lon": 29.7321697, "tags": {"amenity": "fuel"}}, {"type": "node", "id": 11617835169, "lat": 38.2844523, "lon": 29.7329136, "tags": {"amenity": "pharmacy", "name": "Yeni  Eylül Eczanesi", "phone": "+90 258 713 1717"}}, {"type": "node", "id": 6801567881, "lat": 38.2924441, "lon": 29.7240678, "tags": {"amenity": "fuel"}}, {"type": "node", "id": 6801567882, "lat": 38.2903157, "lon": 29.7219902, "tags": {"amenity": "fuel"}}, {"type": "node", "id": 1826886672, "lat": 38.2992342, "lon": 29.7392837, "tags": {"name": "Emre", "tourism": "hotel"}}, {"type": "node", "id": 11617835072, "lat": 38.2999223, "lon": 29.7401532, "tags": {"amenity": "pharmacy", "name": "Bilgin Eczanesi", "phone": "+90 258 713 8550"}}, {"type": "node", "id": 11617835073, "lat": 38.2989896, "lon": 29.7396768, "tags": {"amenity": "pharmacy", "name": "Çetinkaya Eczanesi", "phone": "+90 258 713 9686"}}, {"type": "node", "id": 11617835074, "lat": 38.2986239, "lon": 29.7395063, "tags": {"amenity": "pharmacy", "name": "Köseoğlu Eczanesi", "phone": "+90 258 713 1829"}}, {"type": "node", "id": 11617835170, "lat": 38.3011838, "lon": 29.73976, "tags": {"amenity": "pharmacy", "name": "Hızır Eczanesi", "phone": "+90 258 713 2514"}}, {"type": "node", "id": 11617835470, "lat": 38.3018194, "lon": 29.7402344, "tags": {"amenity": "pharmacy", "name": "Eren Eczanesi", "phone": "+90 258 713 4074"}}, {"type": "node", "id": 11617835472, "lat": 38.2980853, "lon": 29.7392076, "tags": {"amenity": "pharmacy", "name": "Bıdıroğlu Eczanesi", "phone": "+90 258 713 8531"}}, {"type": "node", "id": 11617835473, "lat": 38.2979017, "lon": 29.7384944, "tags": {"amenity": "pharmacy", "name": "Selek Eczanesi", "phone": "+90 258 713 1310"}}, {"type": "node", "id": 11617835070, "lat": 38.3008645, "lon": 29.740396, "tags": {"amenity": "pharmacy", "name": "Kale Eczanesi", "phone": "+90 258 713 5657"}}, {"type": "node", "id": 11617835071, "lat": 38.3001287, "lon": 29.7404726, "tags": {"amenity": "pharmacy", "name": "Kamer Eczanesi", "phone": "+90 258 713 2504"}}, {"type": "node", "id": 11617835471, "lat": 38.3005961, "lon": 29.740577, "tags": {"amenity": "pharmacy", "name": "Akdoğan Eczanesi", "phone": "+90 258 713 3001"}}, {"type": "node", "id": 11617835269, "lat": 38.3069493, "lon": 29.7366027, "tags": {"amenity": "pharmacy", "name": "Güven Eczanesi", "phone": "+90 258 713 6263"}}, {"type": "node", "id": 11617835270, "lat": 38.3077525, "lon": 29.7411875, "tags": {"amenity": "pharmacy", "name": "Çavdaroğlu Eczanesi", "phone": "+90 258 713 1165"}}, {"type": "node", "id": 11617835469, "lat": 38.3080082, "lon": 29.7411961, "tags": {"amenity": "pharmacy", "name": "Aysun Eczanesi", "phone": "+90 258 713 2299"}}, {"type": "node", "id": 11617835369, "lat": 38.3093089, "lon": 29.7416008, "tags": {"amenity": "pharmacy", "name": "Yıldız Eczanesi", "phone": "+90 258 713 9985"}}, {"type": "node", "id": 11524793843, "lat": 38.4119288, "lon": 29.3807597, "tags": {"amenity": "fuel"}}, {"type": "node", "id": 2533821387, "lat": 38.4067254, "lon": 29.4476095, "tags": {"historic": "archaeological_site", "name": "Pepuza", "name:de": "Pepouza", "name:el": "Πέπουζα", "source": "bing", "wikidata": "Q1293474", "wikipedia": "en:Pepuza"}}, {"type": "node", "id": 5835601385, "lat": 38.4069833, "lon": 29.4863715, "tags": {"tourism": "picnic_site"}}, {"type": "node", "id": 5835601386, "lat": 38.4071293, "lon": 29.4859732, "tags": {"tourism": "camp_site"}}, {"type": "node", "id": 11817926505, "lat": 38.4055363, "lon": 29.4891934, "tags": {"amenity": "restaurant"}}, {"type": "node", "id": 6977531686, "lat": 38.4078001, "lon": 29.4848825, "tags": {"name": "Clandıras Tarihi Köprüsü", "tourism": "artwork"}}, {"type": "node", "id": 11817880014, "lat": 38.4080816, "lon": 29.4856648, "tags": {"amenity": "fast_food", "fast_food": "cafeteria"}}, {"type": "node", "id": 12112363083, "lat": 38.5414037, "lon": 29.5271132, "tags": {"access": "yes", "description": "Hacım Sultan'ın kermaeti ile asasını yere vurunca buradan su çıkmış ve burası kuyuya dönüştürülmüş. Şu an su yok ama tabelası ve kuyu mevcut", "drinking_water": "no", "man_made": "water_well", "operator": "Kara Kuyu", "pump": "no", "ref": "Kara Kuyu"}}, {"type": "node", "id": 12112366493, "lat": 38.5437385, "lon": 29.5296358, "tags": {"description": "Hacım Sultan Boğasının Ayak İzleri", "historic": "memorial", "inscription": "Hacım Sultan Boğasının Ayak İzleri", "material": "stone", "memorial": "stone", "name": "Hacım Sultan Boğasının Ayak İzleri"}}, {"type": "node", "id": 12112372097, "lat": 38.540521, "lon": 29.5275242, "tags": {"addr:city": "Uşak", "addr:district": "Sivaslı", "addr:neighbourhood": "Hacım Köyü", "addr:street": "Hacım Caddesi", "description": "Her zaman açık değil ancak köy bakkalı. Acil muhtelif ihtiyaçlar için var.", "name": "Hacım Köy Bakkal", "opening_hours": "Mo-Sa 09:00-18:00", "operator": "Hacım Köy Bakkal", "shop": "convenience"}}, {"type": "node", "id": 11524813432, "lat": 38.4604393, "lon": 29.5891907, "tags": {"amenity": "fuel"}}, {"type": "node", "id": 11612931369, "lat": 38.414793, "lon": 29.7011166, "tags": {"amenity": "pharmacy", "healthcare": "pharmacy", "name": "Seyhanpınar Eczanesi", "phone": "+90 258 742 6018"}}, {"type": "node", "id": 11612931669, "lat": 38.415242, "lon": 29.7012253, "tags": {"amenity": "pharmacy", "healthcare": "pharmacy", "name": "Yonca Eczanesi", "phone": "+90 258 742 6888"}}, {"type": "node", "id": 9365867327, "lat": 38.428396, "lon": 29.7031475, "tags": {"amenity": "fuel"}}, {"type": "node", "id": 9365867290, "lat": 38.4619072, "lon": 29.6938755, "tags": {"amenity": "fuel"}}, {"type": "node", "id": 2202935761, "lat": 38.490543, "lon": 29.6826695, "tags": {"amenity": "fuel", "source": "bing"}}, {"type": "node", "id": 9365107246, "lat": 38.4902992, "lon": 29.6835114, "tags": {"amenity": "fuel"}}, {"type": "node", "id": 11612931769, "lat": 38.4982093, "lon": 29.6791363, "tags": {"amenity": "pharmacy", "healthcare": "pharmacy", "name": "Şükran Eczanesi", "phone": "+90 276 618 1177"}}, {"type": "node", "id": 2201786539, "lat": 38.5193853, "lon": 29.6687524, "tags": {"amenity": "fuel", "source": "bing"}}, {"type": "node", "id": 9365107239, "lat": 38.5021893, "lon": 29.6772878, "tags": {"amenity": "fuel"}}, {"type": "node", "id": 11612931869, "lat": 38.4994193, "lon": 29.6791597, "tags": {"amenity": "pharmacy", "healthcare": "pharmacy", "name": "Keskin Eczanesi", "phone": "+90 276 618 2214"}}, {"type": "node", "id": 11612931969, "lat": 38.500087, "lon": 29.6790271, "tags": {"amenity": "pharmacy", "healthcare": "pharmacy", "name": "Azatçam Eczanesi", "phone": "+90 276 618 1313"}}, {"type": "node", "id": 12299701407, "lat": 38.5010671, "lon": 29.6798833, "tags": {"brand": "Türkiye Tarım Kredi Kooperatif Market", "brand:tr": "Türkiye Tarım Kredi Kooperatif Market", "brand:wikidata": "Q127328776", "name": "Türkiye Tarım Kredi Kooperatif Market", "operator": "Tarıım Kredi", "shop": "supermarket"}}, {"type": "node", "id": 11612931670, "lat": 38.5025438, "lon": 29.6848289, "tags": {"amenity": "pharmacy", "name": "Sivaslı Eczanesi", "phone": "+90 276 618 1062"}}, {"type": "node", "id": 11612931870, "lat": 38.5025654, "lon": 29.6845539, "tags": {"amenity": "pharmacy", "name": "Türkmen Eczanesi", "phone": "+90 276 618 3433"}}, {"type": "node", "id": 11505912609, "lat": 38.5083773, "lon": 29.6753507, "tags": {"amenity": "fuel", "brand": "Petrol Ofisi", "brand:wikidata": "Q1278087", "fuel:HGV_diesel": "yes", "fuel:diesel": "yes", "fuel:lpg": "yes", "fuel:octane_95": "yes", "fuel:octane_98": "yes", "name": "Petrol Ofisi", "self_service": "no"}}, {"type": "node", "id": 9365107260, "lat": 38.5061482, "lon": 29.6918384, "tags": {"amenity": "fuel"}}, {"type": "node", "id": 11617835069, "lat": 38.2923425, "lon": 29.7981453, "tags": {"amenity": "pharmacy", "name": "Emirhisar Eczanesi", "phone": "+90 258 711 8585"}}, {"type": "node", "id": 6738563268, "lat": 38.3093104, "lon": 29.8775953, "tags": {"amenity": "parking"}}, {"type": "node", "id": 2201684821, "lat": 38.5676806, "lon": 29.9694227, "tags": {"amenity": "fuel", "name": "Milangaz", "source": "bing"}}, {"type": "node", "id": 2201685636, "lat": 38.5824535, "lon": 29.9578845, "tags": {"amenity": "fuel", "brand": "termo", "brand:wikidata": "Q113565581", "name": "Termo", "source": "bing"}}, {"type": "node", "id": 11612931675, "lat": 38.5786487, "lon": 29.9675206, "tags": {"amenity": "pharmacy", "name": "Arslan Eczanesi", "phone": "+90 272 551 2077"}}, {"type": "node", "id": 11612931770, "lat": 38.5782603, "lon": 29.967812, "tags": {"amenity": "pharmacy", "name": "Tunç Eczanesi", "phone": "+90 272 551 2524"}}, {"type": "node", "id": 9295723106, "lat": 38.6133941, "lon": 29.3778247, "tags": {"amenity": "fuel", "compressed_air": "yes"}}, {"type": "node", "id": 13629940301, "lat": 38.6214235, "lon": 29.3724903, "tags": {"addr:housenumber": "1", "addr:postcode": "64200", "addr:street": "1093 sokak", "amenity": "fast_food", "name": "Uludağ Tost Salonu", "outdoor_seating": "yes"}}, {"type": "node", "id": 11357594869, "lat": 38.6212431, "lon": 29.374089, "tags": {"amenity": "pharmacy", "healthcare": "pharmacy", "name": "Bölme Eczanesi", "phone": "+90 276 254 3230"}}, {"type": "node", "id": 4715051783, "lat": 38.6286552, "lon": 29.3795616, "tags": {"amenity": "fuel", "brand": "Opet", "brand:wikidata": "Q7072824", "name": "Opet"}}, {"type": "node", "id": 4715051788, "lat": 38.6289767, "lon": 29.3847226, "tags": {"amenity": "fuel", "brand": "Lukoil", "brand:wikidata": "Q329347", "compressed_air": "yes", "name": "Lukoil Gökçe Petrol 4", "opening_hours": "PH,Mo-Su 00:00-24:00"}}, {"type": "node", "id": 5687391245, "lat": 38.6240407, "lon": 29.3812884, "tags": {"amenity": "fuel"}}, {"type": "node", "id": 12374461860, "lat": 38.6318879, "lon": 29.3727541, "tags": {"brand": "Şok", "brand:wikidata": "Q19613992", "name": "Şok", "shop": "supermarket"}}, {"type": "node", "id": 4715035202, "lat": 38.6354828, "lon": 29.3908855, "tags": {"amenity": "fuel", "brand": "termo", "brand:wikidata": "Q113565581", "name": "termo"}}, {"type": "node", "id": 4715035203, "lat": 38.6352649, "lon": 29.3899038, "tags": {"amenity": "fuel", "brand": "Shell", "brand:wikidata": "Q110716465", "compressed_air": "yes", "name": "Shell", "opening_hours": "PH,Mo-Su 00:00-24:00"}}, {"type": "node", "id": 11992897614, "lat": 38.6391922, "lon": 29.3923643, "tags": {"brand": "Türkiye Tarım Kredi Kooperatif Market", "brand:tr": "Türkiye Tarım Kredi Kooperatif Market", "brand:wikidata": "Q127328776", "name": "Türkiye Tarım Kredi Kooperatif Market", "shop": "supermarket"}}, {"type": "node", "id": 12345087546, "lat": 38.6426803, "lon": 29.3886181, "tags": {"brand": "File Market", "brand:wikidata": "Q112228237", "name": "File Market", "operator": "FİLE", "shop": "supermarket"}}, {"type": "node", "id": 12349364543, "lat": 38.6423496, "lon": 29.3891456, "tags": {"brand": "A101", "brand:wikidata": "Q6034496", "name": "A101", "opening_hours": "Mo-Su 09:00-21:30", "shop": "supermarket"}}, {"type": "node", "id": 12349364544, "lat": 38.6387807, "lon": 29.3882521, "tags": {"brand": "BİM", "brand:wikidata": "Q1022075", "name": "BİM", "opening_hours": "Mo-Su 09:00-21:00", "shop": "supermarket"}}, {"type": "node", "id": 12349364560, "lat": 38.6378104, "lon": 29.3912003, "tags": {"brand": "Şok", "brand:wikidata": "Q19613992", "name": "Şok", "shop": "supermarket"}}, {"type": "node", "id": 12349364567, "lat": 38.6382865, "lon": 29.3925096, "tags": {"brand": "A101", "brand:wikidata": "Q6034496", "name": "A101", "opening_hours": "Mo-Su 09:00-21:30", "shop": "supermarket"}}, {"type": "node", "id": 12349502390, "lat": 38.6394305, "lon": 29.3894666, "tags": {"name": "Egeşok Memur-Sen", "shop": "convenience"}}, {"type": "node", "id": 12361955906, "lat": 38.6422306, "lon": 29.3909352, "tags": {"name": "Özen Ekmek Fırını", "shop": "bakery"}}, {"type": "node", "id": 13037139796, "lat": 38.6316893, "lon": 29.400984, "tags": {"shop": "convenience"}}, {"type": "node", "id": 11357594969, "lat": 38.6393261, "lon": 29.4019838, "tags": {"amenity": "pharmacy", "healthcare": "pharmacy", "name": "Yağız Eczanesi", "phone": "+90 276 216 7575"}}, {"type": "node", "id": 12361980370, "lat": 38.6415788, "lon": 29.4013228, "tags": {"brand": "Şok", "brand:wikidata": "Q19613992", "name": "Şok", "shop": "supermarket"}}, {"type": "node", "id": 12361980371, "lat": 38.641639, "lon": 29.4018975, "tags": {"brand": "BİM", "brand:wikidata": "Q1022075", "name": "BİM", "opening_hours": "Mo-Su 09:00-21:00", "shop": "supermarket"}}, {"type": "node", "id": 12361980372, "lat": 38.6417257, "lon": 29.4025913, "tags": {"amenity": "atm", "brand": "Ziraat Bankası", "brand:wikidata": "Q696003", "operator": "Ziraat Bankası", "operator:wikidata": "Q696003"}}, {"type": "node", "id": 12361980373, "lat": 38.641707, "lon": 29.402407, "tags": {"brand": "A101", "brand:wikidata": "Q6034496", "name": "A101", "opening_hours": "Mo-Su 09:00-21:30", "shop": "supermarket"}}, {"type": "node", "id": 11992889335, "lat": 38.6438056, "lon": 29.3888512, "tags": {"brand": "Türkiye Tarım Kredi Kooperatif Market", "brand:tr": "Türkiye Tarım Kredi Kooperatif Market", "brand:wikidata": "Q127328776", "name": "Türkiye Tarım Kredi Kooperatif Market", "shop": "supermarket"}}, {"type": "node", "id": 12349072681, "lat": 38.6468777, "lon": 29.3911395, "tags": {"brand": "BİM", "brand:wikidata": "Q1022075", "name": "BİM", "opening_hours": "Mo-Su 09:00-21:00", "shop": "supermarket"}}, {"type": "node", "id": 12619159399, "lat": 38.645042, "lon": 29.3913825, "tags": {"name": "Egeşok Akşemsettin", "shop": "convenience"}}, {"type": "node", "id": 13646171501, "lat": 38.6442931, "lon": 29.3907662, "tags": {"addr:housenumber": "20", "addr:postcode": "64100", "addr:street": "1. Fatih Sokak", "name": "Batı Gold", "opening_hours": "Mo-Su 06:00-21:00", "phone": "0532 703 93 17", "shop": "bakery"}}, {"type": "node", "id": 11985780930, "lat": 38.6487523, "lon": 29.3933683, "tags": {"brand": "Carrefour Market", "brand:wikidata": "Q2689639", "name": "Carrefour Market", "shop": "supermarket"}}, {"type": "node", "id": 12361955905, "lat": 38.6434794, "lon": 29.3961398, "tags": {"amenity": "restaurant", "cuisine": "turkish", "name": "Güneş Pide"}}, {"type": "node", "id": 12372513720, "lat": 38.6442082, "lon": 29.3953456, "tags": {"name": "Sayar Avm", "shop": "supermarket"}}, {"type": "node", "id": 12654855842, "lat": 38.6449234, "lon": 29.3946254, "tags": {"name": "Fırın Diyarı", "shop": "bakery"}}, {"type": "node", "id": 13037219937, "lat": 38.6564076, "lon": 29.3903932, "tags": {"brand": "Migros", "brand:wikidata": "Q1754510", "mapillary": "1833151744192346", "name": "Migros", "shop": "supermarket"}}, {"type": "node", "id": 11357595070, "lat": 38.6552898, "lon": 29.3953983, "tags": {"amenity": "pharmacy", "healthcare": "pharmacy", "name": "Sağlık Eczanesi", "phone": "+90 276 216 1693"}}, {"type": "node", "id": 11357595169, "lat": 38.6545571, "lon": 29.3950678, "tags": {"amenity": "pharmacy", "healthcare": "pharmacy", "name": "Ahsen Eczanesi", "phone": "+90 276 216 8090"}}, {"type": "node", "id": 11357595170, "lat": 38.6548177, "lon": 29.3957122, "tags": {"amenity": "pharmacy", "healthcare": "pharmacy", "name": "Didem Eczanesi", "phone": "+90 276 216 6200"}}, {"type": "node", "id": 13714579446, "lat": 38.6550084, "lon": 29.3957591, "tags": {"amenity": "pharmacy", "healthcare": "pharmacy", "name": "Işıl Eczanesi"}}, {"type": "node", "id": 11992889334, "lat": 38.6435555, "lon": 29.402863, "tags": {"brand": "Türkiye Tarım Kredi Kooperatif Market", "brand:tr": "Türkiye Tarım Kredi Kooperatif Market", "brand:wikidata": "Q127328776", "name": "Türkiye Tarım Kredi Kooperatif Market", "shop": "supermarket"}}, {"type": "node", "id": 12599453023, "lat": 38.6482207, "lon": 29.4003531, "tags": {"amenity": "fuel", "brand": "Petrol Ofisi", "brand:wikidata": "Q1278087", "name": "Petrol Ofisi"}}, {"type": "node", "id": 11233043228, "lat": 38.6554325, "lon": 29.405372, "tags": {"brand": "BİM", "brand:wikidata": "Q1022075", "name": "BİM", "opening_hours": "Mo-Su 09:00-21:00", "shop": "supermarket"}}, {"type": "node", "id": 11357595069, "lat": 38.6520555, "lon": 29.401737, "tags": {"amenity": "pharmacy", "healthcare": "pharmacy", "name": "Sevinç Eczanesi", "phone": "+90 276 216 1443"}}, {"type": "node", "id": 11992889323, "lat": 38.6524436, "lon": 29.4009108, "tags": {"brand": "Türkiye Tarım Kredi Kooperatif Market", "brand:tr": "Türkiye Tarım Kredi Kooperatif Market", "brand:wikidata": "Q127328776", "name": "Türkiye Tarım Kredi Kooperatif Market", "shop": "supermarket"}}, {"type": "node", "id": 13650657119, "lat": 38.6512914, "lon": 29.4043746, "tags": {"brand": "Şok", "brand:wikidata": "Q19613992", "name": "Şok", "shop": "supermarket"}}, {"type": "node", "id": 13686477363, "lat": 38.6528684, "lon": 29.4004124, "tags": {"amenity": "fast_food", "cuisine": "sandwich", "name": "Tost Station"}}, {"type": "node", "id": 13686477364, "lat": 38.652549, "lon": 29.400312, "tags": {"brand": "BİM", "brand:wikidata": "Q1022075", "name": "BİM", "shop": "supermarket"}}, {"type": "node", "id": 12348865007, "lat": 38.6551428, "lon": 29.4106553, "tags": {"brand": "A101", "brand:wikidata": "Q6034496", "name": "A101", "opening_hours": "Mo-Su 09:00-21:30", "shop": "supermarket"}}, {"type": "node", "id": 13699295135, "lat": 38.6563448, "lon": 29.4076908, "tags": {"name": "Fırın evim", "shop": "bakery"}}, {"type": "node", "id": 11992889324, "lat": 38.6489049, "lon": 29.4126667, "tags": {"brand": "Türkiye Tarım Kredi Kooperatif Market", "brand:tr": "Türkiye Tarım Kredi Kooperatif Market", "brand:wikidata": "Q127328776", "name": "Türkiye Tarım Kredi Kooperatif Market", "shop": "supermarket"}}, {"type": "node", "id": 12363001120, "lat": 38.6498412, "lon": 29.4136158, "tags": {"name": "Egeşok Yavuz Sultan Selim", "shop": "convenience"}}, {"type": "node", "id": 13686161046, "lat": 38.6487031, "lon": 29.4134002, "tags": {"amenity": "cafe", "name": "Minika Çocuk Eğlence Merkezi"}}, {"type": "node", "id": 12348865027, "lat": 38.6542388, "lon": 29.4182435, "tags": {"brand": "BİM", "brand:wikidata": "Q1022075", "name": "BİM", "opening_hours": "Mo-Su 09:00-21:00", "shop": "supermarket"}}, {"type": "node", "id": 12363001116, "lat": 38.6511115, "lon": 29.4159105, "tags": {"amenity": "restaurant", "cuisine": "turkish", "name": "Kıyak Pide"}}, {"type": "node", "id": 12363001117, "lat": 38.650759, "lon": 29.4147094, "tags": {"brand": "A101", "brand:wikidata": "Q6034496", "name": "A101", "opening_hours": "Mo-Su 09:00-21:30", "shop": "supermarket"}}, {"type": "node", "id": 12363001119, "lat": 38.6500794, "lon": 29.4149817, "tags": {"name": "Fırın Kent", "shop": "bakery"}}, {"type": "node", "id": 12564010232, "lat": 38.6543233, "lon": 29.4150888, "tags": {"brand": "BİM", "brand:wikidata": "Q1022075", "name": "BİM", "opening_hours": "Mo-Su 09:00-21:00", "shop": "supermarket"}}, {"type": "node", "id": 13621204505, "lat": 38.6504187, "lon": 29.4142028, "tags": {"name": "Fırın Express Zepliler", "shop": "bakery"}}, {"type": "node", "id": 9911011095, "lat": 38.6423106, "lon": 29.4512472, "tags": {"amenity": "fuel", "brand": "Shell", "brand:wikidata": "Q110716465", "fuel:diesel": "yes", "fuel:lpg": "yes", "fuel:octane_95": "yes", "fuel:octane_98": "yes", "name": "Shell", "operator": "Tekin Dağlıgil Petrol", "self_service": "no"}}, {"type": "node", "id": 4715057135, "lat": 38.6366833, "lon": 29.4567941, "tags": {"amenity": "fuel"}}, {"type": "node", "id": 9911011096, "lat": 38.6391202, "lon": 29.454671, "tags": {"amenity": "fuel", "brand": "Lukoil", "brand:wikidata": "Q329347", "fuel:diesel": "yes", "fuel:lpg": "yes", "fuel:octane_95": "yes", "fuel:octane_98": "yes", "name": "Lukoil", "operator": "Çamcıoğlu Petrol", "self_service": "no"}}, {"type": "node", "id": 11999989574, "lat": 38.6522313, "lon": 29.441512, "tags": {"name": "Özgün Simit", "shop": "bakery"}}, {"type": "node", "id": 12838398993, "lat": 38.6603491, "lon": 29.3728549, "tags": {"name": "Egeşok Toki Evleri", "shop": "convenience"}}, {"type": "node", "id": 13525209361, "lat": 38.6603447, "lon": 29.373226, "tags": {"name": "Çavdar Unlu Mamülleri", "shop": "bakery"}}, {"type": "node", "id": 4856517005, "lat": 38.6679638, "lon": 29.3723991, "tags": {"name": "Özgür Market", "shop": "convenience"}}, {"type": "node", "id": 13525209354, "lat": 38.6604437, "lon": 29.3733335, "tags": {"amenity": "pharmacy", "healthcare": "pharmacy", "name": "Filiz Eczanesi"}}, {"type": "node", "id": 13525209359, "lat": 38.6607828, "lon": 29.3737628, "tags": {"amenity": "atm", "brand": "Ziraat Bankası", "brand:wikidata": "Q696003", "operator": "Ziraat Bankası", "operator:wikidata": "Q696003"}}, {"type": "node", "id": 13525209360, "lat": 38.6608886, "lon": 29.3734452, "tags": {"amenity": "cafe", "name": "All in 1 Cafe"}}, {"type": "node", "id": 12651015589, "lat": 38.6657827, "lon": 29.374247, "tags": {"brand": "BİM", "brand:wikidata": "Q1022075", "name": "BİM", "opening_hours": "Mo-Su 09:00-21:00", "shop": "supermarket"}}, {"type": "node", "id": 12838398994, "lat": 38.66492, "lon": 29.3793726, "tags": {"name": "Fırın O'bella", "shop": "bakery"}}, {"type": "node", "id": 12838398995, "lat": 38.6649536, "lon": 29.3788925, "tags": {"brand": "BİM", "brand:wikidata": "Q1022075", "name": "BİM", "shop": "supermarket"}}, {"type": "node", "id": 13037163467, "lat": 38.6641903, "lon": 29.376161, "tags": {"addr:city": "Uşak", "addr:district": "Merkez", "addr:housenumber": "156", "addr:neighbourhood": "Kemalöz Mahallesi", "addr:street": "Pırlanta Sokak", "brand": "A101", "brand:wikidata": "Q6034496", "name": "A101", "shop": "supermarket"}}, {"type": "node", "id": 13702357953, "lat": 38.6682994, "lon": 29.3748893, "tags": {"amenity": "restaurant", "cuisine": "turkish", "name": "Yumak Restaurant"}}, {"type": "node", "id": 4856407793, "lat": 38.6692088, "lon": 29.3855037, "tags": {"amenity": "pharmacy", "healthcare": "pharmacy", "name": "Hilal Eczanesi"}}, {"type": "node", "id": 4856408140, "lat": 38.6693833, "lon": 29.385682, "tags": {"amenity": "fast_food", "name": "Hacıalioğlu Çiğ Köfte"}}, {"type": "node", "id": 4856412514, "lat": 38.6688666, "lon": 29.3856891, "tags": {"amenity": "pharmacy", "healthcare": "pharmacy", "name": "Altınpınar Eczanesi"}}, {"type": "node", "id": 4856417113, "lat": 38.6671948, "lon": 29.3821711, "tags": {"amenity": "cafe", "name": "Bonibon Çocuk Eğlenme Mekanı"}}, {"type": "node", "id": 4856420373, "lat": 38.6665868, "lon": 29.3811377, "tags": {"name": "Nazar Gıda", "shop": "convenience"}}, {"type": "node", "id": 11999995355, "lat": 38.6635698, "lon": 29.3859778, "tags": {"name": "Egeşok", "shop": "convenience"}}, {"type": "node", "id": 12349859204, "lat": 38.6638737, "lon": 29.3856828, "tags": {"brand": "Şok", "brand:wikidata": "Q19613992", "name": "Şok", "shop": "supermarket"}}, {"type": "node", "id": 12372576774, "lat": 38.66904, "lon": 29.3855795, "tags": {"amenity": "pharmacy", "healthcare": "pharmacy", "name": "Lokman Ezcanesi"}}, {"type": "node", "id": 12372576775, "lat": 38.6694958, "lon": 29.3858386, "tags": {"brand": "A101", "brand:wikidata": "Q6034496", "name": "A101", "opening_hours": "Mo-Su 09:00-21:30", "shop": "supermarket"}}, {"type": "node", "id": 12593123954, "lat": 38.6683726, "lon": 29.3815278, "tags": {"brand": "Şok", "brand:wikidata": "Q19613992", "name": "Şok", "shop": "supermarket"}}, {"type": "node", "id": 12651120789, "lat": 38.6674934, "lon": 29.3827633, "tags": {"name": "Sayar Avm", "shop": "supermarket"}}, {"type": "node", "id": 12838398996, "lat": 38.6660593, "lon": 29.3809202, "tags": {"amenity": "restaurant", "cuisine": "turkish", "name": "Kanatçızade"}}, {"type": "node", "id": 13686477360, "lat": 38.6677925, "lon": 29.3833548, "tags": {"amenity": "restaurant", "cuisine": "turkish", "name": "Çıtır Pide"}}, {"type": "node", "id": 5687363323, "lat": 38.6739416, "lon": 29.3610521, "tags": {"amenity": "fuel", "brand": "SOCAR", "brand:wikidata": "Q1622293", "name": "SOCAR"}}, {"type": "node", "id": 4699019949, "lat": 38.676055, "lon": 29.370841, "tags": {"addr:city": "Uşak", "addr:country": "TR", "addr:district": "Merkez", "addr:housenumber": "158", "addr:neighbourhood": "Dikilitaş Mahallesi", "addr:postcode": "64200", "addr:street": "İzmir Asfaltı 2. Km.", "amenity": "fuel", "brand": "Opet", "brand:wikidata": "Q7072824", "brand:wikipedia": "tr:Opet", "contact:phone": "+90 2762152473", "fuel:diesel": "yes", "fuel:euro_diesel": "yes", "fuel:lpg": "yes", "name": "Opet", "operator": "Opet Petrolcülük A.Ş.", "source": "Yellow Pages Türkiye", "website": "https://www.opet.com.tr/"}}, {"type": "node", "id": 12347192386, "lat": 38.6754114, "lon": 29.3686813, "tags": {"name": "Eda Gıda Asgross", "shop": "supermarket"}}, {"type": "node", "id": 12372509868, "lat": 38.6719331, "lon": 29.3731685, "tags": {"name": "Sayar Avm", "shop": "supermarket"}}, {"type": "node", "id": 11998648891, "lat": 38.6741882, "lon": 29.3742659, "tags": {"brand": "BİM", "brand:wikidata": "Q1022075", "name": "BİM", "opening_hours": "Mo-Su 09:00-21:00", "shop": "supermarket"}}, {"type": "node", "id": 4856509169, "lat": 38.6773903, "lon": 29.3853348, "tags": {"amenity": "restaurant", "cuisine": "turkish", "name": "Özata Pide"}}, {"type": "node", "id": 4856534964, "lat": 38.6782252, "lon": 29.3833655, "tags": {"amenity": "pharmacy", "healthcare": "pharmacy", "name": "Su Eczanesi"}}, {"type": "node", "id": 4856536203, "lat": 38.67797, "lon": 29.3835103, "tags": {"name": "Bereket Market", "shop": "convenience"}}, {"type": "node", "id": 4856536526, "lat": 38.6783583, "lon": 29.3829981, "tags": {"amenity": "pharmacy", "healthcare": "pharmacy", "name": "Ihlamur Eczanesi"}}, {"type": "node", "id": 4856536527, "lat": 38.6774815, "lon": 29.3842715, "tags": {"amenity": "fast_food", "cuisine": "kebab", "name": "Sabri Ustanın Yeri"}}, {"type": "node", "id": 4856536981, "lat": 38.6780867, "lon": 29.3832021, "tags": {"amenity": "pharmacy", "healthcare": "pharmacy", "name": "Zafer Eczanesi"}}, {"type": "node", "id": 4856536991, "lat": 38.6783648, "lon": 29.3831149, "tags": {"amenity": "pharmacy", "healthcare": "pharmacy", "name": "Akşahin Eczanesi"}}, {"type": "node", "id": 4856537016, "lat": 38.6775179, "lon": 29.3839959, "tags": {"name": "Aypaş", "shop": "convenience"}}, {"type": "node", "id": 4856540490, "lat": 38.677531, "lon": 29.3850646, "tags": {"amenity": "fast_food", "cuisine": "kebab", "name": "Yiğit Döner"}}, {"type": "node", "id": 4856541986, "lat": 38.6775135, "lon": 29.384961, "tags": {"name": "Durak Market", "shop": "convenience"}}, {"type": "node", "id": 4856543196, "lat": 38.6775742, "lon": 29.3853597, "tags": {"amenity": "restaurant", "cuisine": "turkish", "name": "Kırca Pide Salonu"}}, {"type": "node", "id": 4856544672, "lat": 38.6774503, "lon": 29.3856652, "tags": {"amenity": "restaurant", "cuisine": "turkish", "name": "Reyhan Pide"}}, {"type": "node", "id": 12300104897, "lat": 38.6780858, "lon": 29.3805288, "tags": {"name": "Gülistan Market", "shop": "supermarket"}}, {"type": "node", "id": 12838455914, "lat": 38.6776952, "lon": 29.3862124, "tags": {"amenity": "pharmacy", "healthcare": "pharmacy", "name": "Aktay Eczanesi"}}, {"type": "node", "id": 12838455915, "lat": 38.6777151, "lon": 29.3863114, "tags": {"name": "Simitcim", "shop": "bakery"}}, {"type": "node", "id": 13525209353, "lat": 38.6782666, "lon": 29.3820879, "tags": {"amenity": "pharmacy", "healthcare": "pharmacy", "name": "Nur Eczanesi"}}, {"type": "node", "id": 12564010588, "lat": 38.6612665, "lon": 29.3924348, "tags": {"brand": "BİM", "brand:wikidata": "Q1022075", "name": "BİM", "opening_hours": "Mo-Su 09:00-21:00", "shop": "supermarket"}}, {"type": "node", "id": 12654247956, "lat": 38.6628241, "lon": 29.3865847, "tags": {"brand": "BİM", "brand:wikidata": "Q1022075", "name": "BİM", "opening_hours": "Mo-Su 09:00-21:00", "shop": "supermarket"}}, {"type": "node", "id": 13037163468, "lat": 38.6594324, "lon": 29.3904933, "tags": {"brand": "A101", "brand:wikidata": "Q6034496", "name": "A101", "shop": "supermarket"}}, {"type": "node", "id": 11357595171, "lat": 38.6579312, "lon": 29.396262, "tags": {"amenity": "pharmacy", "healthcare": "pharmacy", "name": "Tan Eczanesi", "phone": "+90 276 216 7777"}}, {"type": "node", "id": 12039857519, "lat": 38.6591779, "lon": 29.3962666, "tags": {"brand": "A101", "brand:wikidata": "Q6034496", "name": "A101", "opening_hours": "Mo-Su 09:00-21:30", "shop": "supermarket"}}, {"type": "node", "id": 12362877879, "lat": 38.6588753, "lon": 29.3991281, "tags": {"name": "Egeşok", "shop": "convenience"}}, {"type": "node", "id": 13382195792, "lat": 38.6593096, "lon": 29.3952883, "tags": {"brand": "Şok", "brand:wikidata": "Q19613992", "name": "Şok", "shop": "supermarket"}}, {"type": "node", "id": 13382195794, "lat": 38.6588219, "lon": 29.3948822, "tags": {"amenity": "cafe", "name": "Arkadaş Cafe"}}, {"type": "node", "id": 11999960874, "lat": 38.6648167, "lon": 29.3899465, "tags": {"amenity": "cafe", "name": "By Demlik"}}, {"type": "node", "id": 12015181362, "lat": 38.6670692, "lon": 29.3925272, "tags": {"brand": "A101", "brand:wikidata": "Q6034496", "name": "A101", "opening_hours": "Mo-Su 09:00-21:30", "shop": "supermarket"}}, {"type": "node", "id": 12556758467, "lat": 38.6653809, "lon": 29.3883124, "tags": {"brand": "File Market", "brand:wikidata": "Q112228237", "name": "File Market", "shop": "supermarket"}}, {"type": "node", "id": 12563987464, "lat": 38.6661308, "lon": 29.3906866, "tags": {"amenity": "cafe", "name": "Alesta Cafe Kahvaltı Salonu"}}, {"type": "node", "id": 12563987465, "lat": 38.6658177, "lon": 29.389366, "tags": {"name": "Egeşok Ertuğrulgazi", "shop": "convenience"}}, {"type": "node", "id": 13071643703, "lat": 38.6687233, "lon": 29.3874279, "tags": {"name": "Egeşok Tunaboylu", "shop": "convenience"}}, {"type": "node", "id": 13551202601, "lat": 38.6661464, "lon": 29.3918006, "tags": {"amenity": "shelter"}}, {"type": "node", "id": 4856164114, "lat": 38.668174, "lon": 29.3971797, "tags": {"amenity": "cafe", "brand": "Özsüt", "brand:wikidata": "Q20472928", "cuisine": "coffee_shop", "name": "Özsüt", "takeaway": "yes"}}, {"type": "node", "id": 4856166326, "lat": 38.6680828, "lon": 29.3969882, "tags": {"brand": "Şok", "brand:wikidata": "Q19613992", "name": "Şok", "operator": "ŞOK", "shop": "supermarket"}}, {"type": "node", "id": 4856169533, "lat": 38.6678458, "lon": 29.3967874, "tags": {"amenity": "cafe", "name": "Limon"}}, {"type": "node", "id": 4856169534, "lat": 38.6676668, "lon": 29.3970112, "tags": {"amenity": "cafe", "cuisine": "pizza", "name": "Park 64 Oyun Salonu & Cafe"}}, {"type": "node", "id": 4856278448, "lat": 38.6676655, "lon": 29.394696, "tags": {"name": "Fırın Diyarı Ekmek ve Unlu Mamulleri", "shop": "bakery"}}, {"type": "node", "id": 4856300118, "lat": 38.6689308, "lon": 29.3938456, "tags": {"addr:city": "Uşak", "addr:district": "Merkez", "addr:housenumber": "96/A", "addr:neighbourhood": "Kemalöz Mah.", "addr:street": "Mehmet Topaç Bulvarı", "amenity": "restaurant", "cuisine": "turkish", "name": "İrem Pide ve Unlu Mamülleri", "opening_hours": "07:00-23:00", "operator": "İrem Pide ve Unlu Mamülleri"}}, {"type": "node", "id": 5174711922, "lat": 38.6665392, "lon": 29.3983364, "tags": {"amenity": "cafe", "cuisine": "coffee_shop", "internet_access": "wlan", "name": "Treehouse Co", "opening_hours": "Mo-Su 09:00-01:00"}}, {"type": "node", "id": 11357595071, "lat": 38.6636447, "lon": 29.39704, "tags": {"amenity": "pharmacy", "healthcare": "pharmacy", "name": "Akkaya Eczanesi", "phone": "+90 276 216 3836"}}, {"type": "node", "id": 11357595072, "lat": 38.6674346, "lon": 29.3949483, "tags": {"amenity": "pharmacy", "healthcare": "pharmacy", "name": "Acar Eczanesi", "phone": "+90 276 216 8848"}}, {"type": "node", "id": 11357595172, "lat": 38.6633259, "lon": 29.3969887, "tags": {"amenity": "pharmacy", "healthcare": "pharmacy", "name": "Hazal Eczanesi", "phone": "+90 276 216 6363"}}, {"type": "node", "id": 11978711717, "lat": 38.6668379, "lon": 29.3984618, "tags": {"amenity": "cafe", "name": "guru"}}, {"type": "node", "id": 11978715858, "lat": 38.6669486, "lon": 29.398242, "tags": {"amenity": "cafe", "name": "Onyx"}}, {"type": "node", "id": 11987416583, "lat": 38.6661392, "lon": 29.3981131, "tags": {"amenity": "cafe", "name": "Peron"}}, {"type": "node", "id": 11992938995, "lat": 38.664579, "lon": 29.397956, "tags": {"brand": "BİM", "brand:wikidata": "Q1022075", "name": "BİM", "opening_hours": "Mo-Su 09:00-21:00", "shop": "supermarket"}}, {"type": "node", "id": 12012722570, "lat": 38.6666615, "lon": 29.3992534, "tags": {"amenity": "cafe", "cuisine": "coffee_shop", "name": "Soulmate Coffee"}}, {"type": "node", "id": 12349703891, "lat": 38.6666586, "lon": 29.3994351, "tags": {"amenity": "cafe", "name": "Chocolabs Chocolate & Coffee"}}, {"type": "node", "id": 12372957787, "lat": 38.6666552, "lon": 29.3959074, "tags": {"name": "Egeşok Karakıran", "shop": "convenience"}}, {"type": "node", "id": 12372957789, "lat": 38.6667254, "lon": 29.3959015, "tags": {"amenity": "atm", "brand": "Ziraat Bankası", "brand:wikidata": "Q696003", "operator": "Ziraat Bankası", "operator:wikidata": "Q696003"}}, {"type": "node", "id": 12609927955, "lat": 38.6682627, "lon": 29.3971876, "tags": {"amenity": "fast_food", "name": "Ziyafet Çiğköfte"}}, {"type": "node", "id": 12624455731, "lat": 38.6663965, "lon": 29.3982523, "tags": {"amenity": "fast_food", "brand": "Pasaport Pizza", "brand:wikidata": "Q6057390", "cuisine": "pizza", "name": "Pasaport Pizza", "takeaway": "yes"}}, {"type": "node", "id": 12716863832, "lat": 38.6641818, "lon": 29.3971808, "tags": {"name": "Egeşok", "shop": "convenience"}}, {"type": "node", "id": 12716863833, "lat": 38.6640064, "lon": 29.3971554, "tags": {"amenity": "restaurant", "cuisine": "turkish", "name": "Mevsim"}}, {"type": "node", "id": 13056195942, "lat": 38.6685421, "lon": 29.3945654, "tags": {"amenity": "shelter", "bench": "yes", "bin": "yes", "lit": "no", "shelter_type": "public_transport"}}, {"type": "node", "id": 13082674690, "lat": 38.6662812, "lon": 29.3964697, "tags": {"amenity": "fast_food", "cuisine": "burger", "name": "Wow Mom Burger"}}, {"type": "node", "id": 13396583637, "lat": 38.6648784, "lon": 29.3982424, "tags": {"name": "Gözde Ekmek Fırını", "shop": "bakery"}}, {"type": "node", "id": 13416506492, "lat": 38.6675759, "lon": 29.39716, "tags": {"amenity": "fast_food", "cuisine": "kebab", "name": "Soslu Bi Dürüm"}}, {"type": "node", "id": 13680355716, "lat": 38.6684164, "lon": 29.3971521, "tags": {"amenity": "cafe", "name": "Rohan"}}, {"type": "node", "id": 4856218834, "lat": 38.6628014, "lon": 29.405581, "tags": {"name": "Esa Market", "shop": "convenience"}}, {"type": "node", "id": 4856226323, "lat": 38.6613968, "lon": 29.4057299, "tags": {"amenity": "restaurant", "cuisine": "turkish", "name": "Kardelen Pide Salonu"}}, {"type": "node", "id": 4856226365, "lat": 38.6613249, "lon": 29.4057319, "tags": {"name": "Hakan Gıda", "shop": "convenience"}}, {"type": "node", "id": 4856226798, "lat": 38.6613201, "lon": 29.4051939, "tags": {"amenity": "pharmacy", "healthcare": "pharmacy", "name": "Yavuz Eczanesi", "phone": "+90 276 216 7635"}}, {"type": "node", "id": 4856231417, "lat": 38.6609609, "lon": 29.4043529, "tags": {"amenity": "restaurant", "cuisine": "turkish", "name": "Bereket Pide Salonu"}}, {"type": "node", "id": 11987380100, "lat": 38.657499, "lon": 29.4043974, "tags": {"name": "Sayar Avm", "shop": "supermarket"}}, {"type": "node", "id": 12610335342, "lat": 38.6617883, "lon": 29.4053979, "tags": {"brand": "BİM", "brand:wikidata": "Q1022075", "name": "BİM", "opening_hours": "Mo-Su 09:00-21:00", "shop": "supermarket"}}, {"type": "node", "id": 12610335343, "lat": 38.6620497, "lon": 29.4053908, "tags": {"name": "Sayar Avm", "shop": "supermarket"}}, {"type": "node", "id": 13650657120, "lat": 38.6613739, "lon": 29.4036468, "tags": {"brand": "A101", "brand:wikidata": "Q6034496", "name": "A101", "shop": "supermarket"}}, {"type": "node", "id": 13664066157, "lat": 38.6612224, "lon": 29.4041266, "tags": {"brand": "Şok", "brand:wikidata": "Q19613992", "name": "Şok", "shop": "supermarket"}}, {"type": "node", "id": 13664066158, "lat": 38.6606892, "lon": 29.4048212, "tags": {"amenity": "fast_food", "brand": "Komagene", "brand:wikidata": "Q108919263", "cuisine": "kebab", "name": "Komagene", "takeaway": "yes"}}, {"type": "node", "id": 13686477371, "lat": 38.6576329, "lon": 29.4018929, "tags": {"amenity": "fast_food", "cuisine": "sandwich", "name": "Ayvalık Tost Evi"}}, {"type": "node", "id": 4856214611, "lat": 38.6628954, "lon": 29.4061897, "tags": {"name": "Öz Vefa Kız Öğrenci Yurdu", "tourism": "hotel"}}, {"type": "node", "id": 4856216138, "lat": 38.6627903, "lon": 29.4061012, "tags": {"amenity": "fast_food", "cuisine": "kebab", "name": "Pamukörenliler 2 Kokoreç"}}, {"type": "node", "id": 12564043395, "lat": 38.6628136, "lon": 29.4111987, "tags": {"amenity": "pharmacy", "healthcare": "pharmacy", "name": "Özsezer Eczanesi"}}, {"type": "node", "id": 12564044624, "lat": 38.6626624, "lon": 29.4118465, "tags": {"brand": "BİM", "brand:wikidata": "Q1022075", "name": "BİM", "opening_hours": "Mo-Su 09:00-21:00", "shop": "supermarket"}}, {"type": "node", "id": 13525209343, "lat": 38.6567767, "lon": 29.4099182, "tags": {"amenity": "pharmacy", "healthcare": "pharmacy", "name": "Sultan Eczanesi"}}, {"type": "node", "id": 13525209344, "lat": 38.6567262, "lon": 29.409397, "tags": {"amenity": "pharmacy", "healthcare": "pharmacy", "name": "Masal Diyarı Eczanesi"}}, {"type": "node", "id": 13525209345, "lat": 38.6567751, "lon": 29.4092686, "tags": {"amenity": "pharmacy", "healthcare": "pharmacy", "name": "Perdahcı Eczanesi"}}, {"type": "node", "id": 13525209346, "lat": 38.657183, "lon": 29.4097373, "tags": {"amenity": "pharmacy", "healthcare": "pharmacy", "name": "Akdağ Eczanesi"}}, {"type": "node", "id": 4856175166, "lat": 38.6672555, "lon": 29.4007316, "tags": {"amenity": "atm", "brand": "Akbank", "brand:wikidata": "Q416624", "cash_in": "yes", "name": "Akbank", "operator": "Akbank", "operator:wikidata": "Q416624"}}, {"type": "node", "id": 4856176131, "lat": 38.6672283, "lon": 29.4006865, "tags": {"amenity": "atm", "brand": "Halkbank", "brand:wikidata": "Q5642504", "cash_in": "yes", "name": "Halkbank", "operator": "Halkbank", "operator:wikidata": "Q5642504"}}, {"type": "node", "id": 4856176310, "lat": 38.6673187, "lon": 29.4002328, "tags": {"access": "yes", "amenity": "parking", "fee": "no", "layer": "-1", "name": "Karun Kapalı Otopark", "parking": "underground"}}, {"type": "node", "id": 4856177310, "lat": 38.6679069, "lon": 29.401186, "tags": {"amenity": "atm", "brand": "Garanti Bankası", "brand:wikidata": "Q322962", "cash_in": "yes", "name": "Garanti Bankası", "operator": "Garanti Bankası", "operator:wikidata": "Q322962"}}, {"type": "node", "id": 4856178975, "lat": 38.6679457, "lon": 29.4010128, "tags": {"amenity": "atm", "brand": "QNB", "brand:wikidata": "Q1136759", "cash_in": "yes", "name": "QNB Finansbank", "operator": "QNB", "operator:wikidata": "Q1136759"}}, {"type": "node", "id": 4856180297, "lat": 38.6679349, "lon": 29.4010702, "tags": {"amenity": "atm", "brand": "Vakıfbank", "brand:wikidata": "Q1148521", "cash_in": "yes", "name": "Vakıfbank ATM", "operator": "Vakıfbank", "operator:wikidata": "Q1148521"}}, {"type": "node", "id": 4856191427, "lat": 38.6672879, "lon": 29.4007744, "tags": {"amenity": "atm", "brand": "TEB", "brand:wikidata": "Q7862447", "cash_in": "yes", "name": "TEB", "operator": "TEB", "operator:wikidata": "Q7862447"}}, {"type": "node", "id": 4856197144, "lat": 38.6670785, "lon": 29.4035245, "tags": {"amenity": "restaurant", "cuisine": "turkish", "name": "Beren Pide Salonu"}}, {"type": "node", "id": 4856209129, "lat": 38.6658025, "lon": 29.4056447, "tags": {"name": "İnan Market", "shop": "convenience"}}, {"type": "node", "id": 4856211696, "lat": 38.6633541, "lon": 29.405765, "tags": {"amenity": "restaurant", "cuisine": "turkish", "name": "Şans Mir Pide"}}, {"type": "node", "id": 4856211999, "lat": 38.6642669, "lon": 29.4050111, "tags": {"brand": "Şok", "brand:wikidata": "Q19613992", "brand:wikipedia": "tr:Şok (market)", "name": "Şok", "opening_hours": "Mo-Su 09:00-21:00", "shop": "supermarket"}}, {"type": "node", "id": 4856214664, "lat": 38.6630363, "lon": 29.4056836, "tags": {"name": "Deniz Market", "shop": "convenience"}}, {"type": "node", "id": 9866094624, "lat": 38.6691578, "lon": 29.401396, "tags": {"brand": "File Market", "brand:wikidata": "Q112228237", "name": "File Market", "operator": "FİLE", "shop": "supermarket"}}, {"type": "node", "id": 11978669781, "lat": 38.6679197, "lon": 29.401129, "tags": {"amenity": "atm", "brand": "Türkiye İş Bankası", "brand:wikidata": "Q909613", "name": "Bankamatik", "operator": "Türkiye İş Bankası", "operator:wikidata": "Q909613"}}, {"type": "node", "id": 11978679418, "lat": 38.6667878, "lon": 29.4003681, "tags": {"amenity": "cafe", "brand": "Mado", "brand:wikidata": "Q17116336", "cuisine": "coffee_shop", "name": "Mado", "takeaway": "yes"}}, {"type": "node", "id": 11978735591, "lat": 38.6668486, "lon": 29.4005277, "tags": {"amenity": "cafe", "name": "Lumberjack"}}, {"type": "node", "id": 11979355652, "lat": 38.6672927, "lon": 29.4012153, "tags": {"amenity": "cafe", "brand": "Kahve Dünyası", "brand:wikidata": "Q28008050", "cuisine": "coffee_shop", "name": "Kahve Dünyası", "takeaway": "yes"}}, {"type": "node", "id": 11985947054, "lat": 38.6668817, "lon": 29.4007257, "tags": {"amenity": "cafe", "brand": "Espressolab", "brand:wikidata": "Q97599059", "cuisine": "coffee_shop", "name": "Espressolab", "takeaway": "yes"}}, {"type": "node", "id": 11986028728, "lat": 38.6687311, "lon": 29.4016161, "tags": {"amenity": "cafe", "cuisine": "coffee_shop", "name": "Gua Coffee Company"}}, {"type": "node", "id": 11986031070, "lat": 38.6683303, "lon": 29.4016631, "tags": {"amenity": "cafe", "cuisine": "coffee_shop", "name": "Pablo Artisan Coffee"}}, {"type": "node", "id": 11987424175, "lat": 38.6667, "lon": 29.4000388, "tags": {"amenity": "cafe", "name": "Coff The Story"}}, {"type": "node", "id": 12012718168, "lat": 38.6667299, "lon": 29.4001838, "tags": {"amenity": "cafe", "cuisine": "coffee_shop", "name": "Treehouse"}}, {"type": "node", "id": 12012722569, "lat": 38.6666545, "lon": 29.399552, "tags": {"amenity": "restaurant", "cuisine": "pizza", "name": "Pizza Locale"}}, {"type": "node", "id": 12349703886, "lat": 38.6679731, "lon": 29.4008904, "tags": {"amenity": "atm", "brand": "Yapı Kredi", "brand:wikidata": "Q8049138", "cash_in": "yes", "operator": "Yapı Kredi", "operator:wikidata": "Q8049138"}}, {"type": "node", "id": 12349703887, "lat": 38.6674421, "lon": 29.4009449, "tags": {"amenity": "atm", "brand": "Türkiye Finans", "brand:wikidata": "Q6073140", "operator": "Türkiye Finans", "operator:wikidata": "Q6073140"}}, {"type": "node", "id": 12349703888, "lat": 38.6671984, "lon": 29.4006385, "tags": {"amenity": "atm", "brand": "Denizbank", "brand:wikidata": "Q1115064", "cash_in": "yes", "operator": "Denizbank", "operator:wikidata": "Q1115064"}}, {"type": "node", "id": 12349703892, "lat": 38.6681746, "lon": 29.4016821, "tags": {"amenity": "cafe", "cuisine": "coffee_shop", "name": "Brew Mood Coffee&Tea"}}, {"type": "node", "id": 12352435450, "lat": 38.6674765, "lon": 29.4037018, "tags": {"amenity": "pharmacy", "healthcare": "pharmacy", "name": "Fatih Eczanesi"}}, {"type": "node", "id": 12352435451, "lat": 38.6674378, "lon": 29.4041811, "tags": {"brand": "A101", "brand:wikidata": "Q6034496", "name": "A101", "opening_hours": "Mo-Su 09:00-21:30", "shop": "supermarket"}}, {"type": "node", "id": 12618786229, "lat": 38.6679591, "lon": 29.400953, "tags": {"amenity": "atm", "brand": "Ziraat Bankası", "brand:wikidata": "Q696003", "cash_in": "yes", "operator": "Ziraat Bankası", "operator:wikidata": "Q696003"}}, {"type": "node", "id": 12618791063, "lat": 38.6666569, "lon": 29.3997015, "tags": {"amenity": "cafe", "name": "The Bist Coffee"}}, {"type": "node", "id": 12636487470, "lat": 38.6673232, "lon": 29.4008187, "tags": {"amenity": "atm", "brand": "Yapı Kredi", "brand:wikidata": "Q8049138", "operator": "Yapı Kredi", "operator:wikidata": "Q8049138"}}, {"type": "node", "id": 12636649299, "lat": 38.6671156, "lon": 29.4058223, "tags": {"name": "Egeşok Yüzbeşevleri", "shop": "convenience"}}, {"type": "node", "id": 12639596141, "lat": 38.6680967, "lon": 29.4019679, "tags": {"name": "Ülker Market", "shop": "convenience"}}, {"type": "node", "id": 12639596142, "lat": 38.6680864, "lon": 29.4020292, "tags": {"amenity": "fast_food", "cuisine": "kebab", "name": "Taksim Döner"}}, {"type": "node", "id": 12639596143, "lat": 38.6680717, "lon": 29.4021113, "tags": {"name": "yıldızhan zeytin", "shop": "convenience"}}, {"type": "node", "id": 12639596144, "lat": 38.6680558, "lon": 29.4022, "tags": {"amenity": "fast_food", "cuisine": "kebab", "name": "Atapark Döner"}}, {"type": "node", "id": 12639596150, "lat": 38.6677092, "lon": 29.4040508, "tags": {"name": "Beyhan Katmer", "shop": "bakery"}}, {"type": "node", "id": 12639596151, "lat": 38.6674747, "lon": 29.4040283, "tags": {"amenity": "fast_food", "name": "Adıyaman Çiğköftecisi"}}, {"type": "node", "id": 12639967746, "lat": 38.6672198, "lon": 29.403593, "tags": {"name": "Papatya", "shop": "bakery"}}, {"type": "node", "id": 13320308172, "lat": 38.6657611, "lon": 29.3997171, "tags": {"brand": "A101", "brand:wikidata": "Q6034496", "name": "A101", "shop": "supermarket"}}, {"type": "node", "id": 13396123045, "lat": 38.6652949, "lon": 29.4026289, "tags": {"brand": "A101", "brand:wikidata": "Q6034496", "name": "A101", "shop": "supermarket"}}, {"type": "node", "id": 13396123047, "lat": 38.6653173, "lon": 29.4014461, "tags": {"brand": "BİM", "brand:wikidata": "Q1022075", "name": "BİM", "shop": "supermarket"}}, {"type": "node", "id": 13526936836, "lat": 38.6685379, "lon": 29.4053983, "tags": {"amenity": "pharmacy", "healthcare": "pharmacy"}}, {"type": "node", "id": 13526936837, "lat": 38.6685175, "lon": 29.405124, "tags": {"amenity": "pharmacy", "healthcare": "pharmacy", "name": "yeni Şifa Eczanesi"}}, {"type": "node", "id": 13664066154, "lat": 38.6646235, "lon": 29.4054774, "tags": {"name": "Halime Abla Döndürme Evi", "shop": "bakery"}}, {"type": "node", "id": 13698191679, "lat": 38.6666209, "lon": 29.3998911, "tags": {"amenity": "charging_station", "brand": "zes", "name": "Zes Şarj İstasyonu", "operator": "ZES", "operator:wikidata": "Q126391818"}}, {"type": "node", "id": 13706417775, "lat": 38.6674341, "lon": 29.4004891, "tags": {"amenity": "restaurant", "cuisine": "turkish", "name": "Köfteci Ramiz"}}, {"type": "node", "id": 13706417776, "lat": 38.6673386, "lon": 29.4004592, "tags": {"amenity": "restaurant", "cuisine": "pizza", "name": "Tera Pizza"}}, {"type": "node", "id": 13706417779, "lat": 38.6678681, "lon": 29.40049, "tags": {"amenity": "cafe", "name": "Teras"}}, {"type": "node", "id": 13730421586, "lat": 38.6675119, "lon": 29.4007737, "tags": {"amenity": "fast_food", "brand": "Tavuk Dünyası", "brand:wikidata": "Q126924105", "cuisine": "chicken", "name": "Tavuk Dünyası", "takeaway": "yes"}}, {"type": "node", "id": 4856204318, "lat": 38.6663833, "lon": 29.4070725, "tags": {"amenity": "restaurant", "cuisine": "turkish", "name": "Kanataçı  Sabri"}}, {"type": "node", "id": 4856207086, "lat": 38.6644439, "lon": 29.4062994, "tags": {"brand": "A101", "brand:wikidata": "Q6034496", "brand:wikipedia": "tr:A101", "name": "A101", "opening_hours": "Mo-Su 09:00-21:30", "shop": "supermarket"}}, {"type": "node", "id": 4856211668, "lat": 38.6633777, "lon": 29.4063003, "tags": {"amenity": "fast_food", "name": "Özbilen Tost Evi"}}, {"type": "node", "id": 4856213745, "lat": 38.6632878, "lon": 29.4062322, "tags": {"name": "Kardeşler Market", "shop": "convenience"}}, {"type": "node", "id": 4860377512, "lat": 38.6688816, "lon": 29.4084551, "tags": {"amenity": "restaurant", "cuisine": "turkish", "name": "Erdem Pide Salonu"}}, {"type": "node", "id": 9295324284, "lat": 38.6683883, "lon": 29.4083707, "tags": {"amenity": "fuel", "brand": "Shell", "brand:wikidata": "Q110716465", "brand:wikipedia": "en:Royal Dutch Shell", "compressed_air": "yes", "name": "Shell", "opening_hours": "24/7"}}, {"type": "node", "id": 12608545983, "lat": 38.6646928, "lon": 29.4063982, "tags": {"amenity": "atm", "brand": "Ziraat Bankası", "brand:wikidata": "Q696003", "operator": "Ziraat Bankası", "operator:wikidata": "Q696003"}}, {"type": "node", "id": 13009258811, "lat": 38.6672038, "lon": 29.4091099, "tags": {"brand": "A101", "brand:wikidata": "Q6034496", "name": "A101", "opening_hours": "Mo-Su 09:00-21:00", "shop": "supermarket"}}, {"type": "node", "id": 13633544316, "lat": 38.6670457, "lon": 29.4061914, "tags": {"amenity": "restaurant", "cuisine": "turkish", "name": "Valide Sultan Katmer - Bükme Salonu"}}, {"type": "node", "id": 3856547124, "lat": 38.676057, "lon": 29.3881539, "tags": {"amenity": "atm", "brand": "Akbank", "brand:wikidata": "Q416624", "cash_in": "yes", "name": "Akbank", "operator": "Akbank", "operator:wikidata": "Q416624"}}, {"type": "node", "id": 3856547125, "lat": 38.6758879, "lon": 29.3885136, "tags": {"addr:city": "Uşak", "amenity": "pharmacy", "healthcare": "pharmacy", "name": "Yaşam Eczanesi"}}, {"type": "node", "id": 4699019371, "lat": 38.6757776, "lon": 29.3889528, "tags": {"addr:city": "Uşak", "addr:country": "TR", "addr:district": "Merkez", "addr:housenumber": "135/A", "addr:neighbourhood": "Kemalöz Mahallesi", "addr:postcode": "64200", "addr:street": "Atatürk Bulvarı", "amenity": "fuel", "brand": "Opet", "brand:wikidata": "Q7072824", "brand:wikipedia": "tr:Opet", "compressed_air": "yes", "contact:phone": "+90 2762233818", "fuel:diesel": "yes", "fuel:euro_diesel": "yes", "fuel:lpg": "yes", "name": "Opet", "opening_hours": "PH,Mo-Su 00:00-24:00", "operator": "Opet Petrolcülük A.Ş.", "source": "Yellow Pages Türkiye", "website": "https://www.opet.com.tr/"}}, {"type": "node", "id": 4856381908, "lat": 38.6726893, "lon": 29.3924717, "tags": {"amenity": "restaurant", "cuisine": "turkish", "name": "Dinç Kuzu Kokoreç"}}, {"type": "node", "id": 4856384430, "lat": 38.6710702, "lon": 29.3916437, "tags": {"amenity": "restaurant", "cuisine": "turkish", "name": "Naz Et Mangal & Restorant"}}, {"type": "node", "id": 4856386552, "lat": 38.6710912, "lon": 29.3914164, "tags": {"amenity": "fast_food", "cuisine": "kebab", "name": "Karanfil Ocakbaşı"}}, {"type": "node", "id": 4856389526, "lat": 38.6709501, "lon": 29.3900954, "tags": {"name": "Özen Ekmek Fırını", "shop": "bakery"}}, {"type": "node", "id": 4856392376, "lat": 38.6706323, "lon": 29.388439, "tags": {"amenity": "restaurant", "cuisine": "turkish", "name": "Güneş Pide"}}, {"type": "node", "id": 4856393611, "lat": 38.6707947, "lon": 29.388295, "tags": {"amenity": "atm", "brand": "Vakıfbank", "brand:wikidata": "Q1148521", "name": "Vakıfbank", "operator": "Vakıfbank", "operator:wikidata": "Q1148521"}}, {"type": "node", "id": 4856395862, "lat": 38.670777, "lon": 29.3882502, "tags": {"amenity": "atm", "brand": "Ziraat Bankası", "brand:wikidata": "Q696003", "name": "Ziraat Bankası", "operator": "Ziraat Bankası", "operator:wikidata": "Q696003"}}, {"type": "node", "id": 4856396195, "lat": 38.6705522, "lon": 29.3882727, "tags": {"name": "Fidan Market", "shop": "convenience"}}, {"type": "node", "id": 10182255986, "lat": 38.6749616, "lon": 29.3911467, "tags": {"amenity": "restaurant", "brand": "Köfteci Yusuf", "brand:wikidata": "Q126125081", "cuisine": "turkish", "name": "Köfteci Yusuf"}}, {"type": "node", "id": 12352395541, "lat": 38.6755452, "lon": 29.3915987, "tags": {"amenity": "atm", "brand": "Ziraat Bankası", "brand:wikidata": "Q696003", "operator": "Ziraat Bankası", "operator:wikidata": "Q696003"}}, {"type": "node", "id": 12372953155, "lat": 38.6715247, "lon": 29.3927643, "tags": {"amenity": "restaurant", "cuisine": "turkish", "name": "Cadde Çorbacısı"}}, {"type": "node", "id": 12372953160, "lat": 38.6719854, "lon": 29.3926683, "tags": {"brand": "A101", "brand:wikidata": "Q6034496", "name": "A101", "opening_hours": "Mo-Su 09:00-21:30", "shop": "supermarket"}}, {"type": "node", "id": 12372953161, "lat": 38.6721012, "lon": 29.3926251, "tags": {"amenity": "fast_food", "cuisine": "kebab", "name": "İzmir Kokoreç"}}, {"type": "node", "id": 12377120120, "lat": 38.6755605, "lon": 29.3899924, "tags": {"amenity": "atm", "brand": "Vakıfbank", "brand:wikidata": "Q1148521", "operator": "Vakıfbank", "operator:wikidata": "Q1148521"}}, {"type": "node", "id": 12377120121, "lat": 38.6755417, "lon": 29.3900552, "tags": {"amenity": "atm", "brand": "Türkiye İş Bankası", "brand:wikidata": "Q909613", "operator": "Türkiye İş Bankası", "operator:wikidata": "Q909613"}}, {"type": "node", "id": 12377120122, "lat": 38.6760775, "lon": 29.3880885, "tags": {"amenity": "atm", "brand": "Yapı Kredi", "brand:wikidata": "Q8049138", "operator": "Yapı Kredi", "operator:wikidata": "Q8049138"}}, {"type": "node", "id": 12612831275, "lat": 38.6707582, "lon": 29.3882059, "tags": {"amenity": "atm", "brand": "Garanti Bankası", "brand:wikidata": "Q322962", "operator": "Garanti Bankası", "operator:wikidata": "Q322962"}}, {"type": "node", "id": 12612839238, "lat": 38.6706487, "lon": 29.3878953, "tags": {"amenity": "restaurant", "cuisine": "turkish", "name": "alis"}}, {"type": "node", "id": 12612839239, "lat": 38.6704662, "lon": 29.3875234, "tags": {"amenity": "restaurant", "cuisine": "turkish", "name": "incir"}}, {"type": "node", "id": 13039097664, "lat": 38.6749366, "lon": 29.3914568, "tags": {"amenity": "fuel", "brand": "Petrol Ofisi", "brand:wikidata": "Q1278087", "name": "Petrol Ofisi"}}, {"type": "node", "id": 13071643702, "lat": 38.6699469, "lon": 29.3870511, "tags": {"brand": "A101", "brand:wikidata": "Q6034496", "name": "A101", "shop": "supermarket"}}, {"type": "node", "id": 13411421280, "lat": 38.6760696, "lon": 29.3877024, "tags": {"amenity": "cafe"}}, {"type": "node", "id": 13456676007, "lat": 38.6712444, "lon": 29.3912022, "tags": {"brand": "BİM", "brand:wikidata": "Q1022075", "name": "BİM", "shop": "supermarket"}}, {"type": "node", "id": 13456676009, "lat": 38.6711872, "lon": 29.3901695, "tags": {"brand": "A101", "brand:wikidata": "Q6034496", "name": "A101", "shop": "supermarket"}}, {"type": "node", "id": 13456676010, "lat": 38.6709759, "lon": 29.3904492, "tags": {"amenity": "fast_food", "brand": "Komagene", "brand:wikidata": "Q108919263", "cuisine": "kebab", "name": "Komagene", "takeaway": "yes"}}, {"type": "node", "id": 13686477372, "lat": 38.6741953, "lon": 29.3912631, "tags": {"amenity": "restaurant", "cuisine": "turkish", "name": "Zafer Katmer & Pide Salanu"}}, {"type": "node", "id": 13698191684, "lat": 38.6757505, "lon": 29.3892309, "tags": {"amenity": "charging_station", "brand": "Wat Mobilite Şarj İstasyonu", "operator": "Wat Mobilite"}}, {"type": "node", "id": 13698191685, "lat": 38.6759003, "lon": 29.388207, "tags": {"amenity": "charging_station", "brand": "En Yakıt Şarj İstasyonu", "operator": "En Yakıt"}}, {"type": "node", "id": 4853575207, "lat": 38.6720993, "lon": 29.3968178, "tags": {"name": "Çöllüoğlu Market", "opening_hours": "Mo-Su 07:30-24:00", "shop": "convenience"}}, {"type": "node", "id": 4853580050, "lat": 38.6734227, "lon": 29.39469, "tags": {"amenity": "fast_food", "name": "Meşhur Adıyaman Çiğköftecisi"}}, {"type": "node", "id": 4853644807, "lat": 38.6733215, "lon": 29.3961519, "tags": {"name": "Özel Başak Kız Öğrenci Yurdu", "tourism": "hotel"}}, {"type": "node", "id": 4856155064, "lat": 38.6700516, "lon": 29.3987215, "tags": {"name": "Ormancı Manav & Market", "shop": "convenience"}}, {"type": "node", "id": 4856307038, "lat": 38.669626, "lon": 29.3935437, "tags": {"name": "Şeref Market", "shop": "convenience"}}, {"type": "node", "id": 4856350762, "lat": 38.6725395, "lon": 29.3931072, "tags": {"name": "Paşa Market", "shop": "convenience"}}, {"type": "node", "id": 4856364809, "lat": 38.6724473, "lon": 29.3931448, "tags": {"amenity": "fast_food", "name": "Acıcık Çiğköfte"}}, {"type": "node", "id": 6125578490, "lat": 38.6695431, "lon": 29.3977692, "tags": {"amenity": "cafe", "name": "Chillax", "red_turn:right": "yes"}}, {"type": "node", "id": 11978767294, "lat": 38.6700885, "lon": 29.3989678, "tags": {"amenity": "cafe", "cuisine": "coffee_shop", "name": "Coffee Brou"}}, {"type": "node", "id": 11980505110, "lat": 38.6699008, "lon": 29.3973381, "tags": {"brand": "Türkiye Tarım Kredi Kooperatif Market", "brand:tr": "Türkiye Tarım Kredi Kooperatif Market", "brand:wikidata": "Q127328776", "name": "Türkiye Tarım Kredi Kooperatif Market", "shop": "supermarket"}}, {"type": "node", "id": 11986085942, "lat": 38.675494, "lon": 29.3942482, "tags": {"name": "Şahin Avm", "shop": "convenience"}}, {"type": "node", "id": 11991076361, "lat": 38.6750358, "lon": 29.3987263, "tags": {"brand": "BİM", "brand:wikidata": "Q1022075", "name": "BİM", "opening_hours": "Mo-Su 09:00-21:00", "shop": "supermarket"}}, {"type": "node", "id": 11991079658, "lat": 38.6750241, "lon": 29.3982968, "tags": {"amenity": "cafe", "name": "Kampüs Kafe"}}, {"type": "node", "id": 11991095084, "lat": 38.6750735, "lon": 29.397735, "tags": {"brand": "Türkiye Tarım Kredi Kooperatif Market", "brand:tr": "Türkiye Tarım Kredi Kooperatif Market", "brand:wikidata": "Q127328776", "name": "Türkiye Tarım Kredi Kooperatif Market", "shop": "supermarket"}}, {"type": "node", "id": 12015103017, "lat": 38.6746763, "lon": 29.3975754, "tags": {"amenity": "cafe", "name": "No 40"}}, {"type": "node", "id": 12300338599, "lat": 38.6748773, "lon": 29.3990943, "tags": {"amenity": "fast_food", "cuisine": "sandwich", "name": "İzmir Kordon Kumru"}}, {"type": "node", "id": 12300338600, "lat": 38.6748658, "lon": 29.3990142, "tags": {"name": "Sarıyer Börek", "shop": "bakery"}}, {"type": "node", "id": 12300353902, "lat": 38.6745416, "lon": 29.3972701, "tags": {"amenity": "atm", "brand": "Ziraat Bankası", "brand:wikidata": "Q696003", "operator": "Ziraat Bankası", "operator:wikidata": "Q696003"}}, {"type": "node", "id": 12372957795, "lat": 38.6716555, "lon": 29.3933194, "tags": {"name": "Egeşok Sanayi", "shop": "convenience"}}, {"type": "node", "id": 12592631606, "lat": 38.6747838, "lon": 29.3954198, "tags": {"brand": "Şok", "brand:wikidata": "Q19613992", "name": "Şok", "shop": "supermarket"}}, {"type": "node", "id": 12618381090, "lat": 38.6750302, "lon": 29.3981386, "tags": {"amenity": "cafe", "name": "Loca"}}, {"type": "node", "id": 13020846039, "lat": 38.673197, "lon": 29.398269, "tags": {"brand": "BİM", "brand:wikidata": "Q1022075", "name": "BİM", "shop": "supermarket"}}, {"type": "node", "id": 13036734694, "lat": 38.6739257, "lon": 29.3988344, "tags": {"name": "Sayar Avm", "shop": "supermarket"}}, {"type": "node", "id": 13036734695, "lat": 38.6737634, "lon": 29.3989189, "tags": {"brand": "A101", "brand:wikidata": "Q6034496", "name": "A101", "shop": "supermarket"}}, {"type": "node", "id": 13036734696, "lat": 38.6740451, "lon": 29.3990705, "tags": {"amenity": "fast_food", "brand": "Komagene", "brand:wikidata": "Q108919263", "cuisine": "kebab", "name": "Komagene", "takeaway": "yes"}}, {"type": "node", "id": 13329367528, "lat": 38.675234, "lon": 29.3963057, "tags": {"name": "Keyif Market", "shop": "convenience"}}, {"type": "node", "id": 13382198610, "lat": 38.6703347, "lon": 29.3938643, "tags": {"brand": "Şok", "brand:wikidata": "Q19613992", "name": "Şok", "shop": "supermarket"}}, {"type": "node", "id": 13387535442, "lat": 38.6759515, "lon": 29.3940602, "tags": {"brand": "BİM", "brand:wikidata": "Q1022075", "name": "BİM", "shop": "supermarket"}}, {"type": "node", "id": 13416506493, "lat": 38.6748108, "lon": 29.3986598, "tags": {"amenity": "restaurant", "cuisine": "turkish", "name": "Baldo Pilav Üstü"}}, {"type": "node", "id": 13613080790, "lat": 38.6701082, "lon": 29.3992644, "tags": {"amenity": "cafe", "name": "777"}}, {"type": "node", "id": 13613080791, "lat": 38.6750251, "lon": 29.3984566, "tags": {"name": "Meydan Market", "shop": "convenience"}}, {"type": "node", "id": 13680355719, "lat": 38.6711916, "lon": 29.3989207, "tags": {"amenity": "restaurant", "cuisine": "turkish", "name": "kekik"}}, {"type": "node", "id": 13686477348, "lat": 38.6758644, "lon": 29.3942955, "tags": {"amenity": "restaurant", "cuisine": "turkish", "name": "33 Mersin Tantuni 2"}}, {"type": "node", "id": 13686477373, "lat": 38.6738424, "lon": 29.3992303, "tags": {"amenity": "restaurant", "cuisine": "pizza", "name": "Pizza Pizarro"}}, {"type": "node", "id": 13686579035, "lat": 38.6756079, "lon": 29.3940302, "tags": {"amenity": "fast_food", "cuisine": "sandwich", "name": "Samsat Büfe"}}, {"type": "node", "id": 13730421587, "lat": 38.6699915, "lon": 29.3967378, "tags": {"brand": "A101", "brand:wikidata": "Q6034496", "name": "A101", "shop": "supermarket"}}, {"type": "node", "id": 3856547073, "lat": 38.6782951, "lon": 29.3890829, "tags": {"addr:city": "Uşak", "brand": "BİM", "brand:wikidata": "Q1022075", "brand:wikipedia": "en:Bim (company)", "name": "BİM", "opening_hours": "Mo-Su 09:00-21:00", "shop": "supermarket"}}, {"type": "node", "id": 3856547104, "lat": 38.676177, "lon": 29.3876498, "tags": {"amenity": "atm", "brand": "QNB", "brand:wikidata": "Q1136759", "brand:wikipedia": "en:QNB Finansbank", "cash_in": "yes", "check_date": "2024-05-27", "name": "QNB Finansbank", "operator": "QNB", "operator:wikidata": "Q1136759", "operator:wikipedia": "en:QNB Finansbank"}}, {"type": "node", "id": 4860351106, "lat": 38.6762169, "lon": 29.3871781, "tags": {"amenity": "pharmacy", "healthcare": "pharmacy", "name": "Çakır Eczanesi"}}, {"type": "node", "id": 9277725046, "lat": 38.6782947, "lon": 29.3904226, "tags": {"brand": "A101", "brand:wikidata": "Q6034496", "name": "A101", "opening_hours": "Mo-Su 09:00-21:30", "shop": "supermarket"}}, {"type": "node", "id": 9360053104, "lat": 38.6761578, "lon": 29.3877154, "tags": {"amenity": "atm", "brand": "Garanti Bankası", "brand:wikidata": "Q322962", "brand:wikipedia": "en:Garanti BBVA", "cash_in": "yes", "check_date": "2024-05-27", "name": "Garanti Bankası", "network": "Garanti BBVA ATM", "operator": "Garanti Bankası", "operator:wikidata": "Q322962", "operator:wikipedia": "en:Garanti BBVA"}}, {"type": "node", "id": 11505924641, "lat": 38.676604, "lon": 29.3884394, "tags": {"amenity": "fuel", "brand": "Shell", "brand:wikidata": "Q110716465", "name": "Shell"}}, {"type": "node", "id": 12596126054, "lat": 38.6783079, "lon": 29.3894281, "tags": {"amenity": "fast_food", "cuisine": "kebab", "name": "Abidin Usta"}}, {"type": "node", "id": 12596126055, "lat": 38.6781861, "lon": 29.3887129, "tags": {"name": "Egeşok Dikilitaş", "shop": "convenience"}}, {"type": "node", "id": 12596126056, "lat": 38.6781714, "lon": 29.3883936, "tags": {"amenity": "pharmacy", "healthcare": "pharmacy", "name": "Yeşim Eczanesi"}}, {"type": "node", "id": 12596126060, "lat": 38.6777889, "lon": 29.3878976, "tags": {"name": "Sayar Avm", "shop": "supermarket"}}, {"type": "node", "id": 12596262705, "lat": 38.6777344, "lon": 29.3902183, "tags": {"amenity": "cafe", "name": "Uşak Belediyesi Dikilitaş Sosyal Tesisleri"}}, {"type": "node", "id": 12600757045, "lat": 38.6776356, "lon": 29.3928123, "tags": {"name": "Egeşok Salı Pazarı", "shop": "convenience"}}, {"type": "node", "id": 12838455913, "lat": 38.6777296, "lon": 29.3864435, "tags": {"amenity": "fast_food", "brand": "Komagene", "brand:wikidata": "Q108919263", "cuisine": "kebab", "name": "Komagene", "takeaway": "yes"}}, {"type": "node", "id": 13433200778, "lat": 38.6766451, "lon": 29.3877526, "tags": {"brand": "BİM", "brand:wikidata": "Q1022075", "name": "BİM", "shop": "supermarket"}}, {"type": "node", "id": 13686477368, "lat": 38.6785524, "lon": 29.3911604, "tags": {"amenity": "fast_food", "cuisine": "kebab", "name": "Bülbül Döner"}}, {"type": "node", "id": 13686477374, "lat": 38.6777388, "lon": 29.3865203, "tags": {"amenity": "fast_food", "cuisine": "kebab", "name": "Seven Döner Tantuni"}}, {"type": "node", "id": 13698191678, "lat": 38.6765682, "lon": 29.3887939, "tags": {"amenity": "charging_station", "brand": "Shell Recharge Şarj İstasyonu"}}, {"type": "node", "id": 11978608276, "lat": 38.6811553, "lon": 29.3976159, "tags": {"amenity": "pharmacy", "healthcare": "pharmacy", "name": "Ömür Eczanesi"}}, {"type": "node", "id": 11978769485, "lat": 38.6811571, "lon": 29.3969483, "tags": {"amenity": "pharmacy", "healthcare": "pharmacy", "name": "Akıncı Eczanesi"}}, {"type": "node", "id": 11978776164, "lat": 38.680808, "lon": 29.3980602, "tags": {"name": "Sayar Avm", "operator": "Sayar", "shop": "supermarket"}}, {"type": "node", "id": 11979528380, "lat": 38.6772666, "lon": 29.3936753, "tags": {"name": "Çamtepe Fırını", "shop": "bakery"}}, {"type": "node", "id": 11980051656, "lat": 38.6811399, "lon": 29.3968039, "tags": {"amenity": "pharmacy", "healthcare": "pharmacy", "name": "Zümrüt Eczanesi"}}, {"type": "node", "id": 11980417201, "lat": 38.6825726, "lon": 29.3957085, "tags": {"amenity": "restaurant", "cuisine": "turkish", "name": "Sezer Pide 3"}}, {"type": "node", "id": 11980506725, "lat": 38.6788042, "lon": 29.395437, "tags": {"brand": "Türkiye Tarım Kredi Kooperatif Market", "brand:tr": "Türkiye Tarım Kredi Kooperatif Market", "brand:wikidata": "Q127328776", "name": "Türkiye Tarım Kredi Kooperatif Market", "shop": "supermarket"}}, {"type": "node", "id": 11981261495, "lat": 38.6792706, "lon": 29.3988323, "tags": {"amenity": "atm", "brand": "Ziraat Bankası", "brand:wikidata": "Q696003", "name": "Ziraat Atm", "operator": "Ziraat Bankası", "operator:wikidata": "Q696003"}}, {"type": "node", "id": 11981262341, "lat": 38.6795087, "lon": 29.3985634, "tags": {"brand": "BİM", "brand:wikidata": "Q1022075", "name": "BİM", "opening_hours": "Mo-Su 09:00-21:00", "shop": "supermarket"}}, {"type": "node", "id": 11986096772, "lat": 38.6768771, "lon": 29.3940651, "tags": {"name": "Asmar Gross", "shop": "convenience"}}, {"type": "node", "id": 11992821771, "lat": 38.6814805, "lon": 29.396819, "tags": {"amenity": "pharmacy", "healthcare": "pharmacy", "name": "Dönmez Eczanesi"}}, {"type": "node", "id": 12300233252, "lat": 38.6806278, "lon": 29.3940261, "tags": {"brand": "BİM", "brand:wikidata": "Q1022075", "name": "BİM", "opening_hours": "Mo-Su 09:00-21:00", "operator": "BİM", "shop": "supermarket"}}, {"type": "node", "id": 12300233255, "lat": 38.6819672, "lon": 29.3965468, "tags": {"brand": "A101", "brand:wikidata": "Q6034496", "name": "A101", "opening_hours": "Mo-Su 09:00-21:30", "operator": "A101", "shop": "supermarket"}}, {"type": "node", "id": 12300311894, "lat": 38.6772219, "lon": 29.3966034, "tags": {"name": "İbrahim Bakkal", "shop": "convenience"}}, {"type": "node", "id": 12300311895, "lat": 38.6771216, "lon": 29.3964439, "tags": {"name": "Çakır Pide", "shop": "bakery"}}, {"type": "node", "id": 12300332914, "lat": 38.6770055, "lon": 29.3971225, "tags": {"brand": "A101", "brand:wikidata": "Q6034496", "name": "A101", "opening_hours": "Mo-Su 09:00-21:30", "shop": "supermarket"}}, {"type": "node", "id": 12602348210, "lat": 38.6777997, "lon": 29.393824, "tags": {"amenity": "fast_food", "brand": "Çiğköftem", "brand:wikidata": "Q106597459", "cuisine": "turkish", "diet:vegan": "yes", "diet:vegetarian": "only", "name": "Çiğköftem", "takeaway": "yes"}}, {"type": "node", "id": 12618503662, "lat": 38.6785361, "lon": 29.3934488, "tags": {"amenity": "restaurant", "cuisine": "turkish", "name": "Konak Pide"}}, {"type": "node", "id": 12618503664, "lat": 38.6785888, "lon": 29.3948324, "tags": {"name": "Yıldız Gıda", "shop": "convenience"}}, {"type": "node", "id": 13227656149, "lat": 38.6804038, "lon": 29.3958354, "tags": {"name": "Kardelen Odun Ekmek Fırını", "shop": "bakery"}}, {"type": "node", "id": 13352304130, "lat": 38.6789432, "lon": 29.3974678, "tags": {"name": "Erva Mini Market", "shop": "convenience"}}, {"type": "node", "id": 13387535443, "lat": 38.6761645, "lon": 29.393997, "tags": {"brand": "A101", "brand:wikidata": "Q6034496", "name": "A101", "shop": "supermarket"}}, {"type": "node", "id": 13387535444, "lat": 38.6763032, "lon": 29.3939548, "tags": {"brand": "Şok", "brand:wikidata": "Q19613992", "name": "Şok", "shop": "supermarket"}}, {"type": "node", "id": 2071263583, "lat": 38.6711302, "lon": 29.4040554, "tags": {"ele": "919", "int_name": "Usak", "man_made": "monitoring_station", "monitoring:weather": "yes", "name": "Uşak", "note": "OMGİ - Sinoptik - Günlük Klima", "operator": "Meteoroloji Genel Müdürlüğü", "operator:short": "MGM", "operator:wikidata": "Q7855314", "ref:wmo": "17188", "source:position": "Bing", "weather:anemometer": "yes", "weather:barometer": "yes", "weather:hygrometer": "yes", "weather:thermometer": "yes", "weather:wind_vane": "yes"}}, {"type": "node", "id": 4850222580, "lat": 38.67506, "lon": 29.4058104, "tags": {"amenity": "cafe", "name": "osmanlı kahvecisi"}}, {"type": "node", "id": 4850233551, "lat": 38.6748493, "lon": 29.4058642, "tags": {"amenity": "cafe", "name": "Yemen Kahvesi"}}, {"type": "node", "id": 4851371013, "lat": 38.6747911, "lon": 29.405027, "tags": {"name": "Karadeniz Unlu Mamulleri", "shop": "bakery"}}, {"type": "node", "id": 4851373777, "lat": 38.6748863, "lon": 29.4042536, "tags": {"amenity": "cafe", "name": "Bahçenaz cafe"}}, {"type": "node", "id": 4851374515, "lat": 38.674989, "lon": 29.4044836, "tags": {"amenity": "fast_food", "cuisine": "kebab", "delivery": "yes", "name": "Şeker Döner", "takeaway": "yes"}}, {"type": "node", "id": 4851405524, "lat": 38.674145, "lon": 29.4041355, "tags": {"amenity": "restaurant", "cuisine": "turkish", "name": "İlknur Mantı Salonu"}}, {"type": "node", "id": 4851409044, "lat": 38.6743981, "lon": 29.4036778, "tags": {"amenity": "cafe", "name": "Terras Garden Kafe"}}, {"type": "node", "id": 4851409997, "lat": 38.6747274, "lon": 29.403928, "tags": {"amenity": "fast_food", "cuisine": "sandwich", "name": "Utku Kumru"}}, {"type": "node", "id": 4851410360, "lat": 38.6748647, "lon": 29.4040121, "tags": {"amenity": "restaurant", "cuisine": "turkish", "name": "PiLove"}}, {"type": "node", "id": 4851411909, "lat": 38.6749753, "lon": 29.404224, "tags": {"brand": "BİM", "brand:wikidata": "Q1022075", "brand:wikipedia": "en:Bim (company)", "name": "BİM", "opening_hours": "Mo-Su 09:00-21:00", "shop": "supermarket"}}, {"type": "node", "id": 4851414638, "lat": 38.6749249, "lon": 29.403706, "tags": {"amenity": "cafe", "club": "board_games", "name": "Majör Oyun Salonu"}}, {"type": "node", "id": 4851419573, "lat": 38.6754297, "lon": 29.4039273, "tags": {"amenity": "fast_food", "cuisine": "kebab", "name": "Hayal Kebap"}}, {"type": "node", "id": 4851420015, "lat": 38.6754024, "lon": 29.404072, "tags": {"name": "Damla Katmer Salonu", "shop": "bakery"}}, {"type": "node", "id": 4853496461, "lat": 38.6739252, "lon": 29.4030499, "tags": {"amenity": "atm", "brand": "Ziraat Bankası", "brand:wikidata": "Q696003", "cash_in": "yes", "check_date": "2024-08-11", "name": "Ziraat Bankası", "operator": "Ziraat Bankası", "operator:wikidata": "Q696003"}}, {"type": "node", "id": 4853498734, "lat": 38.6752037, "lon": 29.4023754, "tags": {"name": "Meydan Market", "shop": "convenience"}}, {"type": "node", "id": 4853508076, "lat": 38.6737634, "lon": 29.4012965, "tags": {"amenity": "pharmacy", "healthcare": "pharmacy", "name": "Duran Eczanesi", "opening_hours": "Mo-Fr 08:00-18:00"}}, {"type": "node", "id": 4853508791, "lat": 38.6738985, "lon": 29.4013228, "tags": {"name": "taş fırın & cafe", "shop": "bakery"}}, {"type": "node", "id": 4853511208, "lat": 38.6735899, "lon": 29.4012479, "tags": {"amenity": "pharmacy", "healthcare": "pharmacy", "name": "Güven Eczanesi", "opening_hours": "Mo-Fr 08:30-18:00"}}, {"type": "node", "id": 4853512629, "lat": 38.6735323, "lon": 29.4012345, "tags": {"name": "Serkan Gıda", "opening_hours": "PH,Mo-Su 07:00-24:00", "shop": "convenience"}}, {"type": "node", "id": 4853546873, "lat": 38.6709437, "lon": 29.3997254, "tags": {"brand": "BİM", "brand:wikidata": "Q1022075", "brand:wikipedia": "en:Bim (company)", "name": "BİM", "opening_hours": "Mo-Su 09:00-21:00", "shop": "supermarket"}}, {"type": "node", "id": 4853548385, "lat": 38.6709056, "lon": 29.3998245, "tags": {"amenity": "restaurant", "cuisine": "turkish", "name": "Tarhana Baba"}}, {"type": "node", "id": 4853662895, "lat": 38.674188, "lon": 29.4014536, "tags": {"amenity": "fast_food", "cuisine": "kebab", "name": "Aydın Kokoreç"}}, {"type": "node", "id": 4853664602, "lat": 38.6758804, "lon": 29.4020932, "tags": {"name": "Cebeci Market", "shop": "convenience"}}, {"type": "node", "id": 4853677427, "lat": 38.6748361, "lon": 29.4016368, "tags": {"name": "Üç Mavi Ekmek Fırını", "shop": "bakery"}}, {"type": "node", "id": 4853683446, "lat": 38.6749881, "lon": 29.4012705, "tags": {"name": "Özel Güçlü Erkek Öğrenci Yurdu", "tourism": "hotel"}}, {"type": "node", "id": 4853683996, "lat": 38.6748568, "lon": 29.4010794, "tags": {"name": "Özel Arkadaş Kız Öğrenci Yurdu", "tourism": "hotel"}}, {"type": "node", "id": 4853689371, "lat": 38.6757069, "lon": 29.4020674, "tags": {"amenity": "fast_food", "cuisine": "kebab", "name": "Dünya Döner"}}, {"type": "node", "id": 4856152293, "lat": 38.6701503, "lon": 29.4014751, "tags": {"amenity": "fast_food", "cuisine": "burger", "name": "Aralık burger"}}, {"type": "node", "id": 4856154238, "lat": 38.6702997, "lon": 29.4000283, "tags": {"amenity": "cafe", "female": "yes", "name": "Milklac"}}, {"type": "node", "id": 4856154810, "lat": 38.6700268, "lon": 29.4004065, "tags": {"amenity": "fast_food", "brand": "Komagene", "brand:wikidata": "Q108919263", "cuisine": "kebab", "name": "Komagene", "takeaway": "yes"}}, {"type": "node", "id": 6092654204, "lat": 38.6710891, "lon": 29.4006377, "tags": {"artwork_type": "sculpture", "tourism": "artwork"}}, {"type": "node", "id": 11980321366, "lat": 38.6760555, "lon": 29.4040844, "tags": {"amenity": "fast_food", "cuisine": "kebab", "name": "Parmak Tavuk"}}, {"type": "node", "id": 11992895264, "lat": 38.6752966, "lon": 29.4011182, "tags": {"amenity": "restaurant", "cuisine": "pizza", "name": "Panino Pizza"}}, {"type": "node", "id": 11992895265, "lat": 38.6752655, "lon": 29.4009908, "tags": {"amenity": "cafe", "name": "Lotus Kafe"}}, {"type": "node", "id": 12015178788, "lat": 38.6750375, "lon": 29.4050216, "tags": {"amenity": "fast_food", "cuisine": "kebab", "name": "Şenbeşler Döner"}}, {"type": "node", "id": 12176663681, "lat": 38.6746578, "lon": 29.4044939, "tags": {"amenity": "restaurant", "cuisine": "turkish", "name": "Gülçin Pide"}}, {"type": "node", "id": 12176663682, "lat": 38.6745557, "lon": 29.4044752, "tags": {"amenity": "cafe", "name": "California Cafe"}}, {"type": "node", "id": 12176663684, "lat": 38.6749659, "lon": 29.4035394, "tags": {"amenity": "cafe", "name": "Hep Yek Oyun Salonu"}}, {"type": "node", "id": 12352427125, "lat": 38.6699293, "lon": 29.4003797, "tags": {"name": "Busem Manav & Market", "shop": "convenience"}}, {"type": "node", "id": 12588812965, "lat": 38.6760423, "lon": 29.4021026, "tags": {"amenity": "fast_food", "cuisine": "kebab", "name": "Yaprak Dönerci"}}, {"type": "node", "id": 12618991771, "lat": 38.6748758, "lon": 29.404605, "tags": {"amenity": "restaurant", "cuisine": "turkish", "name": "Pideci Arif"}}, {"type": "node", "id": 12618991773, "lat": 38.6749873, "lon": 29.4043946, "tags": {"amenity": "fast_food", "cuisine": "kebab", "name": "Anka Dürümköy"}}, {"type": "node", "id": 12618991778, "lat": 38.6748978, "lon": 29.4038898, "tags": {"amenity": "cafe", "name": "Alaçatı"}}, {"type": "node", "id": 12618991779, "lat": 38.675068, "lon": 29.4036298, "tags": {"brand": "Şok", "brand:wikidata": "Q19613992", "name": "Şok", "shop": "supermarket"}}, {"type": "node", "id": 12618991780, "lat": 38.6751522, "lon": 29.4031847, "tags": {"name": "Egeşok Osmangazi", "shop": "convenience"}}, {"type": "node", "id": 12618991781, "lat": 38.6752309, "lon": 29.4020256, "tags": {"amenity": "fast_food", "cuisine": "kebab", "name": "Saray tantuni"}}, {"type": "node", "id": 12618991782, "lat": 38.6753152, "lon": 29.4018575, "tags": {"amenity": "fast_food", "cuisine": "sandwich", "name": "İzmir Büfe"}}, {"type": "node", "id": 12618991783, "lat": 38.6751856, "lon": 29.4010903, "tags": {"amenity": "fast_food", "cuisine": "kebab", "name": "Soslu Bi Dürüm"}}, {"type": "node", "id": 12618991785, "lat": 38.6749321, "lon": 29.3994502, "tags": {"name": "Sayar Avm", "shop": "supermarket"}}, {"type": "node", "id": 12623877796, "lat": 38.6754514, "lon": 29.4054222, "tags": {"amenity": "fast_food", "cuisine": "kebab", "name": "öncü Uşak"}}, {"type": "node", "id": 12624488834, "lat": 38.6738903, "lon": 29.4034342, "tags": {"amenity": "shelter", "bench": "yes", "bin": "yes", "name": "Öğretmen Evi Durağı", "shelter": "yes", "shelter_type": "public_transport"}}, {"type": "node", "id": 12629197352, "lat": 38.6760216, "lon": 29.4047655, "tags": {"amenity": "pharmacy", "healthcare": "pharmacy", "name": "Maya Eczanesi"}}, {"type": "node", "id": 12654185965, "lat": 38.67465, "lon": 29.4028103, "tags": {"amenity": "pharmacy", "healthcare": "pharmacy", "name": "Ferah Eczanesi"}}, {"type": "node", "id": 12748673280, "lat": 38.6760809, "lon": 29.4029721, "tags": {"amenity": "restaurant", "cuisine": "turkish", "name": "mozzo"}}, {"type": "node", "id": 12748673283, "lat": 38.6759914, "lon": 29.4045311, "tags": {"amenity": "pharmacy", "healthcare": "pharmacy", "name": "Serkan Eczanesi"}}, {"type": "node", "id": 13020933219, "lat": 38.6716144, "lon": 29.4043019, "tags": {"artwork_type": "statue", "name": "Cirit Heykeli", "tourism": "artwork"}}, {"type": "node", "id": 13174359474, "lat": 38.6754973, "lon": 29.4042314, "tags": {"amenity": "cafe", "name": "koala"}}, {"type": "node", "id": 13284196484, "lat": 38.6718647, "lon": 29.4059058, "tags": {"amenity": "cafe", "name": "Yaz Boz Okey Salonu"}}, {"type": "node", "id": 13416506494, "lat": 38.6751486, "lon": 29.400277, "tags": {"amenity": "fast_food", "cuisine": "chicken", "name": "Cajun Corner"}}, {"type": "node", "id": 13433353282, "lat": 38.6742452, "lon": 29.4029872, "tags": {"brand": "A101", "brand:wikidata": "Q6034496", "name": "A101", "shop": "supermarket"}}, {"type": "node", "id": 13435785320, "lat": 38.674322, "lon": 29.4034775, "tags": {"amenity": "pharmacy", "healthcare": "pharmacy", "name": "Başer Eczanesi"}}, {"type": "node", "id": 13525209362, "lat": 38.6738786, "lon": 29.4023493, "tags": {"amenity": "pharmacy", "healthcare": "pharmacy", "name": "İlke Eczanesi"}}, {"type": "node", "id": 13525209365, "lat": 38.6733896, "lon": 29.4012074, "tags": {"amenity": "pharmacy", "healthcare": "pharmacy", "name": "Umut Eczanesi"}}, {"type": "node", "id": 13633544312, "lat": 38.6752393, "lon": 29.4008406, "tags": {"amenity": "fast_food", "cuisine": "sandwich", "name": "Kumrucu Ergün"}}, {"type": "node", "id": 13633544314, "lat": 38.6755898, "lon": 29.4006192, "tags": {"amenity": "fast_food", "cuisine": "sandwich", "name": "Merkez Kumru"}}, {"type": "node", "id": 13633544315, "lat": 38.6756647, "lon": 29.4011845, "tags": {"amenity": "fast_food", "cuisine": "sandwich", "name": "Tost Time express"}}, {"type": "node", "id": 13633544326, "lat": 38.6752018, "lon": 29.4025218, "tags": {"amenity": "restaurant", "cuisine": "turkish", "name": "Yeliz'in mutfağı"}}, {"type": "node", "id": 13633544327, "lat": 38.6751098, "lon": 29.4026094, "tags": {"amenity": "fast_food", "brand": "Komagene", "brand:wikidata": "Q108919263", "cuisine": "kebab", "name": "Komagene", "takeaway": "yes"}}, {"type": "node", "id": 13680352455, "lat": 38.6749818, "lon": 29.404125, "tags": {"amenity": "restaurant", "cuisine": "turkish", "name": "Bi'Kova Pilav"}}, {"type": "node", "id": 13686477344, "lat": 38.6749913, "lon": 29.4034007, "tags": {"amenity": "fast_food", "cuisine": "kebab", "name": "Altmışüç Urfa Lahmacun"}}, {"type": "node", "id": 13686477349, "lat": 38.6747485, "lon": 29.4022546, "tags": {"amenity": "restaurant", "cuisine": "turkish", "name": "Pilavcı Temel Reis"}}, {"type": "node", "id": 13686477366, "lat": 38.6742558, "lon": 29.4014795, "tags": {"amenity": "fast_food", "cuisine": "sandwich", "name": "Mekan 64"}}, {"type": "node", "id": 13686579034, "lat": 38.6753357, "lon": 29.4012652, "tags": {"amenity": "fast_food", "cuisine": "kebab", "name": "Dünya Döner"}}, {"type": "node", "id": 13702136499, "lat": 38.6738741, "lon": 29.400297, "tags": {"amenity": "restaurant", "cuisine": "pizza", "name": "Ravelli Pizza"}}, {"type": "node", "id": 13716629889, "lat": 38.6750942, "lon": 29.4006003, "tags": {"amenity": "fast_food", "cuisine": "kebab", "name": "Kervan Saray"}}, {"type": "node", "id": 13716629890, "lat": 38.6750569, "lon": 29.4003827, "tags": {"amenity": "cafe", "name": "Telephone coffee"}}, {"type": "node", "id": 13716629891, "lat": 38.6752667, "lon": 29.3995495, "tags": {"amenity": "fast_food", "cuisine": "kebab", "name": "Gediz Ciğercisi Dürümcü"}}, {"type": "node", "id": 13716785325, "lat": 38.6741173, "lon": 29.4011578, "tags": {"amenity": "cafe", "name": "Backstage Premium Coffee"}}, {"type": "node", "id": 13716785326, "lat": 38.6731002, "lon": 29.4011081, "tags": {"name": "Altun Unlu Mamülleri", "shop": "bakery"}}, {"type": "node", "id": 2881725958, "lat": 38.6725189, "lon": 29.406999, "tags": {"name": "Gran Hotel", "tourism": "hotel"}}, {"type": "node", "id": 2881727399, "lat": 38.6712611, "lon": 29.4078497, "tags": {"name": "otel on arslan", "tourism": "hotel"}}, {"type": "node", "id": 4850259740, "lat": 38.6734353, "lon": 29.4064031, "tags": {"amenity": "fast_food", "cuisine": "kebab", "name": "Meydan Döner", "shop": "convenience", "wheelchair": "limited"}}, {"type": "node", "id": 4850303810, "lat": 38.6731616, "lon": 29.4067111, "tags": {"amenity": "cafe", "name": "Günebakan Kafe"}}, {"type": "node", "id": 4850355323, "lat": 38.6722086, "lon": 29.4069625, "tags": {"amenity": "fast_food", "cuisine": "kebab", "name": "Mavi Ay Fast Food"}}, {"type": "node", "id": 4850393920, "lat": 38.6717262, "lon": 29.4071634, "tags": {"name": "Özen", "shop": "bakery"}}, {"type": "node", "id": 4850395426, "lat": 38.6715755, "lon": 29.4072296, "tags": {"name": "Uyar Market", "shop": "convenience"}}, {"type": "node", "id": 4851322059, "lat": 38.6717542, "lon": 29.4065666, "tags": {"amenity": "fast_food", "cuisine": "kebab"}},