{"id": "33--85", "latMin": 33, "lonMin": -85, "latMax": 34, "lonMax": -84, "generated": "2026-04-16T18:39:07.289Z", "count": 85, "pois": [{"type": "node", "id": 37265, "lat": 33.78412, "lon": -84.3828, "tags": {"amenity": "charging_station", "access": "public", "fee": "yes", "network": "https://envirosparkenergy.com", "opening_hours": "24 hours daily", "status": "E", "operator": "ENVIROSPARK", "name": "1075 Peachtree", "addr:street": "1075 Peachtree St NE", "addr:postcode": "30309", "addr:city": "Atlanta", "addr:country": "US", "socket:type1": "1", "socket:type1:output": "7.2 kW", "charging_station:output": "7.2 kW", "capacity": "6", "_source": "worldwide"}}, {"type": "node", "id": 2687591781, "lat": 33.924887, "lon": -84.466365, "tags": {"amenity": "charging_station", "name": "EV Charging Station", "_source": "worldwide"}}, {"type": "node", "id": 2704740138, "lat": 33.90166, "lon": -84.457672, "tags": {"amenity": "charging_station", "access": "private", "operator": "Parkwood Point", "name": "Parkwood Point", "_source": "worldwide"}}, {"type": "node", "id": 3584693013, "lat": 33.963202, "lon": -84.423558, "tags": {"amenity": "charging_station", "access": "customers", "operator": "East Cobb Government Service Center", "name": "East Cobb Government Service Center", "_source": "worldwide"}}, {"type": "node", "id": 3596981687, "lat": 33.913112, "lon": -84.456313, "tags": {"amenity": "charging_station", "access": "yes", "name": "EV Charging Station", "_source": "worldwide"}}, {"type": "node", "id": 3658408697, "lat": 33.960304, "lon": -84.366273, "tags": {"amenity": "charging_station", "fee": "yes", "name": "SemaCharge", "socket:type1": "1", "capacity": "1", "_source": "worldwide"}}, {"type": "node", "id": 3681414201, "lat": 33.79381, "lon": -84.3972, "tags": {"amenity": "charging_station", "fee": "yes", "access": "customers", "opening_hours": "24/7", "brand": "Tesla Supercharger", "network": "Supercharger", "operator": "Tesla, Inc.", "name": "Tesla Supercharger", "addr:street": "Atlantic Drive", "addr:housenumber": "1380", "addr:postcode": "30363", "addr:city": "Atlanta", "addr:country": "US", "capacity": "30", "_source": "worldwide"}}, {"type": "node", "id": 3681423812, "lat": 33.79394, "lon": -84.395616, "tags": {"amenity": "charging_station", "opening_hours": "24/7", "brand": "ChargePoint", "operator": "ChargePoint", "name": "ChargePoint", "socket:type1": "6", "capacity": "6", "_source": "worldwide"}}, {"type": "node", "id": 3681423813, "lat": 33.793623, "lon": -84.395616, "tags": {"amenity": "charging_station", "opening_hours": "24/7", "brand": "eVgo", "operator": "eVgo", "name": "eVgo", "socket:chademo": "2", "capacity": "2", "_source": "worldwide"}}, {"type": "node", "id": 3681428264, "lat": 33.788672, "lon": -84.404334, "tags": {"amenity": "charging_station", "fee": "yes", "brand": "Blink", "operator": "Blink", "name": "Blink", "socket:type1": "3", "capacity": "3", "_source": "worldwide"}}, {"type": "node", "id": 3681434514, "lat": 33.763917, "lon": -84.380288, "tags": {"amenity": "charging_station", "opening_hours": "24/7", "name": "EV Charging Station", "socket:chademo": "1", "socket:type1": "2", "socket:type1_combo": "1", "capacity": "4", "_source": "worldwide"}}, {"type": "node", "id": 3681446804, "lat": 33.772042, "lon": -84.365984, "tags": {"amenity": "charging_station", "opening_hours": "24/7", "brand": "eVgo", "operator": "NRG Energy", "name": "eVgo", "socket:chademo": "1", "capacity": "1", "_source": "worldwide"}}, {"type": "node", "id": 3681446805, "lat": 33.771388, "lon": -84.366992, "tags": {"amenity": "charging_station", "opening_hours": "24/7", "brand": "ChargePoint", "operator": "ChargePoint", "name": "ChargePoint", "socket:type1": "1", "capacity": "1", "_source": "worldwide"}}, {"type": "node", "id": 3681449195, "lat": 33.757305, "lon": -84.363871, "tags": {"amenity": "charging_station", "fee": "no", "opening_hours": "24/7", "name": "EV Charging Station", "socket:type1": "2", "capacity": "2", "_source": "worldwide"}}, {"type": "node", "id": 3792982381, "lat": 33.767925, "lon": -84.295978, "tags": {"amenity": "charging_station", "fee": "no", "name": "EV Charging Station", "socket:chademo": "1", "capacity": "5", "_source": "worldwide"}}, {"type": "node", "id": 3793075337, "lat": 33.848804, "lon": -84.256099, "tags": {"amenity": "charging_station", "fee": "yes", "opening_hours": "24/7", "brand": "eVgo", "operator": "NRG Energy", "name": "eVgo", "socket:chademo": "1", "socket:type1": "2", "capacity": "3", "_source": "worldwide"}}, {"type": "node", "id": 3793082248, "lat": 33.824119, "lon": -84.292815, "tags": {"amenity": "charging_station", "fee": "yes", "name": "SemaCharge", "socket:type1": "1", "capacity": "1", "_source": "worldwide"}}, {"type": "node", "id": 6315288382, "lat": 33.954532, "lon": -84.552158, "tags": {"amenity": "charging_station", "name": "EV Charging Station", "_source": "worldwide"}}, {"type": "node", "id": 6373306556, "lat": 33.778162, "lon": -84.292691, "tags": {"amenity": "charging_station", "name": "EV Charging Station", "_source": "worldwide"}}, {"type": "node", "id": 6399754925, "lat": 33.928731, "lon": -84.495826, "tags": {"amenity": "charging_station", "fee": "yes", "opening_hours": "24/7", "network": "ChargePoint", "operator": "City of Marietta", "name": "MARIETTA / FGSC EV", "socket:type1": "2", "capacity": "2", "_source": "worldwide"}}, {"type": "node", "id": 6587708714, "lat": 33.850485, "lon": -84.365233, "tags": {"amenity": "charging_station", "fee": "yes", "access": "customers", "opening_hours": "24/7", "brand": "Tesla Supercharger", "network": "Supercharger", "operator": "Tesla, Inc.", "name": "Tesla Supercharger", "addr:street": "Peachtree Road", "addr:housenumber": "3393", "addr:postcode": "30326", "addr:city": "Atlanta", "addr:country": "US", "capacity": "5", "_source": "worldwide"}}, {"type": "node", "id": 6587708715, "lat": 33.84645, "lon": -84.36019, "tags": {"amenity": "charging_station", "fee": "yes", "access": "customers", "opening_hours": "24/7", "brand": "Tesla Supercharger", "network": "Supercharger", "operator": "Tesla, Inc.", "name": "Tesla Supercharger", "addr:street": "Peachtree Road Northeast", "addr:housenumber": "3393", "addr:postcode": "30326", "addr:city": "Atlanta", "addr:country": "US", "capacity": "16", "_source": "worldwide"}}, {"type": "node", "id": 6975055418, "lat": 33.382872, "lon": -84.764152, "tags": {"amenity": "charging_station", "name": "EV Charging Station", "_source": "worldwide"}}, {"type": "node", "id": 7837094121, "lat": 33.83566, "lon": -84.574754, "tags": {"amenity": "charging_station", "operator": "Volta", "name": "Volta", "_source": "worldwide"}}, {"type": "node", "id": 8307629178, "lat": 33.662856, "lon": -84.428101, "tags": {"amenity": "charging_station", "fee": "yes", "access": "yes", "network": "ChargePoint", "operator": "Georgia Power", "name": "Georgia Power", "socket:chademo": "1", "socket:type1": "2", "socket:type1_combo": "1", "capacity": "4", "_source": "worldwide"}}, {"type": "node", "id": 8567967230, "lat": 33.90375, "lon": -84.46578, "tags": {"amenity": "charging_station", "fee": "yes", "access": "yes", "opening_hours": "24/7", "brand": "Tesla Supercharger", "network": "Supercharger", "operator": "Tesla, Inc.", "name": "Marietta Supercharger", "addr:street": "Windy Hill Road Southeast", "addr:housenumber": "3000", "addr:postcode": "30067", "addr:city": "Marietta", "addr:country": "US", "capacity": "12", "_source": "worldwide"}}, {"type": "node", "id": 8917521180, "lat": 33.42582, "lon": -84.18787, "tags": {"amenity": "charging_station", "fee": "yes", "access": "yes", "opening_hours": "24/7", "brand": "Tesla Supercharger", "network": "Supercharger", "operator": "Tesla, Inc.", "name": "Tesla Supercharger", "addr:street": "GA-20 West", "addr:housenumber": "1380", "addr:postcode": "30253", "addr:city": "McDonough", "addr:country": "US", "capacity": "12", "_source": "worldwide"}}, {"type": "node", "id": 9000464254, "lat": 33.845627, "lon": -84.245055, "tags": {"amenity": "charging_station", "access": "yes", "operator": "Electrify America", "name": "Electrify America", "_source": "worldwide"}}, {"type": "node", "id": 9177100818, "lat": 33.570174, "lon": -84.538276, "tags": {"amenity": "charging_station", "fee": "yes", "brand": "ChargePoint", "name": "ChargePoint", "socket:chademo": "2", "socket:type1_combo": "2", "capacity": "4", "_source": "worldwide"}}, {"type": "node", "id": 9416087019, "lat": 33.875903, "lon": -84.304434, "tags": {"amenity": "charging_station", "fee": "no", "name": "EV Charging Station", "_source": "worldwide"}}, {"type": "node", "id": 9441284966, "lat": 33.828215, "lon": -84.335379, "tags": {"amenity": "charging_station", "operator": "Volta", "name": "Volta", "_source": "worldwide"}}, {"type": "node", "id": 9848867669, "lat": 33.818322, "lon": -84.580086, "tags": {"amenity": "charging_station", "fee": "yes", "access": "yes", "brand": "eVgo", "operator": "eVgo", "name": "eVgo", "_source": "worldwide"}}, {"type": "node", "id": 9903996949, "lat": 33.659532, "lon": -84.417329, "tags": {"amenity": "charging_station", "brand": "eVgo", "operator": "eVgo", "name": "eVgo", "_source": "worldwide"}}, {"type": "node", "id": 9904272873, "lat": 33.653485, "lon": -84.450701, "tags": {"amenity": "charging_station", "name": "EV Charging Station", "_source": "worldwide"}}, {"type": "node", "id": 9904288130, "lat": 33.650652, "lon": -84.447899, "tags": {"amenity": "charging_station", "name": "EV Charging Station", "_source": "worldwide"}}, {"type": "node", "id": 9921782637, "lat": 33.726805, "lon": -84.73569, "tags": {"amenity": "charging_station", "brand": "ChargePoint", "operator": "ChargePoint", "name": "ChargePoint", "_source": "worldwide"}}, {"type": "node", "id": 9921782638, "lat": 33.72691, "lon": -84.73578, "tags": {"amenity": "charging_station", "fee": "yes", "access": "yes", "opening_hours": "24/7", "brand": "Tesla Supercharger", "network": "Supercharger", "operator": "Tesla, Inc.", "name": "Douglasville Supercharger", "addr:street": "Chapel Hill Road", "addr:housenumber": "2950", "addr:postcode": "30135", "addr:city": "Douglasville", "addr:country": "US", "capacity": "12", "_source": "worldwide"}}, {"type": "node", "id": 10040148815, "lat": 33.788967, "lon": -84.307583, "tags": {"amenity": "charging_station", "fee": "no", "brand": "JuiceBox", "name": "JuiceBox", "capacity": "2", "_source": "worldwide"}}, {"type": "node", "id": 10279198517, "lat": 33.886369, "lon": -84.059364, "tags": {"amenity": "charging_station", "operator": "Chargepro", "name": "Chargepro", "_source": "worldwide"}}, {"type": "node", "id": 10704616475, "lat": 33.348911, "lon": -84.122752, "tags": {"amenity": "charging_station", "name": "EV Charging Station", "_source": "worldwide"}}, {"type": "node", "id": 11359385391, "lat": 33.480065, "lon": -84.220603, "tags": {"amenity": "charging_station", "access": "customers", "brand": "FreeWire", "name": "FreeWire", "_source": "worldwide"}}, {"type": "node", "id": 11423015897, "lat": 33.831014, "lon": -84.513267, "tags": {"amenity": "charging_station", "name": "EV Charging Station", "_source": "worldwide"}}, {"type": "node", "id": 11732252013, "lat": 33.041369, "lon": -84.9748, "tags": {"amenity": "charging_station", "brand": "ChargePoint", "operator": "ChargePoint", "name": "ChargePoint", "socket:type1_combo": "2", "capacity": "2", "_source": "worldwide"}}, {"type": "node", "id": 11891895563, "lat": 33.881232, "lon": -84.512719, "tags": {"amenity": "charging_station", "operator": "ChargePro", "name": "ChargePro", "_source": "worldwide"}}, {"type": "node", "id": 12150470460, "lat": 33.893601, "lon": -84.330971, "tags": {"amenity": "charging_station", "operator": "Electrify America", "name": "Electrify America", "_source": "worldwide"}}, {"type": "node", "id": 12193466372, "lat": 33.909897, "lon": -84.291336, "tags": {"amenity": "charging_station", "name": "EV Charging Station", "addr:country": "US", "_source": "worldwide"}}, {"type": "node", "id": 12304917514, "lat": 33.98784, "lon": -84.27309, "tags": {"amenity": "charging_station", "fee": "yes", "access": "yes", "opening_hours": "24/7", "brand": "Tesla Supercharger", "network": "Supercharger", "operator": "Tesla, Inc.", "name": "Tesla Supercharger", "addr:street": "Holcomb Bridge Road", "addr:housenumber": "8500", "addr:postcode": "30022", "addr:city": "Alpharetta", "addr:country": "US", "capacity": "8", "_source": "worldwide"}}, {"type": "node", "id": 12476504687, "lat": 33.698355, "lon": -84.173242, "tags": {"amenity": "charging_station", "fee": "yes", "access": "yes", "brand": "EVgo", "operator": "EVgo", "name": "EVgo", "socket:chademo": "4", "socket:type1_combo": "4", "capacity": "8", "_source": "worldwide"}}, {"type": "node", "id": 12479782256, "lat": 33.98678, "lon": -84.42162, "tags": {"amenity": "charging_station", "fee": "yes", "access": "yes", "opening_hours": "24/7", "brand": "Tesla Supercharger", "network": "Supercharger", "operator": "Tesla, Inc.", "name": "Marietta Supercharger", "addr:street": "Roswell Road", "addr:housenumber": "4475", "addr:postcode": "30062", "addr:city": "Marietta", "addr:country": "US", "capacity": "8", "_source": "worldwide"}}, {"type": "node", "id": 12877129199, "lat": 33.653848, "lon": -84.424015, "tags": {"amenity": "charging_station", "fee": "yes", "brand": "ChargePoint", "operator": "ChargePoint", "name": "ChargePoint", "_source": "worldwide"}}, {"type": "node", "id": 12877129200, "lat": 33.645974, "lon": -84.461694, "tags": {"amenity": "charging_station", "fee": "yes", "brand": "ChargePoint", "operator": "ChargePoint", "name": "ChargePoint", "_source": "worldwide"}}, {"type": "node", "id": 12877135160, "lat": 33.633534, "lon": -84.014957, "tags": {"amenity": "charging_station", "fee": "yes", "opening_hours": "24/7", "operator": "Electrify America", "name": "Electrify America", "_source": "worldwide"}}, {"type": "node", "id": 12877135161, "lat": 33.506018, "lon": -84.234974, "tags": {"amenity": "charging_station", "fee": "yes", "access": "yes", "opening_hours": "24/7", "brand": "Electrify America", "operator": "Electrify America", "name": "Electrify America", "_source": "worldwide"}}, {"type": "node", "id": 12877135162, "lat": 33.400306, "lon": -84.598719, "tags": {"amenity": "charging_station", "fee": "yes", "access": "yes", "opening_hours": "24/7", "operator": "Electrify America", "name": "Electrify America", "addr:street": "Highway 54", "addr:housenumber": "2717", "addr:postcode": "30269", "addr:city": "Peachtree City", "addr:country": "US", "_source": "worldwide"}}, {"type": "node", "id": 12877161334, "lat": 33.900217, "lon": -84.301094, "tags": {"amenity": "charging_station", "name": "EV Charging Station", "_source": "worldwide"}}, {"type": "node", "id": 12877184404, "lat": 33.724074, "lon": -84.763399, "tags": {"amenity": "charging_station", "fee": "yes", "opening_hours": "24/7", "operator": "Electrify America", "name": "Electrify America", "_source": "worldwide"}}, {"type": "node", "id": 12877184407, "lat": 33.891843, "lon": -84.465775, "tags": {"amenity": "charging_station", "fee": "yes", "opening_hours": "24/7", "network": "ChargePoint", "operator": "Georgia Power", "name": "Georgia Power", "_source": "worldwide"}}, {"type": "node", "id": 12877184408, "lat": 33.908874, "lon": -84.48918, "tags": {"amenity": "charging_station", "fee": "yes", "opening_hours": "24/7", "brand": "Electrify America", "operator": "Electrify America", "name": "Electrify America", "_source": "worldwide"}}, {"type": "node", "id": 12879217217, "lat": 33.9191, "lon": -84.7688, "tags": {"amenity": "charging_station", "opening_hours": "24/7", "brand": "EV Connect", "network": "EV Connect", "name": "EV Connect", "addr:street": "Charles Hardy Parkway", "addr:housenumber": "1255", "addr:postcode": "30157", "addr:city": "Dallas", "addr:country": "US", "socket:type1_combo": "2", "capacity": "2", "_source": "worldwide"}}, {"type": "node", "id": 12887297488, "lat": 33.87855, "lon": -84.46898, "tags": {"amenity": "charging_station", "fee": "yes", "access": "yes", "opening_hours": "24/7", "brand": "Rivian", "network": "Rivian Adventure Network", "name": "Rivian Adventure Network", "addr:street": "Cumberland Mall Southeast", "addr:housenumber": "2860", "addr:postcode": "30339", "addr:city": "Atlanta", "addr:country": "US", "socket:type1_combo": "9", "capacity": "9", "_source": "worldwide"}}, {"type": "node", "id": 12887833841, "lat": 33.39646, "lon": -84.59313, "tags": {"amenity": "charging_station", "fee": "yes", "access": "yes", "opening_hours": "24/7", "brand": "Tesla Supercharger", "network": "Supercharger", "operator": "Tesla, Inc.", "name": "Peachtree City Supercharger", "addr:street": "City Circle #1050", "addr:housenumber": "239", "addr:postcode": "30269", "addr:city": "Peachtree City", "addr:country": "US", "capacity": "8", "_source": "worldwide"}}, {"type": "node", "id": 12887833843, "lat": 33.97703, "lon": -84.21572, "tags": {"amenity": "charging_station", "fee": "yes", "access": "yes", "opening_hours": "24/7", "brand": "Tesla Supercharger", "network": "Supercharger", "operator": "Tesla, Inc.", "name": "Tesla Supercharger", "addr:street": "Peachtree Parkway", "addr:housenumber": "5270", "addr:postcode": "30092", "addr:city": "Peachtree Corners", "addr:country": "US", "capacity": "16", "_source": "worldwide"}}, {"type": "node", "id": 12887833844, "lat": 33.77038, "lon": -84.55736, "tags": {"amenity": "charging_station", "fee": "yes", "access": "yes", "opening_hours": "24/7", "brand": "Tesla Supercharger", "network": "Supercharger", "operator": "Tesla, Inc.", "name": "Austell Supercharger", "addr:street": "Riverside Parkway", "addr:housenumber": "135", "addr:postcode": "30168", "addr:city": "Austell", "addr:country": "US", "capacity": "24", "_source": "worldwide"}}, {"type": "node", "id": 12887833845, "lat": 33.656, "lon": -84.5043, "tags": {"amenity": "charging_station", "fee": "yes", "access": "yes", "opening_hours": "24/7", "brand": "Tesla Supercharger", "network": "Supercharger", "operator": "Tesla, Inc.", "name": "Tesla Supercharger", "addr:street": "North Commerce Drive", "addr:housenumber": "3625", "addr:postcode": "30344", "addr:city": "East Point", "addr:country": "US", "socket:type1_combo": "16", "capacity": "32", "_source": "worldwide"}}, {"type": "node", "id": 12887833847, "lat": 33.4663, "lon": -84.2189, "tags": {"amenity": "charging_station", "fee": "yes", "access": "yes", "opening_hours": "24/7", "brand": "Tesla Supercharger", "network": "Supercharger", "operator": "Tesla, Inc.", "name": "Tesla Supercharger", "addr:street": "Jonesboro Road", "addr:housenumber": "1950", "addr:postcode": "30253", "addr:city": "McDonough", "addr:country": "US", "capacity": "16", "_source": "worldwide"}}, {"type": "node", "id": 12887833848, "lat": 33.8569, "lon": -84.38285, "tags": {"amenity": "charging_station", "fee": "yes", "access": "yes", "opening_hours": "24/7", "brand": "Tesla Supercharger", "network": "Supercharger", "operator": "Tesla, Inc.", "name": "Tesla Supercharger", "addr:street": "Roswell Road", "addr:housenumber": "3714", "addr:postcode": "30342", "addr:city": "Atlanta", "addr:country": "US", "capacity": "16", "_source": "worldwide"}}, {"type": "node", "id": 12887833853, "lat": 33.75706, "lon": -84.36338, "tags": {"amenity": "charging_station", "fee": "yes", "access": "yes", "opening_hours": "24/7", "brand": "Tesla Supercharger", "network": "Supercharger", "operator": "Tesla, Inc.", "name": "Tesla Supercharger", "addr:street": "Krog Street Northeast", "addr:housenumber": "99", "addr:postcode": "30307", "addr:city": "Atlanta", "addr:country": "US", "capacity": "8", "_source": "worldwide"}}, {"type": "node", "id": 12887833856, "lat": 33.95326, "lon": -84.6573, "tags": {"amenity": "charging_station", "fee": "yes", "access": "yes", "opening_hours": "24/7", "brand": "Tesla Supercharger", "network": "Supercharger", "operator": "Tesla, Inc.", "name": "Marietta Supercharger", "addr:street": "Dallas Highway", "addr:housenumber": "3625", "addr:postcode": "30064", "addr:city": "Marietta", "addr:country": "US", "capacity": "12", "_source": "worldwide"}}, {"type": "node", "id": 12887833868, "lat": 33.90328, "lon": -84.00293, "tags": {"amenity": "charging_station", "fee": "yes", "access": "yes", "opening_hours": "24/7", "brand": "Tesla Supercharger", "network": "Supercharger", "operator": "Tesla, Inc.", "name": "Lawrenceville Supercharger", "addr:street": "Scenic Highway North", "addr:housenumber": "1150", "addr:postcode": "30045", "addr:city": "Lawrenceville", "addr:country": "US", "capacity": "16", "_source": "worldwide"}}, {"type": "node", "id": 12887833873, "lat": 33.5769, "lon": -84.35412, "tags": {"amenity": "charging_station", "fee": "yes", "access": "yes", "opening_hours": "24/7", "brand": "Tesla Supercharger", "network": "Supercharger", "operator": "Tesla, Inc.", "name": "Morrow Supercharger", "addr:street": "Southlake Circle", "addr:housenumber": "1000", "addr:postcode": "30260", "addr:city": "Morrow", "addr:country": "US", "capacity": "24", "_source": "worldwide"}}, {"type": "node", "id": 12887833875, "lat": 33.65871, "lon": -84.50122, "tags": {"amenity": "charging_station", "fee": "yes", "access": "yes", "opening_hours": "24/7", "brand": "Tesla Supercharger", "network": "Supercharger", "operator": "Tesla, Inc.", "name": "East Point Supercharger", "addr:street": "Marketplace Boulevard", "addr:housenumber": "3660", "addr:postcode": "30344", "addr:city": "East Point", "addr:country": "US", "capacity": "12", "_source": "worldwide"}}, {"type": "node", "id": 12887833876, "lat": 33.393575, "lon": -84.76003, "tags": {"amenity": "charging_station", "fee": "yes", "access": "yes", "opening_hours": "24/7", "brand": "Tesla Supercharger", "network": "Supercharger", "operator": "Tesla, Inc.", "name": "Newnan Supercharger", "addr:street": "Bullsboro Drive", "addr:housenumber": "555", "addr:postcode": "30265", "addr:city": "Newnan", "addr:country": "US", "capacity": "12", "_source": "worldwide"}}, {"type": "node", "id": 12887833877, "lat": 33.9788, "lon": -84.21492, "tags": {"amenity": "charging_station", "fee": "yes", "access": "yes", "opening_hours": "24/7", "brand": "Tesla Supercharger", "network": "Supercharger", "operator": "Tesla, Inc.", "name": "Tesla Supercharger", "addr:street": "Town Center Boulevard", "addr:housenumber": "5220", "addr:postcode": "30092", "addr:city": "Peachtree Corners", "addr:country": "US", "capacity": "12", "_source": "worldwide"}}, {"type": "node", "id": 12887833883, "lat": 33.85238, "lon": -84.20744, "tags": {"amenity": "charging_station", "fee": "yes", "access": "yes", "opening_hours": "24/7", "brand": "Tesla Supercharger", "network": "Supercharger", "operator": "Tesla, Inc.", "name": "Tucker Supercharger", "addr:street": "Hugh Howell Road", "addr:housenumber": "4420", "addr:postcode": "30084", "addr:city": "Tucker", "addr:country": "US", "capacity": "12", "_source": "worldwide"}}, {"type": "node", "id": 12887833887, "lat": 33.69893, "lon": -84.17318, "tags": {"amenity": "charging_station", "fee": "yes", "access": "customers", "opening_hours": "24/7", "brand": "Tesla Supercharger", "network": "Supercharger", "operator": "Tesla, Inc.", "name": "Lithonia Supercharger", "addr:street": "Panola Road", "addr:housenumber": "3045", "addr:postcode": "30038", "addr:city": "Lithonia", "addr:country": "US", "capacity": "12", "_source": "worldwide"}}, {"type": "node", "id": 12887833888, "lat": 33.77619, "lon": -84.29561, "tags": {"amenity": "charging_station", "fee": "yes", "access": "customers", "opening_hours": "24/7", "brand": "Tesla Supercharger", "network": "Supercharger", "operator": "Tesla, Inc.", "name": "Tesla Supercharger", "addr:street": "East Ponce de Leon Avenue", "addr:housenumber": "118", "addr:postcode": "30030", "addr:city": "Decatur", "addr:country": "US", "capacity": "16", "_source": "worldwide"}}, {"type": "node", "id": 12887882760, "lat": 33.75627, "lon": -84.34716, "tags": {"amenity": "charging_station", "fee": "yes", "access": "yes", "opening_hours": "24/7", "brand": "Tesla Supercharger", "network": "Supercharger", "operator": "Tesla", "name": "Tesla Supercharger", "addr:street": "Caroline Street Northeast", "addr:housenumber": "1275", "addr:postcode": "30307", "addr:city": "Atlanta", "addr:country": "US", "capacity": "20", "_source": "worldwide"}}, {"type": "node", "id": 12887882773, "lat": 33.9065, "lon": -84.20352, "tags": {"amenity": "charging_station", "fee": "yes", "access": "yes", "opening_hours": "24/7", "brand": "Tesla Supercharger", "network": "Supercharger", "operator": "Tesla", "name": "Norcross Supercharger", "addr:street": "Live Oak Parkway", "addr:housenumber": "6120", "addr:postcode": "30093", "addr:city": "Norcross", "addr:country": "US", "capacity": "16", "_source": "worldwide"}}, {"type": "node", "id": 12887882775, "lat": 33.47245, "lon": -84.44274, "tags": {"amenity": "charging_station", "access": "no", "opening_hours": "24/7", "brand": "Tesla Supercharger", "network": "Tesla Supercharger", "operator": "Tesla", "name": "Tesla Supercharger", "addr:street": "GA-85", "addr:housenumber": "1135", "addr:postcode": "30214", "addr:city": "Fayetteville", "addr:country": "US", "_source": "worldwide"}}, {"type": "node", "id": 12897005235, "lat": 33.589104, "lon": -84.39557, "tags": {"amenity": "charging_station", "opening_hours": "24/7", "network": "ChargePoint", "name": "ChargePoint", "addr:street": "Garden Walk Boulevard", "addr:housenumber": "6234", "addr:postcode": "30274", "addr:city": "Riverdale", "addr:country": "US", "socket:type1_combo": "1", "capacity": "1", "_source": "worldwide"}}, {"type": "node", "id": 12960363792, "lat": 33.864424, "lon": -84.466712, "tags": {"amenity": "charging_station", "name": "EV Charging Station", "_source": "worldwide"}}, {"type": "node", "id": 13370699843, "lat": 33.041646, "lon": -84.97233, "tags": {"amenity": "charging_station", "fee": "yes", "access": "yes", "opening_hours": "24/7", "brand": "Tesla Supercharger", "network": "Supercharger", "operator": "Tesla", "name": "LaGrange Supercharger", "_source": "worldwide"}}, {"type": "node", "id": 13389700608, "lat": 33.61702, "lon": -84.396477, "tags": {"amenity": "charging_station", "access": "yes", "brand": "Ionna", "name": "Ionna", "_source": "worldwide"}}, {"type": "node", "id": 13667919204, "lat": 33.655447, "lon": -84.006071, "tags": {"amenity": "charging_station", "fee": "yes", "access": "yes", "opening_hours": "24/7", "brand": "Tesla Supercharger", "network": "Supercharger", "operator": "Tesla", "name": "Conyers Supercharger", "_source": "worldwide"}}, {"type": "node", "id": 13667928302, "lat": 33.896859, "lon": -84.479107, "tags": {"amenity": "charging_station", "fee": "yes", "access": "yes", "opening_hours": "24/7", "brand": "Tesla Supercharger", "network": "Supercharger", "operator": "Tesla", "name": "Smyrna Supercharger", "_source": "worldwide"}}]}