{"id": "56-8", "latMin": 56, "lonMin": 8, "latMax": 57, "lonMax": 9, "generated": "2026-04-16T18:39:08.755Z", "count": 219, "pois": [{"type": "node", "id": 1310631473, "lat": 56.000632, "lon": 8.126343, "tags": {"amenity": "charging_station", "fee": "no", "operator": "Ringkøbing-Skjern Kommune", "name": "Ladestation Ringkøbing-Skjern Kommune", "addr:country": "DK", "capacity": "8", "_source": "worldwide"}}, {"type": "node", "id": 1412416550, "lat": 56.001173, "lon": 8.129127, "tags": {"amenity": "charging_station", "access": "yes", "brand": "Monta", "operator": "Monta", "name": "Monta - Monta", "addr:country": "DK", "socket:type2": "2", "socket:type2:output": "22.0 kW", "charging_station:output": "22.0 kW", "capacity": "2", "_source": "worldwide"}}, {"type": "node", "id": 3993313057, "lat": 56.844289, "lon": 8.524381, "tags": {"amenity": "charging_station", "operator": "E.ON", "name": "Ladestation E.ON", "addr:country": "DK", "_source": "worldwide"}}, {"type": "node", "id": 1190926778, "lat": 56.094615, "lon": 8.236069, "tags": {"amenity": "charging_station", "fee": "yes", "brand": "E.ON Drive", "operator": "E.ON", "name": "E.ON - Hotel Fjordgaarden", "addr:country": "DK", "socket:type2": "4", "socket:type2:output": "22.0 kW", "socket:type2_combo": "4", "socket:type2_combo:output": "300.0 kW", "charging_station:output": "300.0 kW", "capacity": "8", "_source": "worldwide"}}, {"type": "node", "id": 1257606675, "lat": 56.091355, "lon": 8.23884, "tags": {"amenity": "charging_station", "access": "yes", "brand": "EWII", "opening_hours": "24/7", "operator": "EWII", "name": "EWII - Ringkøbing ved McDonald's", "addr:country": "DK", "socket:type2_combo": "2", "socket:type2_combo:output": "150.0 kW", "charging_station:output": "150.0 kW", "capacity": "8", "_source": "worldwide"}}, {"type": "node", "id": 1383990660, "lat": 56.090756, "lon": 8.239414, "tags": {"amenity": "charging_station", "addr:country": "DK", "_source": "worldwide"}}, {"type": "node", "id": 6524339708, "lat": 56.598688, "lon": 8.148551, "tags": {"amenity": "charging_station", "fee": "yes", "operator": "Spirii", "name": "Strandvejen 88", "addr:country": "DK", "socket:type2": "1", "socket:type2:output": "9.0 kW", "charging_station:output": "9.0 kW", "capacity": "1", "_source": "worldwide"}}, {"type": "node", "id": 9346127300, "lat": 56.957085, "lon": 8.698511, "tags": {"amenity": "charging_station", "fee": "yes", "brand": "E.ON Drive", "opening_hours": "24/7", "operator": "E.ON", "name": "E.ON - E.ON Drive", "addr:country": "DK", "socket:type2": "2", "socket:type2:output": "11.0 kW", "charging_station:output": "11.0 kW", "capacity": "2", "_source": "worldwide"}}, {"type": "node", "id": 1197325456, "lat": 56.954956, "lon": 8.697067, "tags": {"amenity": "charging_station", "fee": "yes", "brand": "Clever", "opening_hours": "24/7", "operator": "Clever", "name": "Clever - Clever", "addr:country": "DK", "socket:type2_combo": "6", "socket:type2_combo:output": "300.0 kW", "charging_station:output": "300.0 kW", "capacity": "6", "_source": "worldwide"}}, {"type": "node", "id": 9346127301, "lat": 56.951911, "lon": 8.692131, "tags": {"amenity": "charging_station", "fee": "yes", "opening_hours": "24/7", "operator": "Clever", "name": "Netto Thisted", "addr:country": "DK", "socket:type2": "1", "socket:type2:output": "43.0 kW", "socket:type2_combo": "1", "socket:type2_combo:output": "50.0 kW", "socket:chademo": "1", "socket:chademo:output": "50.0 kW", "charging_station:output": "50.0 kW", "capacity": "2", "_source": "worldwide"}}, {"type": "node", "id": 11660237540, "lat": 56.952553, "lon": 8.692502, "tags": {"amenity": "charging_station", "fee": "yes", "brand": "Shell Recharge", "opening_hours": "24/7", "operator": "Shell Recharge", "name": "Shell Recharge Thisted", "addr:country": "DK", "socket:type2_combo": "2", "socket:type2_combo:output": "150.0 kW", "charging_station:output": "150.0 kW", "capacity": "2", "_source": "worldwide"}}, {"type": "node", "id": 9503243737, "lat": 56.101401, "lon": 8.274225, "tags": {"amenity": "charging_station", "operator": "Sperto", "name": "Ladestation Sperto", "addr:country": "DK", "socket:type2_combo": "1", "socket:type2_combo:output": "75.0 kW", "charging_station:output": "75.0 kW", "capacity": "1", "_source": "worldwide"}}, {"type": "node", "id": 9741052308, "lat": 56.0214, "lon": 8.375818, "tags": {"amenity": "charging_station", "fee": "yes", "opening_hours": "24/7", "operator": "Clever", "name": "Clever ved Baettr Lem A/S", "addr:country": "DK", "socket:type2": "2", "socket:type2:output": "22.0 kW", "charging_station:output": "22.0 kW", "capacity": "8", "_source": "worldwide"}}, {"type": "node", "id": 9804858256, "lat": 56.086248, "lon": 8.508693, "tags": {"amenity": "charging_station", "fee": "yes", "opening_hours": "24/7", "operator": "Sperto", "name": "Sperto - GrillStedet", "addr:country": "DK", "socket:type2_combo": "2", "socket:type2_combo:output": "150.0 kW", "charging_station:output": "150.0 kW", "capacity": "2", "_source": "worldwide"}}, {"type": "node", "id": 9860611905, "lat": 56.700185, "lon": 8.221632, "tags": {"amenity": "charging_station", "fee": "yes", "opening_hours": "24/7", "operator": "Spirii", "name": "Thyborøn Havn - Spirii", "addr:country": "DK", "socket:type2_combo": "2", "socket:type2_combo:output": "150.0 kW", "charging_station:output": "150.0 kW", "capacity": "2", "_source": "worldwide"}}, {"type": "node", "id": 9860837277, "lat": 56.698148, "lon": 8.214916, "tags": {"amenity": "charging_station", "fee": "yes", "opening_hours": "24/7", "operator": "Clever", "name": "EUC Nordvest Fiskeriskolen", "addr:country": "DK", "socket:type2": "2", "socket:type2:output": "22.0 kW", "charging_station:output": "22.0 kW", "capacity": "2", "_source": "worldwide"}}, {"type": "node", "id": 9861741668, "lat": 56.550078, "lon": 8.304429, "tags": {"amenity": "charging_station", "fee": "yes", "opening_hours": "24/7", "operator": "Clever", "name": "Lemvig Havn - Clever", "addr:country": "DK", "socket:type2": "2", "socket:type2:output": "22 kW", "charging_station:output": "22 kW", "capacity": "2", "_source": "worldwide"}}, {"type": "node", "id": 10016656026, "lat": 56.547664, "lon": 8.297644, "tags": {"amenity": "charging_station", "addr:country": "DK", "_source": "worldwide"}}, {"type": "node", "id": 1492637634, "lat": 56.549654, "lon": 8.302891, "tags": {"amenity": "charging_station", "addr:country": "DK", "capacity": "8", "_source": "worldwide"}}, {"type": "node", "id": 9862040798, "lat": 56.343747, "lon": 8.344631, "tags": {"amenity": "charging_station", "fee": "yes", "opening_hours": "24/7", "operator": "Clever", "name": "Stationsvej Vemb - Clever", "addr:country": "DK", "socket:type2": "2", "socket:type2:output": "22.0 kW", "charging_station:output": "22.0 kW", "capacity": "2", "_source": "worldwide"}}, {"type": "node", "id": 1419251311, "lat": 56.34432, "lon": 8.342986, "tags": {"amenity": "charging_station", "brand": "OK", "operator": "OK", "name": "OK - OK", "addr:country": "DK", "socket:type2_combo": "2", "socket:type2_combo:output": "75.0 kW", "charging_station:output": "75.0 kW", "capacity": "2", "_source": "worldwide"}}, {"type": "node", "id": 1419315309, "lat": 56.343684, "lon": 8.342262, "tags": {"amenity": "charging_station", "operator": "Norlys", "name": "Ladestation Norlys", "addr:country": "DK", "socket:type2": "2", "socket:type2:output": "22.0 kW", "socket:type2_combo": "4", "socket:type2_combo:output": "50 kW", "charging_station:output": "50 kW", "capacity": "4", "_source": "worldwide"}}, {"type": "node", "id": 9888148846, "lat": 56.548591, "lon": 8.311233, "tags": {"amenity": "charging_station", "fee": "yes", "opening_hours": "24/7", "operator": "Monta", "name": "Hotel Lidenlund", "addr:country": "DK", "socket:type2": "2", "socket:type2:output": "11.0 kW", "charging_station:output": "11.0 kW", "capacity": "2", "_source": "worldwide"}}, {"type": "node", "id": 10016161516, "lat": 56.550292, "lon": 8.313773, "tags": {"amenity": "charging_station", "addr:country": "DK", "_source": "worldwide"}}, {"type": "node", "id": 1256612652, "lat": 56.548782, "lon": 8.306458, "tags": {"amenity": "charging_station", "brand": "OK", "operator": "OK", "name": "OK Lemvig, Kvickly", "addr:country": "DK", "socket:type2_combo": "4", "socket:type2_combo:output": "75.0 kW", "charging_station:output": "75.0 kW", "capacity": "4", "_source": "worldwide"}}, {"type": "node", "id": 1492637306, "lat": 56.549231, "lon": 8.307165, "tags": {"amenity": "charging_station", "fee": "yes", "opening_hours": "24/7", "operator": "Clever", "name": "Parkeringspladsen Engen - Clever", "addr:country": "DK", "socket:type2": "2", "socket:type2:output": "22.0 kW", "charging_station:output": "22.0 kW", "capacity": "4", "_source": "worldwide"}}, {"type": "node", "id": 1492683637, "lat": 56.549027, "lon": 8.31194, "tags": {"amenity": "charging_station", "access": "private", "addr:country": "DK", "socket:type2": "2", "socket:type2:output": "11.0 kW", "charging_station:output": "11.0 kW", "_source": "worldwide"}}, {"type": "node", "id": 9937527637, "lat": 56.081039, "lon": 8.270155, "tags": {"amenity": "charging_station", "fee": "yes", "opening_hours": "24/7", "operator": "Sperto", "name": "Alkjærparken", "addr:country": "DK", "socket:type2": "2", "socket:type2:output": "11.0 kW", "charging_station:output": "11.0 kW", "_source": "worldwide"}}, {"type": "node", "id": 9937588093, "lat": 56.092339, "lon": 8.272481, "tags": {"amenity": "charging_station", "fee": "yes", "opening_hours": "24/7", "operator": "ProStrøm", "name": "ProStrøm - Gartnervænget 2", "addr:country": "DK", "socket:type2": "2", "socket:type2:output": "11.0 kW", "charging_station:output": "11.0 kW", "capacity": "2", "_source": "worldwide"}}, {"type": "node", "id": 9951474202, "lat": 56.091826, "lon": 8.63321, "tags": {"amenity": "charging_station", "opening_hours": "24/7", "operator": "Sperto", "name": "Ladestation Sperto", "addr:country": "DK", "socket:type2": "2", "socket:type2:output": "11.0 kW", "charging_station:output": "11.0 kW", "_source": "worldwide"}}, {"type": "node", "id": 1371011892, "lat": 56.091606, "lon": 8.624901, "tags": {"amenity": "charging_station", "access": "yes", "operator": "EWII", "name": "Ladestation EWII", "addr:country": "DK", "socket:type2": "2", "socket:type2:output": "22.0 kW", "charging_station:output": "22.0 kW", "capacity": "2", "_source": "worldwide"}}, {"type": "node", "id": 9952359185, "lat": 56.493304, "lon": 8.591814, "tags": {"amenity": "charging_station", "opening_hours": "24/7", "operator": "Clever", "name": "Ladestation Clever", "addr:country": "DK", "socket:type2": "8", "socket:type2:output": "11.0 kW", "socket:type2_combo": "1", "socket:type2_combo:output": "50.0 kW", "socket:chademo": "1", "socket:chademo:output": "50.0 kW", "charging_station:output": "50.0 kW", "_source": "worldwide"}}, {"type": "node", "id": 9954272113, "lat": 56.37424, "lon": 8.121647, "tags": {"amenity": "charging_station", "addr:country": "DK", "capacity": "2", "_source": "worldwide"}}, {"type": "node", "id": 1377580673, "lat": 56.376163, "lon": 8.122468, "tags": {"amenity": "charging_station", "brand": "E.ON", "operator": "E.ON", "name": "E.ON Thorsminde Camping", "addr:country": "DK", "socket:type2_combo": "4", "socket:type2_combo:output": "200.0 kW", "charging_station:output": "200.0 kW", "capacity": "4", "_source": "worldwide"}}, {"type": "node", "id": 1377585920, "lat": 56.373784, "lon": 8.126468, "tags": {"amenity": "charging_station", "brand": "Norlys", "operator": "Norlys", "name": "Norlys - Norlys", "addr:country": "DK", "socket:type2": "6", "socket:type2:output": "22.0 kW", "charging_station:output": "22.0 kW", "capacity": "6", "_source": "worldwide"}}, {"type": "node", "id": 9955252595, "lat": 56.971213, "lon": 8.743, "tags": {"amenity": "charging_station", "operator": "Biltema", "name": "Ladestation Biltema", "addr:country": "DK", "socket:type2": "1", "socket:type2:output": "3.7 kW", "charging_station:output": "3.7 kW", "capacity": "1", "_source": "worldwide"}}, {"type": "node", "id": 13670340072, "lat": 56.969659, "lon": 8.736666, "tags": {"amenity": "charging_station", "operator": "Clever", "name": "Ladestation Clever", "addr:country": "DK", "_source": "worldwide"}}, {"type": "node", "id": 1303140880, "lat": 56.972373, "lon": 8.742147, "tags": {"amenity": "charging_station", "access": "yes", "brand": "Spirii", "opening_hours": "24/7", "operator": "Spirii", "name": "Thisted ladepark - Spirii", "addr:country": "DK", "socket:type2_combo": "4", "socket:type2_combo:output": "300.0 kW", "charging_station:output": "300.0 kW", "capacity": "4", "_source": "worldwide"}}, {"type": "node", "id": 9993632425, "lat": 56.447627, "lon": 8.721066, "tags": {"amenity": "charging_station", "access": "yes", "opening_hours": "24/7", "addr:country": "DK", "_source": "worldwide"}}, {"type": "node", "id": 9993659326, "lat": 56.527874, "lon": 8.565402, "tags": {"amenity": "charging_station", "access": "yes", "addr:country": "DK", "_source": "worldwide"}}, {"type": "node", "id": 9993666510, "lat": 56.489328, "lon": 8.592954, "tags": {"amenity": "charging_station", "access": "yes", "fee": "no", "opening_hours": "24/7", "addr:country": "DK", "authentication:none": "yes", "_source": "worldwide"}}, {"type": "node", "id": 1393203686, "lat": 56.490486, "lon": 8.597263, "tags": {"amenity": "charging_station", "operator": "Clever", "name": "Ladestation Clever", "addr:country": "DK", "socket:type2": "8", "socket:type2:output": "11.0 kW", "charging_station:output": "11.0 kW", "capacity": "8", "_source": "worldwide"}}, {"type": "node", "id": 1491293872, "lat": 56.488171, "lon": 8.598614, "tags": {"amenity": "charging_station", "operator": "Monta", "name": "Ladestation Monta", "addr:country": "DK", "socket:type2": "2", "socket:type2:output": "11.0 kW", "charging_station:output": "11.0 kW", "capacity": "2", "_source": "worldwide"}}, {"type": "node", "id": 9993670047, "lat": 56.70126, "lon": 8.646999, "tags": {"amenity": "charging_station", "access": "yes", "addr:country": "DK", "_source": "worldwide"}}, {"type": "node", "id": 10003021954, "lat": 56.092616, "lon": 8.249552, "tags": {"amenity": "charging_station", "addr:country": "DK", "_source": "worldwide"}}, {"type": "node", "id": 12082529876, "lat": 56.090948, "lon": 8.244342, "tags": {"amenity": "charging_station", "addr:country": "DK", "capacity": "4", "_source": "worldwide"}}, {"type": "node", "id": 1210591179, "lat": 56.091994, "lon": 8.242435, "tags": {"amenity": "charging_station", "brand": "Clever", "operator": "Clever", "name": "Netto Ringkøbing - Clever", "addr:country": "DK", "socket:type2": "1", "socket:type2:output": "50.0 kW", "socket:type2_combo": "3", "socket:type2_combo:output": "50.0 kW", "socket:chademo": "1", "socket:chademo:output": "63.0 kW", "charging_station:output": "63.0 kW", "capacity": "2", "_source": "worldwide"}}, {"type": "node", "id": 1257599679, "lat": 56.093868, "lon": 8.243675, "tags": {"amenity": "charging_station", "opening_hours": "24/7", "operator": "Shell Recharge", "name": "Shell Recharge Ringkøbing", "addr:country": "DK", "socket:type2_combo": "2", "socket:type2_combo:output": "150.0 kW", "charging_station:output": "150.0 kW", "capacity": "2", "_source": "worldwide"}}, {"type": "node", "id": 1373094432, "lat": 56.091496, "lon": 8.247449, "tags": {"amenity": "charging_station", "opening_hours": "24/7", "operator": "EWII", "name": "Ladestation EWII", "addr:country": "DK", "socket:type2": "6", "socket:type2:output": "22.0 kW", "charging_station:output": "22.0 kW", "capacity": "6", "_source": "worldwide"}}, {"type": "node", "id": 1383990661, "lat": 56.091317, "lon": 8.242877, "tags": {"amenity": "charging_station", "addr:country": "DK", "capacity": "6", "_source": "worldwide"}}, {"type": "node", "id": 10015587746, "lat": 56.136278, "lon": 8.967148, "tags": {"amenity": "charging_station", "access": "yes", "addr:country": "DK", "_source": "worldwide"}}, {"type": "node", "id": 11146437980, "lat": 56.136252, "lon": 8.970066, "tags": {"amenity": "charging_station", "addr:country": "DK", "capacity": "1", "_source": "worldwide"}}, {"type": "node", "id": 1395518471, "lat": 56.137317, "lon": 8.966229, "tags": {"amenity": "charging_station", "access": "yes", "brand": "Monta", "operator": "EWII Herning Kommune", "name": "EWII Herning Kommune - Monta", "addr:country": "DK", "socket:type2": "6", "socket:type2:output": "22.0 kW", "socket:type2_combo": "4", "socket:type2_combo:output": "240.0 kW", "charging_station:output": "240.0 kW", "capacity": "10", "_source": "worldwide"}}, {"type": "node", "id": 10015676625, "lat": 56.134411, "lon": 8.976066, "tags": {"amenity": "charging_station", "access": "yes", "addr:country": "DK", "authentication:none": "yes", "_source": "worldwide"}}, {"type": "node", "id": 10015677035, "lat": 56.132296, "lon": 8.901422, "tags": {"amenity": "charging_station", "access": "yes", "operator": "Per P. Cykler APS", "name": "Ladestation Per P. Cykler APS", "addr:country": "DK", "_source": "worldwide"}}, {"type": "node", "id": 10016176894, "lat": 56.781922, "lon": 8.283211, "tags": {"amenity": "charging_station", "addr:country": "DK", "_source": "worldwide"}}, {"type": "node", "id": 10016234974, "lat": 56.000576, "lon": 8.967939, "tags": {"amenity": "charging_station", "addr:country": "DK", "_source": "worldwide"}}, {"type": "node", "id": 10016643724, "lat": 56.376092, "lon": 8.615778, "tags": {"amenity": "charging_station", "addr:country": "DK", "_source": "worldwide"}}, {"type": "node", "id": 1319315328, "lat": 56.376185, "lon": 8.6221, "tags": {"amenity": "charging_station", "access": "yes", "fee": "yes", "brand": "Clever", "operator": "Clever", "name": "Clever - Clever", "addr:country": "DK", "socket:type2": "12", "socket:type2:output": "22.0 kW", "socket:type2_combo": "12", "socket:type2_combo:output": "300.0 kW", "charging_station:output": "300.0 kW", "capacity": "24", "_source": "worldwide"}}, {"type": "node", "id": 10055114219, "lat": 56.153262, "lon": 8.9321, "tags": {"amenity": "charging_station", "access": "yes", "fee": "yes", "network": "PowerFuel", "opening_hours": "24/7", "operator": "PowerFuel", "name": "Ladestation PowerFuel", "addr:country": "DK", "socket:type2": "2", "socket:type2:output": "22.0 kW", "charging_station:output": "22.0 kW", "capacity": "2", "_source": "worldwide"}}, {"type": "node", "id": 10781325940, "lat": 56.34784, "lon": 8.641858, "tags": {"amenity": "charging_station", "access": "yes", "brand": "Clever", "operator": "Clever", "name": "Clever - Clever", "addr:country": "DK", "capacity": "1", "_source": "worldwide"}}, {"type": "node", "id": 11020512376, "lat": 56.100428, "lon": 8.703058, "tags": {"amenity": "charging_station", "fee": "yes", "brand": "Shell Recharge", "opening_hours": "24/7", "operator": "Shell", "name": "SHELL Vorgod-Barde", "addr:country": "DK", "socket:type2_combo": "2", "socket:type2_combo:output": "150.0 kW", "charging_station:output": "150.0 kW", "capacity": "2", "_source": "worldwide"}}, {"type": "node", "id": 11020817358, "lat": 56.031602, "lon": 8.859729, "tags": {"amenity": "charging_station", "fee": "yes", "operator": "Shell Recharge", "name": "Shell Recharge - Shell Recharge Solutions", "addr:country": "DK", "socket:type2_combo": "2", "socket:type2_combo:output": "150.0 kW", "charging_station:output": "150.0 kW", "capacity": "2", "_source": "worldwide"}}, {"type": "node", "id": 11074162157, "lat": 56.096463, "lon": 8.809306, "tags": {"amenity": "charging_station", "access": "yes", "fee": "yes", "operator": "Monta", "name": "Monta - Jyllands Park Zoo", "addr:country": "DK", "socket:type2": "2", "socket:type2:output": "22.0 kW", "charging_station:output": "22.0 kW", "capacity": "2", "_source": "worldwide"}}, {"type": "node", "id": 11099945012, "lat": 56.781723, "lon": 8.23272, "tags": {"amenity": "charging_station", "access": "yes", "brand": "Clever", "operator": "Clever", "name": "Clever - Clever", "addr:country": "DK", "socket:type2": "2", "socket:type2:output": "22 kW", "socket:type2_combo": "2", "socket:type2_combo:output": "150.0 kW", "charging_station:output": "150.0 kW", "capacity": "2", "_source": "worldwide"}}, {"type": "node", "id": 11146480349, "lat": 56.13583, "lon": 8.975898, "tags": {"amenity": "charging_station", "addr:country": "DK", "_source": "worldwide"}}, {"type": "node", "id": 1389917941, "lat": 56.135222, "lon": 8.985217, "tags": {"amenity": "charging_station", "brand": "Circle K", "operator": "Circle K", "name": "Circle K", "addr:country": "DK", "socket:type2_combo": "4", "socket:type2_combo:output": "300.0 kW", "socket:chademo": "1", "socket:chademo:output": "60.0 kW", "charging_station:output": "300.0 kW", "capacity": "4", "_source": "worldwide"}}, {"type": "node", "id": 11146493961, "lat": 56.547294, "lon": 8.495742, "tags": {"amenity": "charging_station", "addr:country": "DK", "_source": "worldwide"}}, {"type": "node", "id": 11168795964, "lat": 56.361659, "lon": 8.621293, "tags": {"amenity": "charging_station", "brand": "Clever", "opening_hours": "24/7", "operator": "Clever", "name": "Nørreport centeret, Holstebro - Clever 22 kW", "addr:country": "DK", "socket:type2": "16", "socket:type2:output": "22.0 kW", "charging_station:output": "22.0 kW", "capacity": "16", "_source": "worldwide"}}, {"type": "node", "id": 1205119595, "lat": 56.361684, "lon": 8.620159, "tags": {"amenity": "charging_station", "brand": "Clever", "operator": "Clever", "name": "Nørreport centeret, Holstebro - Clever lynlader", "addr:country": "DK", "socket:type2_combo": "6", "socket:type2_combo:output": "300.0 kW", "charging_station:output": "300.0 kW", "capacity": "6", "_source": "worldwide"}}, {"type": "node", "id": 11178692928, "lat": 56.486961, "lon": 8.583876, "tags": {"amenity": "charging_station", "brand": "Spirii", "opening_hours": "24/7", "operator": "Spirii", "name": "EV-EL Struer - Spirii", "addr:country": "DK", "socket:type2_combo": "2", "socket:type2_combo:output": "240.0 kW", "charging_station:output": "240.0 kW", "capacity": "2", "_source": "worldwide"}}, {"type": "node", "id": 1302920379, "lat": 56.487286, "lon": 8.582387, "tags": {"amenity": "charging_station", "access": "yes", "fee": "yes", "brand": "Clever", "network": "Clever", "opening_hours": "24/7", "operator": "Clever", "name": "Netto Industrivej - Struer - Clever", "addr:country": "DK", "socket:type2_combo": "2", "socket:type2_combo:output": "150.0 kW", "charging_station:output": "150.0 kW", "capacity": "2", "_source": "worldwide"}}, {"type": "node", "id": 1321540664, "lat": 56.488927, "lon": 8.583325, "tags": {"amenity": "charging_station", "access": "yes", "brand": "Circle K", "opening_hours": "24/7", "operator": "Circle K", "name": "Circle K", "addr:country": "DK", "socket:type2_combo": "4", "socket:type2_combo:output": "400.0 kW", "socket:chademo": "1", "socket:chademo:output": "60.0 kW", "charging_station:output": "400.0 kW", "capacity": "4", "_source": "worldwide"}}, {"type": "node", "id": 1393172127, "lat": 56.487842, "lon": 8.582725, "tags": {"amenity": "charging_station", "brand": "Norlys", "operator": "Norlys", "name": "Norlys - Norlys", "addr:country": "DK", "socket:type2_combo": "4", "socket:type2_combo:output": "400.0 kW", "charging_station:output": "400.0 kW", "capacity": "4", "_source": "worldwide"}}, {"type": "node", "id": 11253221611, "lat": 56.492065, "lon": 8.584296, "tags": {"amenity": "charging_station", "addr:country": "DK", "capacity": "2", "_source": "worldwide"}}, {"type": "node", "id": 11500861924, "lat": 56.387443, "lon": 8.994251, "tags": {"amenity": "charging_station", "fee": "yes", "brand": "PowerGo", "operator": "Spirii", "name": "Spirii - Vejdirektoratet - Haderup (PowerGo)", "addr:country": "DK", "socket:type2_combo": "2", "socket:type2_combo:output": "240.0 kW", "charging_station:output": "240.0 kW", "capacity": "8", "_source": "worldwide"}}, {"type": "node", "id": 11541083783, "lat": 56.145291, "lon": 8.280521, "tags": {"amenity": "charging_station", "fee": "yes", "brand": "EWII", "operator": "Monta", "name": "Hee Skole - EWII", "addr:country": "DK", "socket:type2": "2", "socket:type2:output": "22.0 kW", "charging_station:output": "22.0 kW", "capacity": "2", "_source": "worldwide"}}, {"type": "node", "id": 11922230534, "lat": 56.749853, "lon": 8.421694, "tags": {"amenity": "charging_station", "access": "yes", "fee": "yes", "brand": "OK", "operator": "OK", "name": "OK - OK", "addr:country": "DK", "socket:type2_combo": "2", "socket:type2_combo:output": "75.0 kW", "charging_station:output": "75.0 kW", "capacity": "2", "_source": "worldwide"}}, {"type": "node", "id": 12037921334, "lat": 56.042819, "lon": 8.104983, "tags": {"amenity": "charging_station", "addr:country": "DK", "_source": "worldwide"}}, {"type": "node", "id": 12056559980, "lat": 56.510904, "lon": 8.581144, "tags": {"amenity": "charging_station", "operator": "Clever", "name": "Ladestation Clever", "addr:country": "DK", "socket:type2": "2", "socket:type2:output": "22.0 kW", "charging_station:output": "22.0 kW", "capacity": "2", "_source": "worldwide"}}, {"type": "node", "id": 12056586106, "lat": 56.511216, "lon": 8.583685, "tags": {"amenity": "charging_station", "operator": "CLEVER A/S", "name": "Ladestation CLEVER A/S", "addr:country": "DK", "capacity": "2", "_source": "worldwide"}}, {"type": "node", "id": 12076239710, "lat": 56.069143, "lon": 8.608932, "tags": {"amenity": "charging_station", "access": "yes", "brand": "EWII", "operator": "EWII", "name": "EWII - EWII", "addr:country": "DK", "socket:type2": "2", "socket:type2:output": "22.0 kW", "charging_station:output": "22.0 kW", "capacity": "2", "_source": "worldwide"}}, {"type": "node", "id": 12082883777, "lat": 56.763901, "lon": 8.81433, "tags": {"amenity": "charging_station", "name": "Monta", "addr:country": "DK", "socket:type2": "6", "socket:type2:output": "22 kW", "charging_station:output": "22 kW", "capacity": "6", "_source": "worldwide"}}, {"type": "node", "id": 12085938412, "lat": 56.760392, "lon": 8.818945, "tags": {"amenity": "charging_station", "brand": "Clever", "operator": "Clever", "name": "Clever - Clever", "addr:country": "DK", "socket:type2": "4", "socket:type2:output": "22.0 kW", "charging_station:output": "22.0 kW", "capacity": "4", "_source": "worldwide"}}, {"type": "node", "id": 12092263844, "lat": 56.763568, "lon": 8.863444, "tags": {"amenity": "charging_station", "operator": "E.ON", "name": "E.ON", "addr:country": "DK", "socket:type2": "2", "socket:type2:output": "22.0 kW", "charging_station:output": "22.0 kW", "capacity": "2", "_source": "worldwide"}}, {"type": "node", "id": 1225996940, "lat": 56.090637, "lon": 8.23992, "tags": {"amenity": "charging_station", "fee": "yes", "brand": "OK", "operator": "OK", "name": "OK Ringkøbing, SuperBrugsen", "addr:country": "DK", "socket:type2_combo": "4", "socket:type2_combo:output": "75.0 kW", "charging_station:output": "75.0 kW", "capacity": "4", "_source": "worldwide"}}, {"type": "node", "id": 1372904209, "lat": 56.088078, "lon": 8.246714, "tags": {"amenity": "charging_station", "fee": "yes", "opening_hours": "24/7", "operator": "EWII", "name": "Ladestation EWII", "addr:country": "DK", "socket:type2": "4", "socket:type2:output": "22.0 kW", "charging_station:output": "22.0 kW", "capacity": "4", "_source": "worldwide"}}, {"type": "node", "id": 1373125497, "lat": 56.088517, "lon": 8.240511, "tags": {"amenity": "charging_station", "operator": "EWII", "name": "Ladestation EWII", "addr:country": "DK", "socket:type2": "6", "socket:type2:output": "22.0 kW", "charging_station:output": "22.0 kW", "capacity": "6", "_source": "worldwide"}}, {"type": "node", "id": 1373149421, "lat": 56.087127, "lon": 8.242829, "tags": {"amenity": "charging_station", "operator": "EWII", "name": "Ladestation EWII", "addr:country": "DK", "socket:type2": "6", "socket:type2:output": "22.0 kW", "charging_station:output": "22.0 kW", "capacity": "6", "_source": "worldwide"}}, {"type": "node", "id": 1383990659, "lat": 56.090395, "lon": 8.241757, "tags": {"amenity": "charging_station", "addr:country": "DK", "_source": "worldwide"}}, {"type": "node", "id": 12136937251, "lat": 56.036263, "lon": 8.865711, "tags": {"amenity": "charging_station", "brand": "OK", "operator": "OK", "name": "OK - OK", "addr:country": "DK", "socket:type2_combo": "2", "socket:type2_combo:output": "240.0 kW", "charging_station:output": "240.0 kW", "capacity": "2", "_source": "worldwide"}}, {"type": "node", "id": 1281242695, "lat": 56.039476, "lon": 8.859837, "tags": {"amenity": "charging_station", "brand": "EWII", "operator": "Monta", "name": "Monta - EWII", "addr:country": "DK", "socket:type2": "6", "socket:type2:output": "22.0 kW", "charging_station:output": "22.0 kW", "capacity": "6", "_source": "worldwide"}}, {"type": "node", "id": 12338777401, "lat": 56.70232, "lon": 8.217187, "tags": {"amenity": "charging_station", "addr:country": "DK", "_source": "worldwide"}}, {"type": "node", "id": 13678588425, "lat": 56.705184, "lon": 8.213521, "tags": {"amenity": "charging_station", "access": "yes", "fee": "yes", "operator": "drivee ApS", "name": "Ladestation drivee ApS", "addr:country": "DK", "_source": "worldwide"}}, {"type": "node", "id": 12415670200, "lat": 56.793019, "lon": 8.852524, "tags": {"amenity": "charging_station", "brand": "Clever", "operator": "Clever", "name": "Clever", "addr:country": "DK", "socket:type2": "2", "socket:type2:output": "22.0 kW", "charging_station:output": "22.0 kW", "capacity": "2", "_source": "worldwide"}}, {"type": "node", "id": 1204241212, "lat": 56.792866, "lon": 8.853539, "tags": {"amenity": "charging_station", "brand": "Circle K", "opening_hours": "24/7", "operator": "Circle K", "name": "Circle K", "addr:country": "DK", "socket:type2_combo": "4", "socket:type2_combo:output": "300.0 kW", "charging_station:output": "300.0 kW", "capacity": "4", "_source": "worldwide"}}, {"type": "node", "id": 1304777611, "lat": 56.793337, "lon": 8.853752, "tags": {"amenity": "charging_station", "brand": "Clever", "operator": "Clever", "name": "Clever - Clever", "addr:country": "DK", "socket:type2_combo": "2", "socket:type2_combo:output": "150.0 kW", "charging_station:output": "150.0 kW", "capacity": "2", "_source": "worldwide"}}, {"type": "node", "id": 12495456543, "lat": 56.004998, "lon": 8.127713, "tags": {"amenity": "charging_station", "fee": "no", "opening_hours": "24/7", "operator": "Ringkøbing-Skjern Kommune", "name": "Troldbjerg elcykel ladeplads", "addr:country": "DK", "socket:schuko": "4", "socket:schuko:output": "2.3 kW", "charging_station:output": "2.3 kW", "capacity": "4", "_source": "worldwide"}}, {"type": "node", "id": 12542402857, "lat": 56.014472, "lon": 8.99371, "tags": {"amenity": "charging_station", "brand": "OK", "operator": "OK", "name": "OK - OK", "addr:country": "DK", "socket:type2_combo": "2", "socket:type2_combo:output": "75.0 kW", "charging_station:output": "75.0 kW", "capacity": "2", "_source": "worldwide"}}, {"type": "node", "id": 12734391069, "lat": 56.349863, "lon": 8.627527, "tags": {"amenity": "charging_station", "addr:country": "DK", "capacity": "2", "_source": "worldwide"}}, {"type": "node", "id": 13722318307, "lat": 56.34897, "lon": 8.626673, "tags": {"amenity": "charging_station", "brand": "Q8", "operator": "Q8", "name": "Q8 - Q8", "addr:country": "DK", "socket:type2_combo": "2", "socket:type2_combo:output": "200.0 kW", "charging_station:output": "200.0 kW", "capacity": "2", "_source": "worldwide"}}, {"type": "node", "id": 12752504626, "lat": 56.30585, "lon": 8.190348, "tags": {"amenity": "charging_station", "brand": "Norlys", "operator": "Norlys", "name": "Norlys - Norlys", "addr:country": "DK", "socket:type2": "6", "socket:type2:output": "22.0 kW", "charging_station:output": "22.0 kW", "capacity": "6", "_source": "worldwide"}}, {"type": "node", "id": 1377150223, "lat": 56.306014, "lon": 8.186105, "tags": {"amenity": "charging_station", "brand": "OK", "operator": "OK", "name": "OK - OK", "addr:country": "DK", "socket:type2_combo": "2", "socket:type2_combo:output": "75.0 kW", "charging_station:output": "75.0 kW", "capacity": "2", "_source": "worldwide"}}, {"type": "node", "id": 1377160849, "lat": 56.306395, "lon": 8.1866, "tags": {"amenity": "charging_station", "brand": "Monta", "operator": "Monta", "name": "Monta - Monta", "addr:country": "DK", "socket:type2": "2", "socket:type2:output": "22.0 kW", "charging_station:output": "22.0 kW", "capacity": "2", "_source": "worldwide"}}, {"type": "node", "id": 12803352611, "lat": 56.027796, "lon": 8.386689, "tags": {"amenity": "charging_station", "addr:country": "DK", "capacity": "2", "_source": "worldwide"}}, {"type": "node", "id": 12803373829, "lat": 56.026715, "lon": 8.390561, "tags": {"amenity": "charging_station", "addr:country": "DK", "capacity": "2", "_source": "worldwide"}}, {"type": "node", "id": 12813827277, "lat": 56.352494, "lon": 8.616884, "tags": {"amenity": "charging_station", "addr:country": "DK", "_source": "worldwide"}}, {"type": "node", "id": 12813827278, "lat": 56.356465, "lon": 8.613625, "tags": {"amenity": "charging_station", "addr:country": "DK", "_source": "worldwide"}}, {"type": "node", "id": 1303786337, "lat": 56.357023, "lon": 8.61516, "tags": {"amenity": "charging_station", "access": "yes", "brand": "Clever", "opening_hours": "24/7", "operator": "Clever", "name": "Netto Vestergade - Holstebro - Clever", "addr:country": "DK", "socket:type2_combo": "2", "socket:type2_combo:output": "150.0 kW", "charging_station:output": "150.0 kW", "capacity": "2", "_source": "worldwide"}}, {"type": "node", "id": 1303787447, "lat": 56.354948, "lon": 8.615691, "tags": {"amenity": "charging_station", "brand": "E.ON", "opening_hours": "24/7", "operator": "E.ON", "name": "E.ON", "addr:country": "DK", "socket:type2": "6", "socket:type2:output": "22.0 kW", "charging_station:output": "22.0 kW", "capacity": "6", "_source": "worldwide"}}, {"type": "node", "id": 1303832097, "lat": 56.355851, "lon": 8.615637, "tags": {"amenity": "charging_station", "brand": "Clever", "operator": "Clever", "name": "Clever - Clever", "addr:country": "DK", "socket:type2": "2", "socket:type2:output": "11.0 kW", "charging_station:output": "11.0 kW", "capacity": "8", "_source": "worldwide"}}, {"type": "node", "id": 12957894690, "lat": 56.890548, "lon": 8.74883, "tags": {"amenity": "charging_station", "brand": "Norlys", "opening_hours": "24/7", "operator": "Norlys", "name": "Norlys - Norlys", "addr:country": "DK", "socket:type2_combo": "2", "socket:type2_combo:output": "50.0 kW", "charging_station:output": "50.0 kW", "capacity": "2", "_source": "worldwide"}}, {"type": "node", "id": 12957916820, "lat": 56.921002, "lon": 8.864808, "tags": {"amenity": "charging_station", "brand": "Norlys", "operator": "Norlys", "name": "Norlys - Norlys", "addr:country": "DK", "socket:type2": "2", "socket:type2:output": "22.0 kW", "charging_station:output": "22.0 kW", "capacity": "2", "_source": "worldwide"}}, {"type": "node", "id": 13043051833, "lat": 56.118567, "lon": 8.11449, "tags": {"amenity": "charging_station", "fee": "no", "opening_hours": "24/7", "addr:country": "DK", "socket:schuko": "6", "socket:schuko:output": "2.3 kW", "charging_station:output": "2.3 kW", "_source": "worldwide"}}, {"type": "node", "id": 1377288788, "lat": 56.120748, "lon": 8.116228, "tags": {"amenity": "charging_station", "brand": "EWII", "operator": "EWII", "name": "EWII - EWII", "addr:country": "DK", "socket:type2": "2", "socket:type2:output": "22.0 kW", "socket:type2_combo": "4", "socket:type2_combo:output": "240.0 kW", "charging_station:output": "240.0 kW", "capacity": "6", "_source": "worldwide"}}, {"type": "node", "id": 13085086018, "lat": 56.698801, "lon": 8.204846, "tags": {"amenity": "charging_station", "access": "yes", "fee": "yes", "operator": "NORLYS", "name": "Ladestation NORLYS", "addr:country": "DK", "capacity": "22", "_source": "worldwide"}}, {"type": "node", "id": 13678579819, "lat": 56.695348, "lon": 8.205348, "tags": {"amenity": "charging_station", "fee": "yes", "brand": "Tesla", "name": "Tesla Destination Charger", "addr:country": "DK", "capacity": "2", "_source": "worldwide"}}, {"type": "node", "id": 13098443183, "lat": 56.76297, "lon": 8.867296, "tags": {"amenity": "charging_station", "brand": "Norlys", "operator": "Norlys", "name": "Norlys - Norlys", "addr:country": "DK", "socket:type2": "2", "socket:type2:output": "22.0 kW", "charging_station:output": "22.0 kW", "capacity": "2", "_source": "worldwide"}}, {"type": "node", "id": 13207912203, "lat": 56.153614, "lon": 8.895018, "tags": {"amenity": "charging_station", "brand": "E.ON Drive", "operator": "E.ON", "name": "E.ON - E.ON Drive", "addr:country": "DK", "socket:type2": "8", "socket:type2:output": "22.0 kW", "socket:type2_combo": "8", "socket:type2_combo:output": "300.0 kW", "charging_station:output": "300.0 kW", "capacity": "16", "_source": "worldwide"}}, {"type": "node", "id": 13241015501, "lat": 56.097113, "lon": 8.128294, "tags": {"amenity": "charging_station", "addr:country": "DK", "_source": "worldwide"}}, {"type": "node", "id": 13324210559, "lat": 56.110235, "lon": 8.976729, "tags": {"amenity": "charging_station", "brand": "Monta", "operator": "Monta", "name": "Hotel Lynggården - Monta", "addr:country": "DK", "socket:type2": "2", "socket:type2:output": "22.0 kW", "charging_station:output": "22.0 kW", "capacity": "2", "_source": "worldwide"}}, {"type": "node", "id": 1452819238, "lat": 56.108653, "lon": 8.978212, "tags": {"amenity": "charging_station", "fee": "yes", "brand": "Circle K", "opening_hours": "24/7", "operator": "Circle K", "name": "Circle K Lind", "addr:country": "DK", "socket:type2_combo": "4", "socket:type2_combo:output": "300.0 kW", "socket:chademo": "2", "socket:chademo:output": "60.0 kW", "charging_station:output": "300.0 kW", "capacity": "4", "_source": "worldwide"}}, {"type": "node", "id": 1452862576, "lat": 56.108724, "lon": 8.979526, "tags": {"amenity": "charging_station", "operator": "Uno-X", "name": "Ladestation Uno-X", "addr:country": "DK", "socket:type2": "1", "socket:type2:output": "22.0 kW", "charging_station:output": "22.0 kW", "capacity": "1", "_source": "worldwide"}}, {"type": "node", "id": 13484151968, "lat": 56.119192, "lon": 8.121697, "tags": {"amenity": "charging_station", "brand": "EWII", "operator": "EWII", "name": "EWII - EWII", "addr:country": "DK", "socket:type2": "4", "socket:type2:output": "22.0 kW", "socket:type2_combo": "2", "socket:type2_combo:output": "240.0 kW", "charging_station:output": "240.0 kW", "capacity": "6", "_source": "worldwide"}}, {"type": "node", "id": 1193280038, "lat": 56.120111, "lon": 8.121424, "tags": {"amenity": "charging_station", "fee": "yes", "brand": "Clever", "operator": "Clever", "name": "Clever - Lalandia Søndervig", "addr:country": "DK", "socket:type2": "8", "socket:type2:output": "22.0 kW", "charging_station:output": "22.0 kW", "capacity": "8", "_source": "worldwide"}}, {"type": "node", "id": 1262661156, "lat": 56.120531, "lon": 8.122208, "tags": {"amenity": "charging_station", "access": "yes", "fee": "yes", "brand": "Tesla Supercharger", "opening_hours": "24/7", "operator": "Tesla", "name": "Søndervig Supercharger", "addr:country": "DK", "socket:type2_combo": "12", "socket:type2_combo:output": "250.0 kW", "charging_station:output": "250.0 kW", "capacity": "12", "_source": "worldwide"}}, {"type": "node", "id": 1377272793, "lat": 56.119118, "lon": 8.119789, "tags": {"amenity": "charging_station", "brand": "Clever", "operator": "Clever", "name": "Clever - Clever", "addr:country": "DK", "socket:type2_combo": "6", "socket:type2_combo:output": "300.0 kW", "charging_station:output": "300.0 kW", "capacity": "6", "_source": "worldwide"}}, {"type": "node", "id": 13585217545, "lat": 56.601998, "lon": 8.731937, "tags": {"amenity": "charging_station", "addr:country": "DK", "_source": "worldwide"}}, {"type": "node", "id": 13609589612, "lat": 56.64521, "lon": 8.8089, "tags": {"amenity": "charging_station", "fee": "yes", "brand": "OK", "operator": "OK", "name": "OK - OK", "addr:country": "DK", "socket:type2_combo": "2", "socket:type2_combo:output": "75.0 kW", "charging_station:output": "75.0 kW", "capacity": "2", "_source": "worldwide"}}, {"type": "node", "id": 13629151220, "lat": 56.363763, "lon": 8.612348, "tags": {"amenity": "charging_station", "brand": "Circle K", "operator": "Circle K", "name": "Circle K - Circle K", "addr:country": "DK", "socket:type2_combo": "4", "socket:type2_combo:output": "400.0 kW", "charging_station:output": "400.0 kW", "capacity": "4", "_source": "worldwide"}}, {"type": "node", "id": 13664138123, "lat": 56.13619, "lon": 8.921967, "tags": {"amenity": "charging_station", "addr:country": "DK", "_source": "worldwide"}}, {"type": "node", "id": 13664172742, "lat": 56.352786, "lon": 8.605928, "tags": {"amenity": "charging_station", "operator": "OK", "name": "Ladestation OK", "addr:country": "DK", "_source": "worldwide"}}, {"type": "node", "id": 13664184442, "lat": 56.547502, "lon": 8.55135, "tags": {"amenity": "charging_station", "addr:country": "DK", "capacity": "4", "_source": "worldwide"}}, {"type": "node", "id": 13664184458, "lat": 56.137447, "lon": 8.897304, "tags": {"amenity": "charging_station", "addr:country": "DK", "_source": "worldwide"}}, {"type": "node", "id": 13664189320, "lat": 56.09295, "lon": 8.646353, "tags": {"amenity": "charging_station", "addr:country": "DK", "_source": "worldwide"}}, {"type": "node", "id": 13664190812, "lat": 56.035169, "lon": 8.714082, "tags": {"amenity": "charging_station", "addr:country": "DK", "_source": "worldwide"}}, {"type": "node", "id": 13664210194, "lat": 56.134866, "lon": 8.942493, "tags": {"amenity": "charging_station", "addr:country": "DK", "_source": "worldwide"}}, {"type": "node", "id": 13664273732, "lat": 56.132005, "lon": 8.987617, "tags": {"amenity": "charging_station", "addr:country": "DK", "_source": "worldwide"}}, {"type": "node", "id": 13664546727, "lat": 56.549454, "lon": 8.421066, "tags": {"amenity": "charging_station", "addr:country": "DK", "_source": "worldwide"}}, {"type": "node", "id": 1490967781, "lat": 56.54761, "lon": 8.418672, "tags": {"amenity": "charging_station", "addr:country": "DK", "_source": "worldwide"}}, {"type": "node", "id": 13664579817, "lat": 56.275114, "lon": 8.323599, "tags": {"amenity": "charging_station", "operator": "OK", "name": "Ladestation OK", "addr:country": "DK", "_source": "worldwide"}}, {"type": "node", "id": 13664628762, "lat": 56.460968, "lon": 8.975063, "tags": {"amenity": "charging_station", "addr:country": "DK", "_source": "worldwide"}}, {"type": "node", "id": 13677958837, "lat": 56.743049, "lon": 8.854857, "tags": {"amenity": "charging_station", "operator": "Clever", "name": "Ladestation Clever", "addr:country": "DK", "capacity": "4", "_source": "worldwide"}}, {"type": "node", "id": 13680274427, "lat": 56.095438, "lon": 8.281067, "tags": {"amenity": "charging_station", "fee": "yes", "operator": "Clever", "name": "Ladestation Clever", "addr:country": "DK", "socket:type2": "1", "socket:type2:output": "11.0 kW", "charging_station:output": "11.0 kW", "capacity": "2", "_source": "worldwide"}}, {"type": "node", "id": 13709272383, "lat": 56.639122, "lon": 8.81159, "tags": {"amenity": "charging_station", "operator": "Clever", "name": "Ladestation Clever", "addr:country": "DK", "_source": "worldwide"}}, {"type": "node", "id": 306582199, "lat": 56.376925, "lon": 8.621142, "tags": {"amenity": "charging_station", "access": "yes", "fee": "yes", "brand": "Clever", "operator": "Clever", "name": "Clever - Clever", "addr:country": "DK", "socket:type2_combo": "1", "socket:type2_combo:output": "50.0 kW", "socket:chademo": "1", "socket:chademo:output": "50.0 kW", "charging_station:output": "50.0 kW", "capacity": "2", "_source": "worldwide"}}, {"type": "node", "id": 1319745778, "lat": 56.376994, "lon": 8.620306, "tags": {"amenity": "charging_station", "access": "yes", "brand": "OK", "opening_hours": "24/7", "operator": "OK", "name": "OK - OK", "addr:country": "DK", "socket:type2_combo": "8", "socket:type2_combo:output": "50 kW", "charging_station:output": "50 kW", "capacity": "8", "_source": "worldwide"}}, {"type": "node", "id": 1319745779, "lat": 56.377479, "lon": 8.620035, "tags": {"amenity": "charging_station", "access": "yes", "brand": "Allego", "opening_hours": "24/7", "name": "Ladestation Allego", "addr:country": "DK", "socket:type2_combo": "4", "socket:type2_combo:output": "150.0 kW", "charging_station:output": "150.0 kW", "capacity": "4", "_source": "worldwide"}}, {"type": "node", "id": 856102643, "lat": 56.102216, "lon": 8.247065, "tags": {"amenity": "charging_station", "access": "yes", "operator": "Sperto", "name": "Ladestation Sperto", "addr:country": "DK", "socket:type2": "8", "socket:type2:output": "22.0 kW", "charging_station:output": "22.0 kW", "capacity": "8", "_source": "worldwide"}}, {"type": "node", "id": 1162763185, "lat": 56.196436, "lon": 8.298521, "tags": {"amenity": "charging_station", "operator": "Shell Recharge", "name": "Shell Recharge - Shell Recharge Solutions", "addr:country": "DK", "socket:type2_combo": "2", "socket:type2_combo:output": "150.0 kW", "charging_station:output": "150.0 kW", "capacity": "2", "_source": "worldwide"}}, {"type": "node", "id": 1176489434, "lat": 56.271283, "lon": 8.319116, "tags": {"amenity": "charging_station", "access": "yes", "fee": "yes", "opening_hours": "24/7", "operator": "Norlys", "name": "Norlys - ABC Ulfborg", "addr:country": "DK", "socket:type2_combo": "2", "socket:type2_combo:output": "150.0 kW", "charging_station:output": "150.0 kW", "capacity": "2", "_source": "worldwide"}}, {"type": "node", "id": 1442220976, "lat": 56.271533, "lon": 8.320687, "tags": {"amenity": "charging_station", "operator": "Clever", "name": "Ladestation Clever", "addr:country": "DK", "socket:type2_combo": "2", "socket:type2_combo:output": "150.0 kW", "charging_station:output": "150.0 kW", "capacity": "2", "_source": "worldwide"}}, {"type": "node", "id": 1179587405, "lat": 56.786989, "lon": 8.830202, "tags": {"amenity": "charging_station", "access": "yes", "fee": "yes", "brand": "Tesla Supercharger", "opening_hours": "24/7", "operator": "Tesla", "name": "Nykøbing Mors Supercharger", "addr:country": "DK", "socket:type2_combo": "8", "socket:type2_combo:output": "250.0 kW", "charging_station:output": "250.0 kW", "capacity": "8", "_source": "worldwide"}}, {"type": "node", "id": 1293047789, "lat": 56.788056, "lon": 8.827797, "tags": {"amenity": "charging_station", "fee": "yes", "brand": "Clever A/S", "opening_hours": "24/7", "operator": "Clever", "name": "Clever - Nykøbing Mors", "addr:country": "DK", "socket:type2_combo": "16", "socket:type2_combo:output": "300.0 kW", "charging_station:output": "300.0 kW", "capacity": "16", "_source": "worldwide"}}, {"type": "node", "id": 1304891819, "lat": 56.787948, "lon": 8.82907, "tags": {"amenity": "charging_station", "brand": "Norlys", "operator": "Norlys", "name": "Norlys - Norlys", "addr:country": "DK", "socket:type2_combo": "4", "socket:type2_combo:output": "400.0 kW", "charging_station:output": "400.0 kW", "capacity": "4", "_source": "worldwide"}}, {"type": "node", "id": 1193277675, "lat": 56.117853, "lon": 8.115833, "tags": {"amenity": "charging_station", "fee": "yes", "brand": "Norlys RAH service A/S", "opening_hours": "24/7", "operator": "Norlys", "name": "Norlys RAH service A/S- Meny Søndervig", "addr:country": "DK", "socket:type2": "6", "socket:type2:output": "22.0 kW", "socket:type2_combo": "4", "socket:type2_combo:output": "150.0 kW", "charging_station:output": "150.0 kW", "capacity": "10", "_source": "worldwide"}}, {"type": "node", "id": 1194065717, "lat": 56.156849, "lon": 8.96731, "tags": {"amenity": "charging_station", "access": "yes", "fee": "yes", "brand": "CloudCharge", "opening_hours": "24/7", "operator": "CloudCharge", "name": "CloudCharge - Bluefox", "addr:country": "DK", "socket:type2": "6", "socket:type2:output": "22.0 kW", "socket:type2_combo": "2", "socket:type2_combo:output": "100.0 kW", "charging_station:output": "100.0 kW", "capacity": "8", "_source": "worldwide"}}, {"type": "node", "id": 1204248348, "lat": 56.79416, "lon": 8.854263, "tags": {"amenity": "charging_station", "brand": "Clever", "opening_hours": "24/7", "operator": "Clever", "name": "Clever - Clever", "addr:country": "DK", "socket:type2_combo": "1", "socket:type2_combo:output": "50.0 kW", "socket:chademo": "1", "socket:chademo:output": "50.0 kW", "charging_station:output": "50.0 kW", "capacity": "2", "_source": "worldwide"}}, {"type": "node", "id": 1204252564, "lat": 56.799557, "lon": 8.839949, "tags": {"amenity": "charging_station", "brand": "Clever", "opening_hours": "24/7", "operator": "Clever", "name": "Clever - Clever", "addr:country": "DK", "socket:type2": "2", "socket:type2:output": "22.0 kW", "socket:type2_combo": "1", "socket:type2_combo:output": "50.0 kW", "socket:chademo": "1", "socket:chademo:output": "50.0 kW", "charging_station:output": "50.0 kW", "capacity": "4", "_source": "worldwide"}}, {"type": "node", "id": 1206360307, "lat": 56.480293, "lon": 8.606672, "tags": {"amenity": "charging_station", "brand": "Clever", "operator": "Clever", "name": "Bang og Olufsen Allé 1 - Clever", "addr:country": "DK", "socket:type2": "6", "socket:type2:output": "22.0 kW", "socket:type2_combo": "2", "socket:type2_combo:output": "150.0 kW", "charging_station:output": "150.0 kW", "capacity": "8", "_source": "worldwide"}}, {"type": "node", "id": 1208476076, "lat": 56.135672, "lon": 8.996505, "tags": {"amenity": "charging_station", "access": "no", "fee": "yes", "brand": "Clever", "operator": "Clever", "name": "Herning Centret - Clever", "addr:country": "DK", "socket:type2": "12", "socket:type2:output": "22.0 kW", "socket:type2_combo": "16", "socket:type2_combo:output": "300.0 kW", "charging_station:output": "300.0 kW", "capacity": "28", "_source": "worldwide"}}, {"type": "node", "id": 1212200817, "lat": 56.117498, "lon": 8.950409, "tags": {"amenity": "charging_station", "access": "yes", "fee": "yes", "operator": "Norlys", "name": "Norlys - MCH Arena", "addr:country": "DK", "socket:type2": "20", "socket:type2:output": "22.0 kW", "charging_station:output": "22.0 kW", "capacity": "20", "_source": "worldwide"}}, {"type": "node", "id": 1311101781, "lat": 56.11614, "lon": 8.953856, "tags": {"amenity": "charging_station", "access": "yes", "fee": "yes", "operator": "Norlys", "name": "MCH Arena - Norlys", "addr:country": "DK", "socket:type2": "28", "socket:type2:output": "22.0 kW", "charging_station:output": "22.0 kW", "capacity": "28", "_source": "worldwide"}}, {"type": "node", "id": 1212202760, "lat": 56.106294, "lon": 8.98571, "tags": {"amenity": "charging_station", "access": "yes", "fee": "yes", "operator": "Monta", "name": "Monta - Lind Hallen", "addr:country": "DK", "socket:type2": "2", "socket:type2:output": "22.0 kW", "charging_station:output": "22.0 kW", "capacity": "8", "_source": "worldwide"}}, {"type": "node", "id": 1452938317, "lat": 56.105142, "lon": 8.976575, "tags": {"amenity": "charging_station", "access": "yes", "brand": "Monta", "operator": "EWII", "name": "Lind Pleje & Aktivitetscenter EWII", "addr:country": "DK", "socket:type2": "4", "socket:type2:output": "22.0 kW", "charging_station:output": "22.0 kW", "capacity": "4", "_source": "worldwide"}}, {"type": "node", "id": 1213748907, "lat": 56.131158, "lon": 8.957738, "tags": {"amenity": "charging_station", "brand": "Norlys", "operator": "Norlys", "name": "Dæmningen 4 - Norlys", "addr:country": "DK", "socket:type2": "4", "socket:type2:output": "22.0 kW", "charging_station:output": "22.0 kW", "capacity": "4", "_source": "worldwide"}}, {"type": "node", "id": 1213800665, "lat": 56.132796, "lon": 8.93647, "tags": {"amenity": "charging_station", "access": "private", "addr:country": "DK", "_source": "worldwide"}}, {"type": "node", "id": 1214586731, "lat": 56.480283, "lon": 8.584719, "tags": {"amenity": "charging_station", "brand": "OK", "opening_hours": "24/7", "operator": "OK", "name": "OK - OK", "addr:country": "DK", "socket:type2_combo": "4", "socket:type2_combo:output": "300.0 kW", "charging_station:output": "300.0 kW", "capacity": "4", "_source": "worldwide"}}, {"type": "node", "id": 1393195017, "lat": 56.480003, "lon": 8.586164, "tags": {"amenity": "charging_station", "brand": "Clever", "operator": "Clever", "name": "Clever - Clever", "addr:country": "DK", "socket:type2": "2", "socket:type2:output": "22.0 kW", "charging_station:output": "22.0 kW", "capacity": "2", "_source": "worldwide"}}, {"type": "node", "id": 1281350250, "lat": 56.02787, "lon": 8.852763, "tags": {"amenity": "charging_station", "brand": "EWII", "operator": "Monta", "name": "Monta - EWII", "addr:country": "DK", "socket:type2_combo": "4", "socket:type2_combo:output": "50 kW", "charging_station:output": "50 kW", "capacity": "4", "_source": "worldwide"}}, {"type": "node", "id": 1282241401, "lat": 56.005455, "lon": 8.129899, "tags": {"amenity": "charging_station", "brand": "EWII", "operator": "EWII", "name": "EWII - EWII", "addr:country": "DK", "socket:type2": "2", "socket:type2:output": "22.0 kW", "socket:type2_combo": "4", "socket:type2_combo:output": "240.0 kW", "charging_station:output": "240.0 kW", "capacity": "6", "_source": "worldwide"}}, {"type": "node", "id": 1287776331, "lat": 56.373663, "lon": 8.118605, "tags": {"amenity": "charging_station", "brand": "Nordlys", "operator": "RAH", "name": "RAH - Nordlys", "addr:country": "DK", "socket:type2": "2", "socket:type2:output": "22.0 kW", "socket:type2_combo": "2", "socket:type2_combo:output": "150.0 kW", "charging_station:output": "150.0 kW", "capacity": "4", "_source": "worldwide"}}, {"type": "node", "id": 1302943423, "lat": 56.145164, "lon": 8.960804, "tags": {"amenity": "charging_station", "brand": "OK", "opening_hours": "24/7", "operator": "OK", "name": "OK - OK", "addr:country": "DK", "socket:type2": "4", "socket:type2:output": "22.0 kW", "socket:type2_combo": "2", "socket:type2_combo:output": "75.0 kW", "charging_station:output": "75.0 kW", "capacity": "6", "_source": "worldwide"}}, {"type": "node", "id": 1303143498, "lat": 56.957322, "lon": 8.706335, "tags": {"amenity": "charging_station", "access": "yes", "brand": "Circle K", "opening_hours": "24/7", "operator": "Circle K", "name": "Circle K Østerbakken, Thisted", "addr:country": "DK", "socket:type2_combo": "4", "socket:type2_combo:output": "400.0 kW", "socket:chademo": "2", "socket:chademo:output": "60.0 kW", "charging_station:output": "400.0 kW", "capacity": "4", "_source": "worldwide"}}, {"type": "node", "id": 1303285653, "lat": 56.644675, "lon": 8.984002, "tags": {"amenity": "charging_station", "access": "yes", "fee": "yes", "brand": "OK", "opening_hours": "24/7", "operator": "OK", "name": "OK Vester Lyby, Kåstrupvej", "addr:country": "DK", "socket:type2_combo": "4", "socket:type2_combo:output": "150.0 kW", "charging_station:output": "150.0 kW", "capacity": "4", "_source": "worldwide"}}, {"type": "node", "id": 1303292049, "lat": 56.613035, "lon": 8.880985, "tags": {"amenity": "charging_station", "brand": "OK", "name": "OK Balling, DagliBrugsen", "addr:country": "DK", "socket:type2_combo": "2", "socket:type2_combo:output": "75.0 kW", "charging_station:output": "75.0 kW", "capacity": "2", "_source": "worldwide"}}, {"type": "node", "id": 1303878523, "lat": 56.390491, "lon": 8.805458, "tags": {"amenity": "charging_station", "opening_hours": "24/7", "operator": "Shell Recharge", "name": "Shell Recharge - Shell Recharge Solutions", "addr:country": "DK", "socket:type2_combo": "2", "socket:type2_combo:output": "150.0 kW", "charging_station:output": "150.0 kW", "capacity": "2", "_source": "worldwide"}}, {"type": "node", "id": 1310632092, "lat": 56.049982, "lon": 8.105159, "tags": {"amenity": "charging_station", "fee": "no", "operator": "Ringkøbing-Skjern Kommune", "name": "Ladestation Ringkøbing-Skjern Kommune", "addr:country": "DK", "capacity": "6", "_source": "worldwide"}}, {"type": "node", "id": 1311155764, "lat": 56.123386, "lon": 8.947264, "tags": {"amenity": "charging_station", "brand": "Monta", "operator": "Dansk Mjød", "name": "Dansk Mjød - Monta", "addr:country": "DK", "socket:type2_combo": "6", "socket:type2_combo:output": "124.0 kW", "charging_station:output": "124.0 kW", "capacity": "6", "_source": "worldwide"}}, {"type": "node", "id": 1490938667, "lat": 56.120871, "lon": 8.946979, "tags": {"amenity": "charging_station", "operator": "Norlys", "name": "Ladestation Norlys", "addr:country": "DK", "socket:type2": "42", "socket:type2:output": "22.0 kW", "charging_station:output": "22.0 kW", "capacity": "42", "_source": "worldwide"}}, {"type": "node", "id": 1319939118, "lat": 56.364352, "lon": 8.67293, "tags": {"amenity": "charging_station", "access": "yes", "brand": "Uno-X", "opening_hours": "24/7", "operator": "Uno-X", "name": "Uno-X", "addr:country": "DK", "socket:type2_combo": "2", "socket:type2_combo:output": "300.0 kW", "charging_station:output": "300.0 kW", "capacity": "4", "_source": "worldwide"}}, {"type": "node", "id": 1350325130, "lat": 56.753276, "lon": 8.415753, "tags": {"amenity": "charging_station", "brand": "E.ON Drive", "operator": "E.ON", "name": "E.ON - E.ON Drive", "addr:country": "DK", "socket:type2": "2", "socket:type2:output": "22.0 kW", "charging_station:output": "22.0 kW", "capacity": "2", "_source": "worldwide"}}, {"type": "node", "id": 1350467811, "lat": 56.017824, "lon": 8.123643, "tags": {"amenity": "charging_station", "operator": "EWII", "name": "Ladestation EWII", "addr:country": "DK", "socket:type2": "2", "socket:type2:output": "22.0 kW", "charging_station:output": "22.0 kW", "capacity": "2", "_source": "worldwide"}}, {"type": "node", "id": 1371027267, "lat": 56.090176, "lon": 8.62873, "tags": {"amenity": "charging_station", "access": "yes", "operator": "EWII", "name": "Ladestation EWII", "addr:country": "DK", "socket:type2": "2", "socket:type2:output": "22.0 kW", "charging_station:output": "22.0 kW", "capacity": "2", "_source": "worldwide"}}, {"type": "node", "id": 1371228151, "lat": 56.091163, "lon": 8.610954, "tags": {"amenity": "charging_station", "access": "yes", "operator": "EWII", "name": "Ladestation EWII", "addr:country": "DK", "socket:type2": "2", "socket:type2:output": "22.0 kW", "charging_station:output": "22.0 kW", "capacity": "2", "_source": "worldwide"}}, {"type": "node", "id": 1372976285, "lat": 56.090589, "lon": 8.252431, "tags": {"amenity": "charging_station", "opening_hours": "24/7", "operator": "EWII", "name": "Ladestation EWII", "addr:country": "DK", "socket:type2": "2", "socket:type2:output": "22.0 kW", "socket:type2_combo": "2", "socket:type2_combo:output": "50 kW", "socket:chademo": "2", "socket:chademo:output": "50 kW", "charging_station:output": "50 kW", "capacity": "2", "_source": "worldwide"}}, {"type": "node", "id": 1373099771, "lat": 56.090335, "lon": 8.261795, "tags": {"amenity": "charging_station", "operator": "EWII", "name": "Ladestation EWII", "addr:country": "DK", "capacity": "4", "_source": "worldwide"}}, {"type": "node", "id": 1377247257, "lat": 56.257232, "lon": 8.139992, "tags": {"amenity": "charging_station", "brand": "E.ON", "operator": "E.ON", "name": "E.ON - E.ON", "addr:country": "DK", "socket:type2": "4", "socket:type2:output": "22.0 kW", "socket:type2_combo": "2", "socket:type2_combo:output": "50.0 kW", "charging_station:output": "50.0 kW", "capacity": "6", "_source": "worldwide"}}, {"type": "node", "id": 1377264554, "lat": 56.257244, "lon": 8.135015, "tags": {"amenity": "charging_station", "brand": "EWII", "operator": "EWII", "name": "Vedersø Klit Strandparking", "addr:country": "DK", "socket:type2": "2", "socket:type2:output": "22.0 kW", "socket:type2_combo": "2", "socket:type2_combo:output": "240.0 kW", "charging_station:output": "240.0 kW", "capacity": "4", "_source": "worldwide"}}, {"type": "node", "id": 1382116657, "lat": 56.569484, "lon": 8.998027, "tags": {"amenity": "charging_station", "brand": "OK a.m.b.a.", "operator": "OK", "name": "OK - OK a.m.b.a.", "addr:country": "DK", "socket:type2_combo": "8", "socket:type2_combo:output": "240.0 kW", "charging_station:output": "240.0 kW", "capacity": "8", "_source": "worldwide"}}, {"type": "node", "id": 1390204429, "lat": 56.088756, "lon": 8.617065, "tags": {"amenity": "charging_station", "operator": "EWII", "name": "ABC Videbæk", "addr:country": "DK", "socket:type2": "2", "socket:type2:output": "22.0 kW", "socket:type2_combo": "2", "socket:type2_combo:output": "400.0 kW", "socket:chademo": "2", "socket:chademo:output": "50 kW", "charging_station:output": "400.0 kW", "capacity": "4", "_source": "worldwide"}}, {"type": "node", "id": 1393184298, "lat": 56.485036, "lon": 8.583328, "tags": {"amenity": "charging_station", "access": "yes", "brand": "Norlys", "operator": "Norlys", "name": "Norlys - Norlys", "addr:country": "DK", "socket:type2_combo": "4", "socket:type2_combo:output": "300.0 kW", "charging_station:output": "300.0 kW", "capacity": "4", "_source": "worldwide"}}, {"type": "node", "id": 1409824116, "lat": 56.882737, "lon": 8.626053, "tags": {"amenity": "charging_station", "access": "yes", "fee": "yes", "brand": "OK", "operator": "OK", "name": "OK - OK", "addr:country": "DK", "socket:type2_combo": "2", "socket:type2_combo:output": "50 kW", "charging_station:output": "50 kW", "capacity": "2", "_source": "worldwide"}}, {"type": "node", "id": 1409936213, "lat": 56.8822, "lon": 8.623526, "tags": {"amenity": "charging_station", "operator": "Clever", "name": "Ladestation Clever", "addr:country": "DK", "socket:type2": "2", "socket:type2:output": "22.0 kW", "charging_station:output": "22.0 kW", "capacity": "2", "_source": "worldwide"}}, {"type": "node", "id": 1410121825, "lat": 56.950128, "lon": 8.374125, "tags": {"amenity": "charging_station", "brand": "Clever", "operator": "Clever", "name": "Clever - Clever", "addr:country": "DK", "socket:type2": "6", "socket:type2:output": "22.0 kW", "socket:type2_combo": "2", "socket:type2_combo:output": "150.0 kW", "charging_station:output": "150.0 kW", "capacity": "8", "_source": "worldwide"}}, {"type": "node", "id": 1410222450, "lat": 56.923173, "lon": 8.867862, "tags": {"amenity": "charging_station", "brand": "Norlys", "operator": "Norlys", "name": "Norlys - Norlys", "addr:country": "DK", "socket:type2_combo": "2", "socket:type2_combo:output": "50.0 kW", "charging_station:output": "50.0 kW", "capacity": "2", "_source": "worldwide"}}, {"type": "node", "id": 1410285183, "lat": 56.940962, "lon": 8.867072, "tags": {"amenity": "charging_station", "operator": "Norlys", "name": "Ladestation Norlys", "addr:country": "DK", "socket:type2": "2", "socket:type2:output": "22.0 kW", "socket:type2_combo": "2", "socket:type2_combo:output": "50.0 kW", "charging_station:output": "50.0 kW", "capacity": "4", "_source": "worldwide"}}, {"type": "node", "id": 1419380153, "lat": 56.148277, "lon": 8.960848, "tags": {"amenity": "charging_station", "operator": "EWII", "name": "Ladestation EWII", "addr:country": "DK", "socket:type2": "2", "socket:type2:output": "22.0 kW", "socket:type2_combo": "2", "socket:type2_combo:output": "50 kW", "charging_station:output": "50 kW", "capacity": "2", "_source": "worldwide"}}, {"type": "node", "id": 1421568382, "lat": 56.00361, "lon": 8.601212, "tags": {"amenity": "charging_station", "operator": "EWII", "name": "Ladestation EWII", "addr:country": "DK", "socket:type2": "2", "socket:type2:output": "22.0 kW", "charging_station:output": "22.0 kW", "capacity": "2", "_source": "worldwide"}}, {"type": "node", "id": 1421581896, "lat": 56.117523, "lon": 8.176093, "tags": {"amenity": "charging_station", "brand": "norlys", "operator": "Norlys", "name": "Norlys - Holmsland Brugsforening", "addr:country": "DK", "socket:type2": "4", "socket:type2:output": "22.0 kW", "socket:type2_combo": "2", "socket:type2_combo:output": "150.0 kW", "charging_station:output": "150.0 kW", "capacity": "8", "_source": "worldwide"}}, {"type": "node", "id": 1424652555, "lat": 56.701593, "lon": 8.989603, "tags": {"amenity": "charging_station", "access": "yes", "brand": "Ok", "operator": "OK", "name": "OK - Ok", "addr:country": "DK", "socket:type2_combo": "2", "socket:type2_combo:output": "75.0 kW", "charging_station:output": "75.0 kW", "capacity": "2", "_source": "worldwide"}}, {"type": "node", "id": 1424840987, "lat": 56.266095, "lon": 8.798991, "tags": {"amenity": "charging_station", "access": "yes", "addr:country": "DK", "capacity": "8", "_source": "worldwide"}}, {"type": "node", "id": 1424970657, "lat": 56.570141, "lon": 8.996284, "tags": {"amenity": "charging_station", "brand": "Norlys", "operator": "Norlys", "name": "Norlys - Norlys", "addr:country": "DK", "socket:type2": "6", "socket:type2:output": "22.0 kW", "charging_station:output": "22.0 kW", "capacity": "6", "_source": "worldwide"}}, {"type": "node", "id": 1426753329, "lat": 56.136665, "lon": 8.951985, "tags": {"amenity": "charging_station", "operator": "EWII", "name": "Ladestation EWII", "addr:country": "DK", "socket:type2": "2", "socket:type2:output": "22.0 kW", "charging_station:output": "22.0 kW", "capacity": "4", "_source": "worldwide"}}, {"type": "node", "id": 1426753342, "lat": 56.136699, "lon": 8.952878, "tags": {"amenity": "charging_station", "access": "private", "name": "Forbeholdt hjemmepleje", "addr:country": "DK", "socket:type2": "10", "socket:type2:output": "22 kW", "charging_station:output": "22 kW", "capacity": "10", "_source": "worldwide"}}, {"type": "node", "id": 1427371594, "lat": 56.128065, "lon": 8.887714, "tags": {"amenity": "charging_station", "access": "yes", "brand": "Monta", "operator": "EWII", "name": "Snejbjerg Skole", "addr:country": "DK", "socket:type2": "8", "socket:type2:output": "22.0 kW", "charging_station:output": "22.0 kW", "capacity": "8", "_source": "worldwide"}}, {"type": "node", "id": 1431254252, "lat": 56.136209, "lon": 8.998832, "tags": {"amenity": "charging_station", "fee": "yes", "brand": "Tesla Supercharger", "network": "Tesla Supercharger", "opening_hours": "24/7", "operator": "Tesla", "name": "Tesla Supercharger - Herning Centret", "addr:country": "DK", "socket:type2_combo": "20", "socket:type2_combo:output": "250.0 kW", "charging_station:output": "250.0 kW", "capacity": "20", "_source": "worldwide"}}, {"type": "node", "id": 1431619686, "lat": 56.789495, "lon": 8.827911, "tags": {"amenity": "charging_station", "operator": "OK", "name": "OK Nykøbing Mors, Vester Fald", "addr:country": "DK", "socket:type2_combo": "6", "socket:type2_combo:output": "400.0 kW", "charging_station:output": "400.0 kW", "capacity": "6", "_source": "worldwide"}}, {"type": "node", "id": 1433821732, "lat": 56.125411, "lon": 8.941531, "tags": {"amenity": "charging_station", "brand": "Clever", "operator": "Clever", "name": "Clever - Clever", "addr:country": "DK", "socket:type2": "4", "socket:type2:output": "22.0 kW", "socket:type2_combo": "2", "socket:type2_combo:output": "50.0 kW", "charging_station:output": "50.0 kW", "capacity": "6", "_source": "worldwide"}}, {"type": "node", "id": 1434429058, "lat": 56.538795, "lon": 8.305303, "tags": {"amenity": "charging_station", "access": "yes", "brand": "Norlys", "operator": "Norlys", "name": "Norlys - Norlys", "addr:country": "DK", "socket:type2": "4", "socket:type2:output": "22.0 kW", "socket:type2_combo": "2", "socket:type2_combo:output": "400.0 kW", "charging_station:output": "400.0 kW", "capacity": "6", "_source": "worldwide"}}, {"type": "node", "id": 1434431105, "lat": 56.538569, "lon": 8.307596, "tags": {"amenity": "charging_station", "fee": "yes", "opening_hours": "24/7", "operator": "Monta", "name": "Padel Sport Lemvig - Monta", "addr:country": "DK", "socket:type2": "4", "socket:type2:output": "11.0 kW", "charging_station:output": "11.0 kW", "capacity": "4", "_source": "worldwide"}}, {"type": "node", "id": 1491326077, "lat": 56.573926, "lon": 8.13802, "tags": {"amenity": "charging_station", "brand": "EWII", "operator": "EWII", "name": "EWII - EWII", "addr:country": "DK", "socket:type2_combo": "4", "socket:type2_combo:output": "240.0 kW", "charging_station:output": "240.0 kW", "capacity": "4", "_source": "worldwide"}}, {"type": "node", "id": 1491335104, "lat": 56.343268, "lon": 8.35252, "tags": {"amenity": "charging_station", "operator": "Clever", "name": "Ladestation Clever", "addr:country": "DK", "socket:type2": "2", "socket:type2:output": "22.0 kW", "charging_station:output": "22.0 kW", "capacity": "2", "_source": "worldwide"}}, {"type": "node", "id": 1492686222, "lat": 56.365788, "lon": 8.636617, "tags": {"amenity": "charging_station", "fee": "yes", "brand": "Circle K", "opening_hours": "24/7", "operator": "Circle K", "name": "Circle K", "addr:country": "DK", "socket:type2_combo": "2", "socket:type2_combo:output": "300.0 kW", "socket:chademo": "1", "socket:chademo:output": "60.0 kW", "charging_station:output": "300.0 kW", "capacity": "4", "_source": "worldwide"}}, {"type": "node", "id": 1498673463, "lat": 56.199361, "lon": 8.56786, "tags": {"amenity": "charging_station", "operator": "EWII", "name": "Ladestation EWII", "addr:country": "DK", "socket:type2": "4", "socket:type2:output": "22.0 kW", "charging_station:output": "22.0 kW", "capacity": "4", "_source": "worldwide"}}, {"type": "node", "id": 1499087917, "lat": 56.17631, "lon": 8.837282, "tags": {"amenity": "charging_station", "brand": "Monta", "operator": "EWII", "name": "Skibbild-Nøvling Idrætscentret", "addr:country": "DK", "socket:type2": "4", "socket:type2:output": "22.0 kW", "charging_station:output": "22.0 kW", "capacity": "4", "_source": "worldwide"}}, {"type": "node", "id": 1499090820, "lat": 56.21331, "lon": 8.851525, "tags": {"amenity": "charging_station", "access": "yes", "operator": "EWII", "name": "Ladestation EWII", "addr:country": "DK", "socket:type2": "4", "socket:type2:output": "22.0 kW", "charging_station:output": "22.0 kW", "capacity": "4", "_source": "worldwide"}}, {"type": "node", "id": 1499094114, "lat": 56.195921, "lon": 8.773203, "tags": {"amenity": "charging_station", "access": "yes", "brand": "EWII", "operator": "EWII", "name": "EWII - EWII", "addr:country": "DK", "socket:type2": "4", "socket:type2:output": "22.0 kW", "charging_station:output": "22.0 kW", "capacity": "4", "_source": "worldwide"}}, {"type": "node", "id": 1499101239, "lat": 56.194873, "lon": 8.770651, "tags": {"amenity": "charging_station", "operator": "EWII", "name": "Vildbjerg Sports- og Kulturcenter", "addr:country": "DK", "socket:type2": "8", "socket:type2:output": "22.0 kW", "charging_station:output": "22.0 kW", "capacity": "8", "_source": "worldwide"}}]}