{"id": "60-8", "latMin": 60, "lonMin": 8, "latMax": 61, "lonMax": 9, "generated": "2026-04-16T18:39:08.790Z", "count": 32, "pois": [{"type": "node", "id": 1770690605, "lat": 60.695944, "lon": 8.929951, "tags": {"amenity": "charging_station", "access": "yes", "opening_hours": "24/7", "operator": "Gol Auto AS", "name": "Gol Auto", "addr:country": "NO", "socket:chademo": "1", "socket:chademo:output": "50.0 kW", "charging_station:output": "50.0 kW", "capacity": "1", "_source": "worldwide"}}, {"type": "node", "id": 2871097495, "lat": 60.702285, "lon": 8.986203, "tags": {"amenity": "charging_station", "access": "yes", "fee": "yes", "brand": "Tesla Supercharger", "opening_hours": "24/7", "operator": "Tesla", "name": "Tesla Gol Supercharger", "addr:country": "NO", "socket:type2_combo": "8", "socket:type2_combo:output": "150.0 kW", "socket:tesla_supercharger": "8", "socket:tesla_supercharger:output": "150.0 kW", "charging_station:output": "150.0 kW", "capacity": "8", "_source": "worldwide"}}, {"type": "node", "id": 12777009526, "lat": 60.702234, "lon": 8.983951, "tags": {"amenity": "charging_station", "access": "yes", "brand": "St1 Charge", "name": "St1 Lading Gol", "addr:country": "NO", "socket:type2_combo": "6", "socket:type2_combo:output": "400.0 kW", "charging_station:output": "400.0 kW", "capacity": "6", "_source": "worldwide"}}, {"type": "node", "id": 5807444569, "lat": 60.849512, "lon": 8.615409, "tags": {"amenity": "charging_station", "access": "yes", "brand": "Recharge", "opening_hours": "24/7", "name": "Recharge Kiwi Hemsedal", "addr:country": "NO", "socket:type2_combo": "2", "socket:type2_combo:output": "50.0 kW", "socket:chademo": "2", "socket:chademo:output": "50.0 kW", "charging_station:output": "50.0 kW", "capacity": "2", "_source": "worldwide"}}, {"type": "node", "id": 12734689150, "lat": 60.850569, "lon": 8.614667, "tags": {"amenity": "charging_station", "fee": "yes", "operator": "Ragde Charge", "name": "Ragde Charge Kiwi Hemsedal", "addr:country": "NO", "socket:type2_combo": "6", "socket:type2_combo:output": "240.0 kW", "charging_station:output": "240.0 kW", "capacity": "6", "_source": "worldwide"}}, {"type": "node", "id": 6024217331, "lat": 60.862079, "lon": 8.554326, "tags": {"amenity": "charging_station", "access": "yes", "brand": "Mer", "name": "Mer Hemsedal", "addr:country": "NO", "socket:type2_combo": "3", "socket:type2_combo:output": "50.0 kW", "socket:chademo": "3", "socket:chademo:output": "50.0 kW", "charging_station:output": "50.0 kW", "capacity": "3", "_source": "worldwide"}}, {"type": "node", "id": 12734696141, "lat": 60.862417, "lon": 8.555447, "tags": {"amenity": "charging_station", "access": "yes", "fee": "yes", "brand": "Tesla Supercharger", "opening_hours": "24/7", "operator": "Tesla", "name": "Tesla Hemsedal Supercharger", "addr:country": "NO", "socket:type2_combo": "11", "socket:type2_combo:output": "250.0 kW", "charging_station:output": "250.0 kW", "capacity": "11", "_source": "worldwide"}}, {"type": "node", "id": 6024217347, "lat": 60.533197, "lon": 8.205027, "tags": {"amenity": "charging_station", "access": "yes", "brand": "Mer", "opening_hours": "24/7", "name": "Mer Geilo", "addr:country": "NO", "socket:type2": "1", "socket:type2:output": "22.0 kW", "socket:type2_combo": "1", "socket:type2_combo:output": "50.0 kW", "socket:chademo": "1", "socket:chademo:output": "50.0 kW", "charging_station:output": "50.0 kW", "capacity": "2", "_source": "worldwide"}}, {"type": "node", "id": 6024217349, "lat": 60.26623, "lon": 8.94619, "tags": {"amenity": "charging_station", "access": "yes", "brand": "Recharge", "opening_hours": "24/7", "operator": "Recharge", "name": "Recharge Kiwi Rødberg", "addr:country": "NO", "socket:type2_combo": "5", "socket:type2_combo:output": "225.0 kW", "socket:chademo": "1", "socket:chademo:output": "50.0 kW", "charging_station:output": "225.0 kW", "capacity": "5", "_source": "worldwide"}}, {"type": "node", "id": 6024217353, "lat": 60.411332, "lon": 8.441447, "tags": {"amenity": "charging_station", "access": "yes", "brand": "Recharge", "opening_hours": "24/7", "name": "Recharge Joker Dagali", "addr:country": "NO", "socket:type2": "2", "socket:type2:output": "22.0 kW", "socket:type2_combo": "2", "socket:type2_combo:output": "50.0 kW", "socket:chademo": "1", "socket:chademo:output": "50.0 kW", "charging_station:output": "50.0 kW", "capacity": "4", "_source": "worldwide"}}, {"type": "node", "id": 11173760417, "lat": 60.535491, "lon": 8.220609, "tags": {"amenity": "charging_station", "access": "yes", "brand": "Circle K", "name": "Circle K Geilo", "addr:country": "NO", "socket:type2_combo": "4", "socket:type2_combo:output": "300.0 kW", "socket:chademo": "1", "socket:chademo:output": "62.0 kW", "charging_station:output": "300.0 kW", "capacity": "4", "_source": "worldwide"}}, {"type": "node", "id": 6024217359, "lat": 60.86277, "lon": 8.51567, "tags": {"amenity": "charging_station", "access": "yes", "opening_hours": "24/7", "operator": "Lade i Norge", "name": "Skistar skisenter", "addr:country": "NO", "socket:type2": "4", "socket:type2:output": "11.0 kW", "charging_station:output": "11.0 kW", "capacity": "4", "_source": "worldwide"}}, {"type": "node", "id": 6024217362, "lat": 60.701253, "lon": 8.937768, "tags": {"amenity": "charging_station", "access": "yes", "brand": "Recharge", "opening_hours": "24/7", "name": "Recharge Kremmartunet", "addr:country": "NO", "socket:type2_combo": "2", "socket:type2_combo:output": "50.0 kW", "socket:chademo": "2", "socket:chademo:output": "50.0 kW", "charging_station:output": "50.0 kW", "capacity": "2", "_source": "worldwide"}}, {"type": "node", "id": 6024217368, "lat": 60.702436, "lon": 8.935401, "tags": {"amenity": "charging_station", "access": "yes", "fee": "yes", "brand": "Recharge", "opening_hours": "24/7", "operator": "Recharge", "name": "Recharge Coop Extra Gol", "addr:country": "NO", "socket:type2": "2", "socket:type2:output": "22.0 kW", "charging_station:output": "22.0 kW", "capacity": "2", "_source": "worldwide"}}, {"type": "node", "id": 6025956839, "lat": 60.99643, "lon": 8.98973, "tags": {"amenity": "charging_station", "access": "yes", "brand": "Kople", "opening_hours": "24/7", "name": "Kople Joker Vaset", "addr:country": "NO", "socket:type2": "2", "socket:type2:output": "22.0 kW", "socket:type2_combo": "3", "socket:type2_combo:output": "180.0 kW", "socket:chademo": "1", "socket:chademo:output": "62.0 kW", "charging_station:output": "180.0 kW", "capacity": "5", "_source": "worldwide"}}, {"type": "node", "id": 6780341783, "lat": 60.701774, "lon": 8.962111, "tags": {"amenity": "charging_station", "access": "yes", "brand": "Eviny", "name": "Eviny Rema 1000 Gol", "addr:country": "NO", "socket:type2": "3", "socket:type2:output": "22.0 kW", "socket:type2_combo": "9", "socket:type2_combo:output": "350.0 kW", "socket:chademo": "5", "socket:chademo:output": "62.0 kW", "charging_station:output": "350.0 kW", "capacity": "12", "_source": "worldwide"}}, {"type": "node", "id": 11173760416, "lat": 60.702323, "lon": 8.943383, "tags": {"amenity": "charging_station", "access": "yes", "brand": "Circle K", "name": "Circle K Gol", "addr:country": "NO", "socket:type2_combo": "8", "socket:type2_combo:output": "300.0 kW", "socket:chademo": "4", "socket:chademo:output": "62.0 kW", "charging_station:output": "300.0 kW", "capacity": "8", "_source": "worldwide"}}, {"type": "node", "id": 7684338672, "lat": 60.697411, "lon": 8.953637, "tags": {"amenity": "charging_station", "access": "yes", "fee": "yes", "brand": "Tesla Supercharger", "opening_hours": "24/7", "operator": "Tesla", "name": "Tesla Gol vest Supercharger", "addr:country": "NO", "socket:type2_combo": "24", "socket:type2_combo:output": "250.0 kW", "socket:tesla_supercharger": "16", "socket:tesla_supercharger:output": "150.0 kW", "charging_station:output": "250.0 kW", "capacity": "24", "_source": "worldwide"}}, {"type": "node", "id": 8214252362, "lat": 60.697914, "lon": 8.953491, "tags": {"amenity": "charging_station", "access": "yes", "brand": "Mer", "name": "Mer Burger King Gol", "addr:country": "NO", "socket:type2_combo": "4", "socket:type2_combo:output": "150.0 kW", "socket:chademo": "4", "socket:chademo:output": "62.0 kW", "charging_station:output": "150.0 kW", "capacity": "4", "_source": "worldwide"}}, {"type": "node", "id": 8956376341, "lat": 60.521852, "lon": 8.195923, "tags": {"amenity": "charging_station", "access": "customers", "name": "Vestlia Hotel - Gratis Tesla lader", "addr:country": "NO", "_source": "worldwide"}}, {"type": "node", "id": 8956377021, "lat": 60.523421, "lon": 8.202264, "tags": {"amenity": "charging_station", "addr:country": "NO", "_source": "worldwide"}}, {"type": "node", "id": 10738043938, "lat": 60.63007, "lon": 8.56384, "tags": {"amenity": "charging_station", "access": "yes", "fee": "yes", "brand": "Tesla Supercharger", "opening_hours": "24/7", "operator": "Tesla", "name": "Tesla Ål Supercharger", "addr:country": "NO", "socket:type2_combo": "20", "socket:type2_combo:output": "250.0 kW", "charging_station:output": "250.0 kW", "capacity": "20", "_source": "worldwide"}}, {"type": "node", "id": 11032254085, "lat": 60.629311, "lon": 8.563941, "tags": {"amenity": "charging_station", "access": "yes", "fee": "yes", "brand": "Kople", "name": "Kople Ål sentrum øst", "addr:country": "NO", "socket:type2_combo": "2", "socket:type2_combo:output": "135.0 kW", "socket:chademo": "2", "socket:chademo:output": "62.0 kW", "charging_station:output": "135.0 kW", "capacity": "2", "_source": "worldwide"}}, {"type": "node", "id": 11032254086, "lat": 60.62833, "lon": 8.561207, "tags": {"amenity": "charging_station", "access": "yes", "fee": "yes", "brand": "Kople", "name": "Kople Ål sentrum vest", "addr:country": "NO", "socket:type2_combo": "4", "socket:type2_combo:output": "150.0 kW", "socket:chademo": "2", "socket:chademo:output": "62.0 kW", "charging_station:output": "150.0 kW", "capacity": "4", "_source": "worldwide"}}, {"type": "node", "id": 11032254087, "lat": 60.628968, "lon": 8.562127, "tags": {"amenity": "charging_station", "access": "yes", "brand": "Circle K", "name": "Circle K Ål", "addr:country": "NO", "socket:type2_combo": "2", "socket:type2_combo:output": "175.0 kW", "charging_station:output": "175.0 kW", "capacity": "2", "_source": "worldwide"}}, {"type": "node", "id": 11169096598, "lat": 60.12557, "lon": 8.684711, "tags": {"amenity": "charging_station", "access": "yes", "brand": "Eviny", "name": "Eviny Tessungdalen Gavlen Fjellhandel", "addr:country": "NO", "socket:type2": "1", "socket:type2:output": "22.0 kW", "socket:type2_combo": "2", "socket:type2_combo:output": "50.0 kW", "socket:chademo": "2", "socket:chademo:output": "50.0 kW", "charging_station:output": "50.0 kW", "capacity": "3", "_source": "worldwide"}}, {"type": "node", "id": 11169096616, "lat": 60.533122, "lon": 8.208395, "tags": {"amenity": "charging_station", "access": "yes", "brand": "Eviny", "name": "Eviny Geilo", "addr:country": "NO", "socket:type2": "1", "socket:type2:output": "22.0 kW", "socket:type2_combo": "18", "socket:type2_combo:output": "350.0 kW", "socket:chademo": "4", "socket:chademo:output": "62.0 kW", "charging_station:output": "350.0 kW", "capacity": "19", "_source": "worldwide"}}, {"type": "node", "id": 12755217985, "lat": 60.53412, "lon": 8.2095, "tags": {"amenity": "charging_station", "access": "yes", "brand": "Ragde Charge", "name": "Ragde Charge Geiloporten", "addr:country": "NO", "socket:type2_combo": "4", "socket:type2_combo:output": "250.0 kW", "charging_station:output": "250.0 kW", "capacity": "4", "_source": "worldwide"}}, {"type": "node", "id": 11185853243, "lat": 60.267708, "lon": 8.942779, "tags": {"amenity": "charging_station", "access": "yes", "brand": "Kople", "name": "Kople Rødberg hotell", "addr:country": "NO", "socket:type2_combo": "2", "socket:type2_combo:output": "150.0 kW", "charging_station:output": "150.0 kW", "capacity": "2", "_source": "worldwide"}}, {"type": "node", "id": 11195959372, "lat": 60.26933, "lon": 8.751297, "tags": {"amenity": "charging_station", "access": "yes", "brand": "Kople", "name": "Kople Coop Prix Uvdal", "addr:country": "NO", "socket:type2": "2", "socket:type2:output": "22.0 kW", "socket:type2_combo": "3", "socket:type2_combo:output": "180.0 kW", "socket:chademo": "1", "socket:chademo:output": "62.0 kW", "charging_station:output": "180.0 kW", "capacity": "5", "_source": "worldwide"}}, {"type": "node", "id": 12755217981, "lat": 60.598069, "lon": 8.346433, "tags": {"amenity": "charging_station", "access": "yes", "brand": "Ragde Charge", "name": "Ragde Charge Kiwi Hagafoss", "addr:country": "NO", "socket:type2_combo": "4", "socket:type2_combo:output": "250.0 kW", "charging_station:output": "250.0 kW", "capacity": "4", "_source": "worldwide"}}, {"type": "node", "id": 12755217984, "lat": 60.697634, "lon": 8.954263, "tags": {"amenity": "charging_station", "access": "yes", "brand": "Ragde Charge", "name": "Ragde Charge Gol", "addr:country": "NO", "socket:type2_combo": "6", "socket:type2_combo:output": "250.0 kW", "charging_station:output": "250.0 kW", "capacity": "6", "_source": "worldwide"}}]}