{"id": "31-121", "latMin": 31, "lonMin": 121, "latMax": 32, "lonMax": 122, "generated": "2026-04-16T18:39:07.278Z", "count": 59, "pois": [{"type": "node", "id": 2870690600, "lat": 31.029273, "lon": 121.435535, "tags": {"amenity": "charging_station", "name": "EV Charging Station", "_source": "worldwide"}}, {"type": "node", "id": 3048487060, "lat": 31.281544, "lon": 121.162939, "tags": {"amenity": "charging_station", "opening_hours": "24/7", "brand": "Tesla Supercharger", "operator": "Tesla, Inc.", "name": "Tesla Supercharger Jiading", "_source": "worldwide"}}, {"type": "node", "id": 3070353482, "lat": 31.242654, "lon": 121.575214, "tags": {"amenity": "charging_station", "access": "customers", "opening_hours": "24/7", "brand": "Tesla Supercharger", "operator": "Tesla, Inc.", "name": "Tesla Supercharger Jinqiao", "_source": "worldwide"}}, {"type": "node", "id": 3070364986, "lat": 31.071862, "lon": 121.420448, "tags": {"amenity": "charging_station", "access": "customers", "opening_hours": "24/7", "brand": "Tesla Supercharger", "operator": "Tesla, Inc.", "name": "Tesla Supercharger Shanghai Minhang", "_source": "worldwide"}}, {"type": "node", "id": 4332492353, "lat": 31.229631, "lon": 121.465056, "tags": {"amenity": "charging_station", "operator": "蓄玖", "name": "蓄玖", "_source": "worldwide"}}, {"type": "node", "id": 4340977585, "lat": 31.22252, "lon": 121.448014, "tags": {"amenity": "charging_station", "name": "EV Charging Station", "addr:street": "巨鹿路", "_source": "worldwide"}}, {"type": "node", "id": 4450432247, "lat": 31.230381, "lon": 121.448244, "tags": {"amenity": "charging_station", "name": "EV Charging Station", "addr:street": "南阳路", "addr:city": "上海", "_source": "worldwide"}}, {"type": "node", "id": 4922066106, "lat": 31.274449, "lon": 121.162902, "tags": {"amenity": "charging_station", "operator": "evCar", "name": "evCar", "_source": "worldwide"}}, {"type": "node", "id": 5031490422, "lat": 31.231233, "lon": 121.457757, "tags": {"amenity": "charging_station", "brand": "Tesla Supercharger", "operator": "Tesla", "name": "Tesla Supercharger", "_source": "worldwide"}}, {"type": "node", "id": 5042026631, "lat": 31.185055, "lon": 121.552415, "tags": {"amenity": "charging_station", "name": "EV Charging Station", "_source": "worldwide"}}, {"type": "node", "id": 5042026632, "lat": 31.171322, "lon": 121.387655, "tags": {"amenity": "charging_station", "operator": "市南供电局", "name": "市南供电局", "_source": "worldwide"}}, {"type": "node", "id": 5204194241, "lat": 31.02597, "lon": 121.424515, "tags": {"amenity": "charging_station", "name": "EV Charging Station", "_source": "worldwide"}}, {"type": "node", "id": 6536533654, "lat": 31.203438, "lon": 121.386985, "tags": {"amenity": "charging_station", "name": "EV Charging Station", "_source": "worldwide"}}, {"type": "node", "id": 6586117580, "lat": 31.216822, "lon": 121.395133, "tags": {"amenity": "charging_station", "name": "EV Charging Station", "_source": "worldwide"}}, {"type": "node", "id": 6611431336, "lat": 31.280731, "lon": 121.447343, "tags": {"amenity": "charging_station", "name": "EV Charging Station", "_source": "worldwide"}}, {"type": "node", "id": 7205583591, "lat": 31.222748, "lon": 121.363726, "tags": {"amenity": "charging_station", "name": "EV Charging Station", "_source": "worldwide"}}, {"type": "node", "id": 9817677860, "lat": 31.146377, "lon": 121.758994, "tags": {"amenity": "charging_station", "name": "EV Charging Station", "_source": "worldwide"}}, {"type": "node", "id": 9836366589, "lat": 31.226516, "lon": 121.44779, "tags": {"amenity": "charging_station", "name": "EV Charging Station", "_source": "worldwide"}}, {"type": "node", "id": 9960481290, "lat": 31.286605, "lon": 121.171376, "tags": {"amenity": "charging_station", "brand": "NIO Power", "name": "Nio Power", "_source": "worldwide"}}, {"type": "node", "id": 10701821823, "lat": 31.275316, "lon": 121.187187, "tags": {"amenity": "charging_station", "brand": "小鹏", "name": "小鹏", "_source": "worldwide"}}, {"type": "node", "id": 10821444729, "lat": 31.35458, "lon": 121.337597, "tags": {"amenity": "charging_station", "fee": "yes", "access": "yes", "brand": "度普E站", "operator": "度普（苏州）新能源科技有限公司", "name": "度普E站", "_source": "worldwide"}}, {"type": "node", "id": 11166345898, "lat": 31.354565, "lon": 121.337769, "tags": {"amenity": "charging_station", "access": "yes", "brand": "e充站", "operator": "上海依威能源科技有限公司", "name": "e充站", "_source": "worldwide"}}, {"type": "node", "id": 11266492346, "lat": 31.114601, "lon": 121.584311, "tags": {"amenity": "charging_station", "brand": "国家电网", "operator": "国家电网有限公司", "name": "国家电网", "_source": "worldwide"}}, {"type": "node", "id": 11781013598, "lat": 31.345014, "lon": 121.428168, "tags": {"amenity": "charging_station", "brand": "Tesla Supercharger", "operator": "Tesla, Inc.", "name": "Tesla Supercharger", "_source": "worldwide"}}, {"type": "node", "id": 11818128116, "lat": 31.204995, "lon": 121.403825, "tags": {"amenity": "charging_station", "brand": "NIO Power", "name": "蔚来换电站", "_source": "worldwide"}}, {"type": "node", "id": 11993230526, "lat": 31.202335, "lon": 121.304805, "tags": {"amenity": "charging_station", "brand": "特斯拉", "name": "特斯拉", "_source": "worldwide"}}, {"type": "node", "id": 12342761241, "lat": 31.131655, "lon": 121.534831, "tags": {"amenity": "charging_station", "brand": "普天", "operator": "普天", "name": "普天", "_source": "worldwide"}}, {"type": "node", "id": 12698811029, "lat": 31.306561, "lon": 121.43, "tags": {"amenity": "charging_station", "name": "EV Charging Station", "_source": "worldwide"}}, {"type": "node", "id": 12971284655, "lat": 31.217018, "lon": 121.470393, "tags": {"amenity": "charging_station", "brand": "开迈斯", "name": "开迈斯", "_source": "worldwide"}}, {"type": "node", "id": 12971318049, "lat": 31.100627, "lon": 121.594174, "tags": {"amenity": "charging_station", "brand": "小桔充电", "name": "瑞建路超充站", "_source": "worldwide"}}, {"type": "node", "id": 13028508939, "lat": 31.407288, "lon": 121.21661, "tags": {"amenity": "charging_station", "name": "EV Charging Station", "_source": "worldwide"}}, {"type": "node", "id": 13033700874, "lat": 31.259167, "lon": 121.508448, "tags": {"amenity": "charging_station", "brand": "小桔充电", "name": "小桔充电", "_source": "worldwide"}}, {"type": "node", "id": 13033748218, "lat": 31.274928, "lon": 121.527065, "tags": {"amenity": "charging_station", "brand": "快卜", "name": "快卜", "_source": "worldwide"}}, {"type": "node", "id": 13033943879, "lat": 31.170416, "lon": 121.361705, "tags": {"amenity": "charging_station", "brand": "理想", "name": "理想", "_source": "worldwide"}}, {"type": "node", "id": 13036939275, "lat": 31.175028, "lon": 121.790982, "tags": {"amenity": "charging_station", "brand": "享能充电", "name": "享能充电", "_source": "worldwide"}}, {"type": "node", "id": 13037502433, "lat": 31.064509, "lon": 121.303428, "tags": {"amenity": "charging_station", "brand": "小桔充电", "name": "小桔充电", "_source": "worldwide"}}, {"type": "node", "id": 13037504186, "lat": 31.294807, "lon": 121.055011, "tags": {"amenity": "charging_station", "brand": "卫莱电", "name": "卫莱电明月璟辰苑东门充电站", "_source": "worldwide"}}, {"type": "node", "id": 13124702831, "lat": 31.024835, "lon": 121.151181, "tags": {"amenity": "charging_station", "brand": "中国石油", "name": "中国石油", "_source": "worldwide"}}, {"type": "node", "id": 13138492530, "lat": 31.25665, "lon": 121.358044, "tags": {"amenity": "charging_station", "name": "上海捷威达能源科技有限公司充电站", "_source": "worldwide"}}, {"type": "node", "id": 13138531485, "lat": 31.226839, "lon": 121.526347, "tags": {"amenity": "charging_station", "operator": "BP", "name": "BP", "_source": "worldwide"}}, {"type": "node", "id": 13138544223, "lat": 31.253469, "lon": 121.449489, "tags": {"amenity": "charging_station", "brand": "NIO Power", "name": "蔚来超充站", "_source": "worldwide"}}, {"type": "node", "id": 13351442015, "lat": 31.52734, "lon": 121.828975, "tags": {"amenity": "charging_station", "brand": "莱电", "name": "莱电", "_source": "worldwide"}}, {"type": "node", "id": 13351877718, "lat": 31.225824, "lon": 121.495519, "tags": {"amenity": "charging_station", "brand": "特来电", "name": "特来电", "_source": "worldwide"}}, {"type": "node", "id": 13387930601, "lat": 31.198401, "lon": 121.389139, "tags": {"amenity": "charging_station", "name": "EV Charging Station", "_source": "worldwide"}}, {"type": "node", "id": 13434364197, "lat": 31.131779, "lon": 121.612581, "tags": {"amenity": "charging_station", "name": "上海充典新能源科技有限公司充电站", "_source": "worldwide"}}, {"type": "node", "id": 13436983618, "lat": 31.232843, "lon": 121.432782, "tags": {"amenity": "charging_station", "name": "上海源脉诺联新能源科技有限公司", "_source": "worldwide"}}, {"type": "node", "id": 13437086509, "lat": 31.237045, "lon": 121.470258, "tags": {"amenity": "charging_station", "brand": "b'p", "operator": "BP", "name": "b'p", "_source": "worldwide"}}, {"type": "node", "id": 13437149980, "lat": 31.291152, "lon": 121.504515, "tags": {"amenity": "charging_station", "brand": "理想", "name": "理想", "_source": "worldwide"}}, {"type": "node", "id": 13437175740, "lat": 31.201483, "lon": 121.416389, "tags": {"amenity": "charging_station", "brand": "星星充电", "name": "星星充电", "_source": "worldwide"}}, {"type": "node", "id": 13437175752, "lat": 31.198913, "lon": 121.417341, "tags": {"amenity": "charging_station", "name": "上海久滴源新能源科技有限公司充电站", "_source": "worldwide"}}, {"type": "node", "id": 13437226576, "lat": 31.621908, "lon": 121.421877, "tags": {"amenity": "charging_station", "brand": "安悦充电", "name": "安悦充电", "_source": "worldwide"}}, {"type": "node", "id": 13669643070, "lat": 31.156313, "lon": 121.180459, "tags": {"amenity": "charging_station", "brand": "电能侠", "name": "电能侠", "_source": "worldwide"}}, {"type": "node", "id": 13669702415, "lat": 31.254358, "lon": 121.018373, "tags": {"amenity": "charging_station", "name": "琥珀传能（江苏）智能设备制造有限公司充电站", "_source": "worldwide"}}, {"type": "node", "id": 13671414777, "lat": 31.276949, "lon": 121.535044, "tags": {"amenity": "charging_station", "name": "瞻星新能源（上海）有限公司充电站", "_source": "worldwide"}}, {"type": "node", "id": 13711260581, "lat": 31.269999, "lon": 121.203095, "tags": {"amenity": "charging_station", "brand": "星星充电", "name": "星星充电", "_source": "worldwide"}}, {"type": "node", "id": 13711297119, "lat": 31.031532, "lon": 121.530628, "tags": {"amenity": "charging_station", "name": "鲸充新能源科技有限公司充电站", "_source": "worldwide"}}, {"type": "node", "id": 13715684475, "lat": 31.221463, "lon": 121.440545, "tags": {"amenity": "charging_station", "name": "上海蝶尔新能源汽车服务有限公司充电站", "_source": "worldwide"}}, {"type": "node", "id": 13715684486, "lat": 31.223353, "lon": 121.436946, "tags": {"amenity": "charging_station", "name": "上海为司新能源有限公司充电站", "_source": "worldwide"}}, {"type": "node", "id": 13720618356, "lat": 31.220552, "lon": 121.46592, "tags": {"amenity": "charging_station", "name": "众巅（上海）新能源科技有限公司充电站", "_source": "worldwide"}}]}