{"id": "47--125", "latMin": 47, "lonMin": -125, "latMax": 48, "lonMax": -124, "generated": "2026-04-16T18:39:08.133Z", "count": 12, "pois": [{"type": "node", "id": 6049365542, "lat": 47.195493, "lon": -124.195905, "tags": {"amenity": "charging_station", "name": "EV Charging Station", "_source": "worldwide"}}, {"type": "node", "id": 7316781518, "lat": 47.94252, "lon": -124.38475, "tags": {"amenity": "charging_station", "fee": "yes", "access": "yes", "opening_hours": "24/7", "brand": "Tesla Supercharger", "network": "Supercharger", "operator": "Tesla, Inc.", "name": "Forks Supercharger", "addr:street": "Fern Hill Road", "addr:housenumber": "100", "addr:postcode": "98331", "addr:city": "Forks", "addr:country": "US", "socket:type1_combo": "8", "capacity": "16", "_source": "worldwide"}}, {"type": "node", "id": 11035006906, "lat": 47.604423, "lon": -124.373102, "tags": {"amenity": "charging_station", "brand": "Blink", "operator": "Blink", "name": "Blink", "_source": "worldwide"}}, {"type": "node", "id": 11035007106, "lat": 47.914856, "lon": -124.544384, "tags": {"amenity": "charging_station", "name": "EV Charging Station", "_source": "worldwide"}}, {"type": "node", "id": 11035008305, "lat": 47.817784, "lon": -124.15174, "tags": {"amenity": "charging_station", "name": "EV Charging Station", "_source": "worldwide"}}, {"type": "node", "id": 11035008706, "lat": 47.193918, "lon": -124.197889, "tags": {"amenity": "charging_station", "name": "EV Charging Station", "_source": "worldwide"}}, {"type": "node", "id": 11035009006, "lat": 47.240434, "lon": -124.216897, "tags": {"amenity": "charging_station", "name": "EV Charging Station", "_source": "worldwide"}}, {"type": "node", "id": 11035009007, "lat": 47.042632, "lon": -124.170715, "tags": {"amenity": "charging_station", "name": "EV Charging Station", "_source": "worldwide"}}, {"type": "node", "id": 11035009008, "lat": 47.012223, "lon": -124.16736, "tags": {"amenity": "charging_station", "name": "EV Charging Station", "_source": "worldwide"}}, {"type": "node", "id": 11991210205, "lat": 47.00831, "lon": -124.16514, "tags": {"amenity": "charging_station", "fee": "yes", "access": "yes", "opening_hours": "24/7", "brand": "Tesla Supercharger", "network": "Supercharger", "operator": "Tesla", "name": "Ocean Shores Supercharger", "addr:street": "West Chance a La Mer Northwest", "addr:housenumber": "120", "addr:postcode": "98569", "addr:city": "Ocean Shores", "addr:country": "US", "capacity": "8", "_source": "worldwide"}}, {"type": "node", "id": 12426508238, "lat": 47.951539, "lon": -124.385198, "tags": {"amenity": "charging_station", "brand": "Rivian Adventure Network", "operator": "Rivian", "name": "Rivian Adventure Network", "_source": "worldwide"}}, {"type": "node", "id": 12426508245, "lat": 47.946545, "lon": -124.394427, "tags": {"amenity": "charging_station", "brand": "Blink", "operator": "Blink", "name": "Blink", "_source": "worldwide"}}]}