{"id": "59-6", "latMin": 59, "lonMin": 6, "latMax": 60, "lonMax": 7, "generated": "2026-04-16T18:39:08.777Z", "count": 18, "pois": [{"type": "node", "id": 5284925517, "lat": 59.482976, "lon": 6.25763, "tags": {"amenity": "charging_station", "access": "yes", "opening_hours": "24/7", "operator": "Suldal Elverk", "name": "Øvre Dalane, Sand", "addr:country": "NO", "socket:type2": "1", "socket:type2:output": "7.4 kW", "charging_station:output": "7.4 kW", "capacity": "1", "_source": "worldwide"}}, {"type": "node", "id": 6034292207, "lat": 59.832522, "lon": 6.819125, "tags": {"amenity": "charging_station", "access": "yes", "brand": "Mer", "opening_hours": "24/7", "name": "Mer Røldal", "addr:country": "NO", "socket:type2": "2", "socket:type2:output": "22.0 kW", "socket:type2_combo": "2", "socket:type2_combo:output": "50.0 kW", "socket:chademo": "2", "socket:chademo:output": "50.0 kW", "charging_station:output": "50.0 kW", "capacity": "4", "_source": "worldwide"}}, {"type": "node", "id": 7686823310, "lat": 59.832452, "lon": 6.813333, "tags": {"amenity": "charging_station", "access": "yes", "brand": "Ionity", "name": "Ionity Røldal", "addr:country": "NO", "socket:type2_combo": "6", "socket:type2_combo:output": "350.0 kW", "charging_station:output": "350.0 kW", "capacity": "6", "_source": "worldwide"}}, {"type": "node", "id": 6052451142, "lat": 59.230707, "lon": 6.154417, "tags": {"amenity": "charging_station", "access": "yes", "brand": "Recharge", "opening_hours": "24/7", "name": "Recharge YX Hjelmeland", "addr:country": "NO", "socket:type2": "2", "socket:type2:output": "11.0 kW", "socket:type2_combo": "2", "socket:type2_combo:output": "50.0 kW", "socket:chademo": "2", "socket:chademo:output": "50.0 kW", "charging_station:output": "50.0 kW", "capacity": "4", "_source": "worldwide"}}, {"type": "node", "id": 6052451146, "lat": 59.016634, "lon": 6.038155, "tags": {"amenity": "charging_station", "access": "yes", "brand": "Recharge", "opening_hours": "24/7", "name": "Recharge Jørpeland", "addr:country": "NO", "socket:type2": "2", "socket:type2:output": "11.0 kW", "socket:type2_combo": "2", "socket:type2_combo:output": "50.0 kW", "socket:chademo": "2", "socket:chademo:output": "50.0 kW", "charging_station:output": "50.0 kW", "capacity": "4", "_source": "worldwide"}}, {"type": "node", "id": 6052451148, "lat": 59.648969, "lon": 6.357813, "tags": {"amenity": "charging_station", "access": "yes", "brand": "Mer", "opening_hours": "24/7", "name": "Mer Sauda", "addr:country": "NO", "socket:type2": "2", "socket:type2:output": "22.0 kW", "socket:type2_combo": "1", "socket:type2_combo:output": "50.0 kW", "socket:chademo": "1", "socket:chademo:output": "50.0 kW", "charging_station:output": "50.0 kW", "capacity": "3", "_source": "worldwide"}}, {"type": "node", "id": 6052451177, "lat": 59.650355, "lon": 6.818445, "tags": {"amenity": "charging_station", "access": "customers", "opening_hours": "24/7", "operator": "Energihotellet", "name": "Energihotellet", "addr:country": "NO", "socket:type2": "2", "socket:type2:output": "7.4 kW", "charging_station:output": "7.4 kW", "capacity": "2", "_source": "worldwide"}}, {"type": "node", "id": 6052451179, "lat": 59.494892, "lon": 6.526571, "tags": {"amenity": "charging_station", "access": "customers", "opening_hours": "24/7", "operator": "OSA-BU", "name": "OSA-BU", "addr:country": "NO", "socket:type2": "2", "socket:type2:output": "7.4 kW", "charging_station:output": "7.4 kW", "capacity": "2", "_source": "worldwide"}}, {"type": "node", "id": 6762237200, "lat": 59.803818, "lon": 6.21388, "tags": {"amenity": "charging_station", "access": "yes", "brand": "Recharge", "name": "Recharge Åkrafjordtunet", "addr:country": "NO", "socket:type2": "2", "socket:type2:output": "11.0 kW", "socket:type2_combo": "3", "socket:type2_combo:output": "150.0 kW", "socket:chademo": "3", "socket:chademo:output": "62.0 kW", "charging_station:output": "150.0 kW", "capacity": "5", "_source": "worldwide"}}, {"type": "node", "id": 6886631743, "lat": 59.81685, "lon": 6.752256, "tags": {"amenity": "charging_station", "access": "yes", "fee": "yes", "brand": "Tesla Supercharger", "opening_hours": "24/7", "operator": "Tesla", "name": "Tesla Røldal Supercharger", "addr:country": "NO", "socket:type2_combo": "12", "socket:type2_combo:output": "150.0 kW", "socket:tesla_supercharger": "12", "socket:tesla_supercharger:output": "150.0 kW", "charging_station:output": "150.0 kW", "capacity": "12", "_source": "worldwide"}}, {"type": "node", "id": 7021318520, "lat": 59.482675, "lon": 6.247954, "tags": {"amenity": "charging_station", "addr:country": "NO", "_source": "worldwide"}}, {"type": "node", "id": 7021318523, "lat": 59.483207, "lon": 6.248582, "tags": {"amenity": "charging_station", "addr:country": "NO", "_source": "worldwide"}}, {"type": "node", "id": 9347638459, "lat": 59.655178, "lon": 6.363302, "tags": {"amenity": "charging_station", "addr:country": "NO", "_source": "worldwide"}}, {"type": "node", "id": 10985077003, "lat": 59.491482, "lon": 6.514823, "tags": {"amenity": "charging_station", "access": "yes", "brand": "Lyse", "name": "Lyse Suldalsosen", "addr:country": "NO", "socket:type2": "1", "socket:type2:output": "22.0 kW", "socket:type2_combo": "3", "socket:type2_combo:output": "200.0 kW", "socket:chademo": "2", "socket:chademo:output": "50.0 kW", "charging_station:output": "200.0 kW", "capacity": "4", "_source": "worldwide"}}, {"type": "node", "id": 11169096601, "lat": 59.650313, "lon": 6.351293, "tags": {"amenity": "charging_station", "access": "yes", "brand": "Eviny", "name": "Eviny Sauda", "addr:country": "NO", "socket:type2": "2", "socket:type2:output": "22.0 kW", "socket:type2_combo": "6", "socket:type2_combo:output": "150.0 kW", "socket:chademo": "4", "socket:chademo:output": "62.0 kW", "charging_station:output": "150.0 kW", "capacity": "8", "_source": "worldwide"}}, {"type": "node", "id": 11169096607, "lat": 59.986047, "lon": 6.009074, "tags": {"amenity": "charging_station", "access": "yes", "brand": "Eviny", "name": "Eviny Spar Rosendal", "addr:country": "NO", "socket:type2": "2", "socket:type2:output": "43.0 kW", "socket:type2_combo": "4", "socket:type2_combo:output": "150.0 kW", "socket:chademo": "3", "socket:chademo:output": "62.0 kW", "charging_station:output": "150.0 kW", "capacity": "6", "_source": "worldwide"}}, {"type": "node", "id": 11222019283, "lat": 59.64571, "lon": 6.800789, "tags": {"amenity": "charging_station", "access": "yes", "brand": "Lyse", "name": "Lyse Nesflaten", "addr:country": "NO", "socket:type2": "2", "socket:type2:output": "22.0 kW", "socket:type2_combo": "4", "socket:type2_combo:output": "200.0 kW", "socket:chademo": "2", "socket:chademo:output": "50.0 kW", "charging_station:output": "200.0 kW", "capacity": "6", "_source": "worldwide"}}, {"type": "node", "id": 12737438438, "lat": 59.012196, "lon": 6.937771, "tags": {"amenity": "charging_station", "access": "yes", "brand": "Lyse", "name": "Lyse Fjellbutikken Sirdal", "addr:country": "NO", "socket:type2_combo": "4", "socket:type2_combo:output": "200.0 kW", "socket:chademo": "2", "socket:chademo:output": "50.0 kW", "charging_station:output": "200.0 kW", "capacity": "4", "_source": "worldwide"}}]}