{"id": "48-4", "latMin": 48, "lonMin": 4, "latMax": 49, "lonMax": 5, "generated": "2026-04-16T18:39:08.192Z", "count": 99, "pois": [{"type": "node", "id": 2451942381, "lat": 48.292165, "lon": 4.13046, "tags": {"amenity": "charging_station", "addr:country": "FR", "_source": "worldwide"}}, {"type": "node", "id": 1417502560, "lat": 48.293246, "lon": 4.130335, "tags": {"amenity": "charging_station", "access": "yes", "fee": "yes", "brand": "Tesla Supercharger", "opening_hours": "24/7", "operator": "Tesla", "name": "Troyes - Saint-Parres-aux-Tertres Supercharger", "addr:street": "Zone commerciale de Saint-Parres-aux-Tertres", "addr:postcode": "10410", "addr:city": "Saint-Parres-aux-Tertres", "addr:country": "FR", "socket:type2_combo": "16", "socket:type2_combo:output": "250.0 kW", "socket:tesla_supercharger": "10", "socket:tesla_supercharger:output": "150.0 kW", "charging_station:output": "250.0 kW", "capacity": "26", "_source": "worldwide"}}, {"type": "node", "id": 4572017537, "lat": 48.729803, "lon": 4.229383, "tags": {"amenity": "charging_station", "fee": "yes", "network": "Corri-dor", "opening_hours": "24/7", "operator": "Sodetrel Mobilité", "name": "Aire de Sommesous", "addr:country": "FR", "socket:type2": "1", "socket:type2:output": "43.0 kW", "socket:type2_combo": "1", "socket:type2_combo:output": "50.0 kW", "socket:chademo": "1", "socket:chademo:output": "50.0 kW", "socket:schuko": "1", "socket:schuko:output": "2.3 kW", "charging_station:output": "50.0 kW", "capacity": "1", "wheelchair": "yes", "authentication:none": "", "_source": "worldwide"}}, {"type": "node", "id": 4738648221, "lat": 48.282861, "lon": 4.094248, "tags": {"amenity": "charging_station", "operator": "stralog", "name": "Ladestation stralog", "addr:country": "FR", "_source": "worldwide"}}, {"type": "node", "id": 4765161190, "lat": 48.056541, "lon": 4.960916, "tags": {"amenity": "charging_station", "fee": "yes", "network": "Corri-dor", "opening_hours": "24/7", "operator": "Sodetrel Mobilité", "name": "Aire de Châteauvillain-Est", "addr:country": "FR", "socket:type2": "1", "socket:type2:output": "43.0 kW", "socket:type2_combo": "1", "socket:type2_combo:output": "50.0 kW", "socket:chademo": "1", "socket:chademo:output": "50.0 kW", "charging_station:output": "50.0 kW", "capacity": "1", "authentication:none": "", "_source": "worldwide"}}, {"type": "node", "id": 5536390269, "lat": 48.055539, "lon": 4.960948, "tags": {"amenity": "charging_station", "fee": "yes", "network": "Corri-dor", "opening_hours": "24/7", "operator": "Sodetrel Mobilité", "name": "Sodetrel Mobilité - Corri-dor", "addr:country": "FR", "socket:type2": "1", "socket:type2:output": "43.0 kW", "socket:type2_combo": "1", "socket:type2_combo:output": "50.0 kW", "socket:chademo": "1", "socket:chademo:output": "50.0 kW", "charging_station:output": "50.0 kW", "capacity": "1", "authentication:none": "", "_source": "worldwide"}}, {"type": "node", "id": 11059270709, "lat": 48.057439, "lon": 4.95908, "tags": {"amenity": "charging_station", "access": "yes", "fee": "yes", "network": "Engie", "opening_hours": "24/7", "operator": "Engie", "name": "ENGIE Châteauvillain Valmarnay", "addr:country": "FR", "socket:type2_combo": "10", "socket:type2_combo:output": "300.0 kW", "socket:chademo": "1", "socket:chademo:output": "90.0 kW", "charging_station:output": "300.0 kW", "capacity": "10", "_source": "worldwide"}}, {"type": "node", "id": 11818719010, "lat": 48.057682, "lon": 4.960467, "tags": {"amenity": "charging_station", "access": "yes", "fee": "yes", "network": "Engie", "opening_hours": "24/7", "operator": "Engie", "name": "ENGIE Châteauvillain Orges", "addr:country": "FR", "socket:type2_combo": "10", "socket:type2_combo:output": "300.0 kW", "socket:chademo": "1", "socket:chademo:output": "90.0 kW", "charging_station:output": "300.0 kW", "capacity": "10", "_source": "worldwide"}}, {"type": "node", "id": 5016403738, "lat": 48.97191, "lon": 4.35682, "tags": {"amenity": "charging_station", "fee": "no", "opening_hours": "Mo-Fr 08:00-19:00", "operator": "Renault", "name": "Ladestation Renault", "addr:country": "FR", "authentication:none": "yes", "_source": "worldwide"}}, {"type": "node", "id": 5016412465, "lat": 48.730089, "lon": 4.600657, "tags": {"amenity": "charging_station", "fee": "no", "opening_hours": "Mo-Sa 08:00-20:00", "operator": "Leclerc", "name": "Ladestation Leclerc", "addr:country": "FR", "socket:type2": "1", "socket:type2:output": "22 kW", "socket:schuko": "1", "socket:schuko:output": "2.3 kW", "charging_station:output": "22 kW", "authentication:none": "yes", "_source": "worldwide"}}, {"type": "node", "id": 5265461085, "lat": 48.731394, "lon": 4.599848, "tags": {"amenity": "charging_station", "fee": "yes", "opening_hours": "24/7", "operator": "Lidl", "name": "Ladestation Lidl", "addr:country": "FR", "socket:type2": "1", "socket:type2:output": "22 kW", "socket:schuko": "1", "socket:schuko:output": "2.3 kW", "charging_station:output": "22 kW", "_source": "worldwide"}}, {"type": "node", "id": 5016413341, "lat": 48.730119, "lon": 4.604418, "tags": {"amenity": "charging_station", "fee": "no", "opening_hours": "Mo-Fr 08:00-18:00", "operator": "Renault", "name": "Ladestation Renault", "addr:country": "FR", "authentication:none": "yes", "_source": "worldwide"}}, {"type": "node", "id": 5016421690, "lat": 48.623366, "lon": 4.965135, "tags": {"amenity": "charging_station", "addr:country": "FR", "socket:schuko": "1", "socket:schuko:output": "2.3 kW", "charging_station:output": "2.3 kW", "capacity": "2", "_source": "worldwide"}}, {"type": "node", "id": 12800614201, "lat": 48.623641, "lon": 4.963326, "tags": {"amenity": "charging_station", "access": "customers", "fee": "yes", "brand": "Tesla Supercharger", "opening_hours": "24/7", "operator": "Tesla", "name": "St Dizier Supercharger", "addr:country": "FR", "socket:type2_combo": "4", "socket:type2_combo:output": "250.0 kW", "charging_station:output": "250.0 kW", "capacity": "4", "_source": "worldwide"}}, {"type": "node", "id": 1489935800, "lat": 48.622938, "lon": 4.96307, "tags": {"amenity": "charging_station", "brand": "Electra", "operator": "Electra", "name": "Electra - Electra", "addr:country": "FR", "capacity": "4", "_source": "worldwide"}}, {"type": "node", "id": 5536390261, "lat": 48.211707, "lon": 4.241604, "tags": {"amenity": "charging_station", "access": "yes", "fee": "yes", "network": "Corri-dor", "opening_hours": "24/7", "operator": "Total Energies", "name": "Relais Troyes Fresnoy", "addr:country": "FR", "socket:type2": "1", "socket:type2:output": "43.0 kW", "socket:type2_combo": "1", "socket:type2_combo:output": "50.0 kW", "socket:chademo": "1", "socket:chademo:output": "50.0 kW", "charging_station:output": "50.0 kW", "capacity": "4", "authentication:none": "", "_source": "worldwide"}}, {"type": "node", "id": 5536390262, "lat": 48.214002, "lon": 4.241389, "tags": {"amenity": "charging_station", "access": "yes", "fee": "yes", "network": "Corri-dor", "opening_hours": "24/7", "operator": "Total Energies", "name": "Relais Troyes Fresnoy Le Plessis", "addr:country": "FR", "socket:type2": "1", "socket:type2:output": "43.0 kW", "socket:type2_combo": "1", "socket:type2_combo:output": "50.0 kW", "socket:chademo": "1", "socket:chademo:output": "50.0 kW", "charging_station:output": "50.0 kW", "capacity": "4", "authentication:none": "", "_source": "worldwide"}}, {"type": "node", "id": 5595328187, "lat": 48.297105, "lon": 4.577524, "tags": {"amenity": "charging_station", "fee": "yes", "network": "SDEA10", "operator": "INEO TINEA", "name": "INEO TINEA - SDEA10", "addr:country": "FR", "socket:type2": "2", "socket:type2:output": "22 kW", "charging_station:output": "22 kW", "capacity": "2", "_source": "worldwide"}}, {"type": "node", "id": 5701579822, "lat": 48.726139, "lon": 4.591451, "tags": {"amenity": "charging_station", "fee": "yes", "network": "Alizé Liberté", "opening_hours": "24/7", "operator": "Bouygues E&S", "name": "Cité Administrative", "addr:country": "FR", "socket:type2": "2", "socket:type2:output": "22 kW", "charging_station:output": "22 kW", "capacity": "2", "authentication:none": "yes", "_source": "worldwide"}}, {"type": "node", "id": 5701590321, "lat": 48.725353, "lon": 4.585575, "tags": {"amenity": "charging_station", "fee": "yes", "network": "Alizé Liberté", "opening_hours": "24/7", "operator": "Bouygues E&S", "name": "Place d'Armes", "addr:country": "FR", "socket:type2": "2", "socket:type2:output": "22 kW", "charging_station:output": "22 kW", "capacity": "2", "authentication:none": "yes", "_source": "worldwide"}}, {"type": "node", "id": 5860633102, "lat": 48.727652, "lon": 4.584425, "tags": {"amenity": "charging_station", "fee": "yes", "network": "Alizé Liberté", "opening_hours": "24/7", "operator": "Bouygues E&S", "name": "Place de la Halle", "addr:country": "FR", "socket:type2": "2", "socket:type2:output": "22 kW", "charging_station:output": "22 kW", "capacity": "2", "authentication:none": "yes", "_source": "worldwide"}}, {"type": "node", "id": 5860633100, "lat": 48.727197, "lon": 4.576485, "tags": {"amenity": "charging_station", "fee": "yes", "network": "Alizé Liberté", "opening_hours": "24/7", "operator": "Bouygues E&S", "name": "Lucien Herr", "addr:country": "FR", "socket:type2": "2", "socket:type2:output": "22 kW", "charging_station:output": "22 kW", "capacity": "2", "authentication:none": "yes", "_source": "worldwide"}}, {"type": "node", "id": 5860633101, "lat": 48.718436, "lon": 4.587501, "tags": {"amenity": "charging_station", "fee": "yes", "network": "Alizé Liberté", "opening_hours": "24/7", "operator": "Bouygues E&S", "name": "Gare", "addr:country": "FR", "socket:type2": "2", "socket:type2:output": "22 kW", "charging_station:output": "22 kW", "capacity": "2", "authentication:none": "yes", "_source": "worldwide"}}, {"type": "node", "id": 5860633103, "lat": 48.732558, "lon": 4.587025, "tags": {"amenity": "charging_station", "fee": "yes", "network": "Alizé Liberté", "opening_hours": "24/7", "operator": "Bouygues E&S", "name": "Centre Commercial du Hamois", "addr:country": "FR", "socket:type2": "2", "socket:type2:output": "22 kW", "charging_station:output": "22 kW", "capacity": "2", "authentication:none": "yes", "_source": "worldwide"}}, {"type": "node", "id": 5860633104, "lat": 48.715525, "lon": 4.597945, "tags": {"amenity": "charging_station", "fee": "yes", "network": "Alizé Liberté", "opening_hours": "24/7", "operator": "Bouygues E&S", "name": "Hôpital", "addr:country": "FR", "socket:type2": "2", "socket:type2:output": "22 kW", "charging_station:output": "22 kW", "capacity": "2", "authentication:none": "yes", "_source": "worldwide"}}, {"type": "node", "id": 6246529648, "lat": 48.301603, "lon": 4.335254, "tags": {"amenity": "charging_station", "fee": "yes", "network": "SDEA10", "operator": "INEO TINEA", "name": "INEO TINEA - SDEA10", "addr:country": "FR", "socket:type2": "2", "socket:type2:output": "22 kW", "charging_station:output": "22 kW", "capacity": "2", "_source": "worldwide"}}, {"type": "node", "id": 6249452333, "lat": 48.323783, "lon": 4.304757, "tags": {"amenity": "charging_station", "addr:country": "FR", "_source": "worldwide"}}, {"type": "node", "id": 7116993235, "lat": 48.392725, "lon": 4.529992, "tags": {"amenity": "charging_station", "fee": "yes", "network": "SDEA10", "operator": "INEO TINEA", "name": "INEO TINEA - SDEA10", "addr:country": "FR", "socket:type2": "2", "socket:type2:output": "22 kW", "charging_station:output": "22 kW", "capacity": "2", "_source": "worldwide"}}, {"type": "node", "id": 7116993236, "lat": 48.391515, "lon": 4.527915, "tags": {"amenity": "charging_station", "fee": "yes", "network": "SDEA10", "operator": "INEO TINEA", "name": "INEO TINEA - SDEA10", "addr:country": "FR", "socket:type2": "2", "socket:type2:output": "22 kW", "charging_station:output": "22 kW", "capacity": "2", "_source": "worldwide"}}, {"type": "node", "id": 7117235624, "lat": 48.626173, "lon": 4.96425, "tags": {"amenity": "charging_station", "addr:country": "FR", "_source": "worldwide"}}, {"type": "node", "id": 7772224540, "lat": 48.671429, "lon": 4.196972, "tags": {"amenity": "charging_station", "addr:street": "Rue du Général de Gaulle 36", "addr:postcode": "10230", "addr:city": "Mailly-le-Camp", "capacity": "2", "_source": "worldwide"}}, {"type": "node", "id": 7794243059, "lat": 48.053822, "lon": 4.395823, "tags": {"amenity": "charging_station", "addr:country": "FR", "_source": "worldwide"}}, {"type": "node", "id": 7912186706, "lat": 48.951636, "lon": 4.363065, "tags": {"amenity": "charging_station", "name": "Borne de Recharge", "addr:country": "FR", "capacity": "2", "_source": "worldwide"}}, {"type": "node", "id": 11070811294, "lat": 48.954192, "lon": 4.361629, "tags": {"amenity": "charging_station", "addr:country": "FR", "capacity": "2", "_source": "worldwide"}}, {"type": "node", "id": 7912199107, "lat": 48.9418, "lon": 4.389746, "tags": {"amenity": "charging_station", "name": "Borne de Recharge", "addr:country": "FR", "capacity": "2", "_source": "worldwide"}}, {"type": "node", "id": 7912308815, "lat": 48.959974, "lon": 4.319055, "tags": {"amenity": "charging_station", "name": "Borne de Recharge", "addr:country": "FR", "capacity": "4", "_source": "worldwide"}}, {"type": "node", "id": 8143022960, "lat": 48.329634, "lon": 4.101109, "tags": {"amenity": "charging_station", "access": "yes", "fee": "yes", "network": "Freshmile", "opening_hours": "24/7", "operator": "Freshmile SAS", "name": "Freshmile SAS - Freshmile", "addr:country": "FR", "socket:type2": "2", "socket:type2:output": "17.3 kW", "charging_station:output": "17.3 kW", "capacity": "2", "authentication:none": "yes", "_source": "worldwide"}}, {"type": "node", "id": 12999643174, "lat": 48.330964, "lon": 4.099112, "tags": {"amenity": "charging_station", "fee": "yes", "network": "Freshmile", "opening_hours": "24/7", "operator": "Freshmile", "name": "Ladestation Freshmile", "addr:country": "FR", "capacity": "4", "_source": "worldwide"}}, {"type": "node", "id": 12999643175, "lat": 48.330478, "lon": 4.099617, "tags": {"amenity": "charging_station", "brand": "Electra", "network": "Electra", "opening_hours": "24/7", "operator": "Electra", "name": "Electra - Electra", "addr:country": "FR", "socket:type2": "1", "socket:type2:output": "22 kW", "socket:type2_combo": "8", "socket:type2_combo:output": "50 kW", "charging_station:output": "50 kW", "authentication:none": "yes", "_source": "worldwide"}}, {"type": "node", "id": 8168312146, "lat": 48.036012, "lon": 4.921316, "tags": {"amenity": "charging_station", "access": "yes", "fee": "yes", "opening_hours": "24/7", "operator": "SDED 52", "name": "Station de Recharge - Rue du Parc", "addr:street": "Rue du Parc et du 24 Août 1944 9", "addr:postcode": "52120", "addr:city": "Châteauvillain", "socket:type2": "2", "socket:type2:output": "22 kW", "socket:schuko": "2", "socket:schuko:output": "2.3 kW", "charging_station:output": "22 kW", "capacity": "2", "_source": "worldwide"}}, {"type": "node", "id": 8168312147, "lat": 48.031321, "lon": 4.913055, "tags": {"amenity": "charging_station", "access": "yes", "fee": "yes", "opening_hours": "24/7", "operator": "SDED 52", "name": "Station de Recharge - Route de Chatillon", "addr:country": "FR", "socket:type2": "2", "socket:type2:output": "22 kW", "socket:schuko": "2", "socket:schuko:output": "2.3 kW", "charging_station:output": "22 kW", "capacity": "2", "_source": "worldwide"}}, {"type": "node", "id": 8851345619, "lat": 48.312037, "lon": 4.069574, "tags": {"amenity": "charging_station", "addr:country": "FR", "_source": "worldwide"}}, {"type": "node", "id": 9103788774, "lat": 48.236154, "lon": 4.702232, "tags": {"amenity": "charging_station", "operator": "SDEA - l'Aube", "name": "Ladestation SDEA - l'Aube", "addr:country": "FR", "socket:type2": "2", "socket:type2:output": "22.0 kW", "charging_station:output": "22.0 kW", "_source": "worldwide"}}, {"type": "node", "id": 9256648369, "lat": 48.553558, "lon": 4.767108, "tags": {"amenity": "charging_station", "access": "permissive", "fee": "no", "name": "Borne recharge batterie vélo", "addr:country": "FR", "_source": "worldwide"}}, {"type": "node", "id": 9363552059, "lat": 48.269322, "lon": 4.073481, "tags": {"amenity": "charging_station", "opening_hours": "24/7", "operator": "Syndicat Départemental d'Energie de l'Aube", "name": "Ladestation Syndicat Départemental d'Energie de l'Aube", "addr:country": "FR", "_source": "worldwide"}}, {"type": "node", "id": 9811900418, "lat": 48.317996, "lon": 4.104371, "tags": {"amenity": "charging_station", "addr:country": "FR", "_source": "worldwide"}}, {"type": "node", "id": 10010061298, "lat": 48.97572, "lon": 4.468066, "tags": {"amenity": "charging_station", "access": "yes", "fee": "yes", "operator": "SIEM", "name": "Ladestation SIEM", "addr:country": "FR", "capacity": "2", "_source": "worldwide"}}, {"type": "node", "id": 10577651891, "lat": 48.225468, "lon": 4.13316, "tags": {"amenity": "charging_station", "access": "yes", "brand": "Ionity", "opening_hours": "24/7", "operator": "IONITY", "name": "IONITY Troyes Sud", "addr:country": "FR", "socket:type2_combo": "6", "socket:type2_combo:output": "350.0 kW", "charging_station:output": "350.0 kW", "capacity": "6", "_source": "worldwide"}}, {"type": "node", "id": 10680752946, "lat": 48.978501, "lon": 4.356605, "tags": {"amenity": "charging_station", "access": "yes", "fee": "yes", "brand": "Powerdot", "operator": "Powerdot", "name": "Power Dot - Bricomarché - Châlons en Champagne", "addr:street": "Le Mont Héry", "addr:postcode": "51000", "addr:city": "Châlons en Champagne", "addr:country": "FR", "socket:type2": "2", "socket:type2:output": "43.0 kW", "socket:type2_combo": "2", "socket:type2_combo:output": "60.0 kW", "socket:chademo": "2", "socket:chademo:output": "60.0 kW", "charging_station:output": "60.0 kW", "capacity": "6", "_source": "worldwide"}}, {"type": "node", "id": 11109171242, "lat": 48.980809, "lon": 4.354645, "tags": {"amenity": "charging_station", "fee": "yes", "network": "Freshmile", "opening_hours": "24/7", "operator": "Freshmile", "name": "Ladestation Freshmile", "addr:country": "FR", "socket:type2": "1", "socket:type2:output": "22 kW", "charging_station:output": "22 kW", "_source": "worldwide"}}, {"type": "node", "id": 12965832375, "lat": 48.977766, "lon": 4.356896, "tags": {"amenity": "charging_station", "access": "customers", "brand": "e totem", "operator": "e-Totem", "name": "e-Totem - e totem", "addr:country": "FR", "capacity": "6", "_source": "worldwide"}}, {"type": "node", "id": 10846692381, "lat": 48.227316, "lon": 4.719692, "tags": {"amenity": "charging_station", "operator": "Lidl", "name": "Borne de recharge", "addr:country": "FR", "capacity": "6", "_source": "worldwide"}}, {"type": "node", "id": 11013815589, "lat": 48.34854, "lon": 4.532081, "tags": {"amenity": "charging_station", "addr:country": "FR", "_source": "worldwide"}}, {"type": "node", "id": 11109171217, "lat": 48.952699, "lon": 4.343837, "tags": {"amenity": "charging_station", "fee": "yes", "network": "Freshmile", "opening_hours": "24/7", "operator": "Freshmile SAS", "name": "Freshmile SAS - Freshmile", "addr:country": "FR", "socket:type2": "1", "socket:type2:output": "22 kW", "charging_station:output": "22 kW", "_source": "worldwide"}}, {"type": "node", "id": 11109171218, "lat": 48.948834, "lon": 4.392764, "tags": {"amenity": "charging_station", "fee": "yes", "network": "Freshmile", "opening_hours": "Mo-Sa 09:00-18:00", "operator": "Freshmile", "name": "Ladestation Freshmile", "addr:country": "FR", "socket:type2": "1", "socket:type2:output": "22 kW", "socket:type2_combo": "1", "socket:type2_combo:output": "50 kW", "socket:chademo": "1", "socket:chademo:output": "50 kW", "charging_station:output": "50 kW", "_source": "worldwide"}}, {"type": "node", "id": 11109171221, "lat": 48.945237, "lon": 4.390331, "tags": {"amenity": "charging_station", "fee": "yes", "network": "Freshmile", "opening_hours": "24/7", "operator": "Freshmile SAS", "name": "Freshmile SAS - Freshmile", "addr:country": "FR", "socket:type2": "1", "socket:type2:output": "22 kW", "socket:type2_combo": "1", "socket:type2_combo:output": "50 kW", "socket:chademo": "1", "socket:chademo:output": "50 kW", "charging_station:output": "50 kW", "_source": "worldwide"}}, {"type": "node", "id": 11109171222, "lat": 48.943368, "lon": 4.39603, "tags": {"amenity": "charging_station", "fee": "yes", "network": "638a0f9abb23fb6dc695ab59", "opening_hours": "24/7", "operator": "638a0f9abb23fb6dc695ab59", "name": "Ladestation 638a0f9abb23fb6dc695ab59", "addr:country": "FR", "socket:type2": "1", "socket:type2:output": "22 kW", "charging_station:output": "22 kW", "_source": "worldwide"}}, {"type": "node", "id": 11109171223, "lat": 48.917944, "lon": 4.404936, "tags": {"amenity": "charging_station", "fee": "yes", "network": "SARRY - 41698 - Rue Basse", "opening_hours": "24/7", "operator": "SARRY - 41698 - Rue Basse", "name": "Ladestation SARRY - 41698 - Rue Basse", "addr:country": "FR", "socket:type2": "1", "socket:type2:output": "22 kW", "charging_station:output": "22 kW", "_source": "worldwide"}}, {"type": "node", "id": 11109171224, "lat": 48.944917, "lon": 4.369991, "tags": {"amenity": "charging_station", "fee": "yes", "network": "Freshmile", "opening_hours": "24/7", "operator": "Freshmile SAS", "name": "Freshmile SAS - Freshmile", "addr:country": "FR", "socket:type2": "1", "socket:type2:output": "22 kW", "charging_station:output": "22 kW", "_source": "worldwide"}}, {"type": "node", "id": 11109171225, "lat": 48.906003, "lon": 4.005171, "tags": {"amenity": "charging_station", "fee": "no", "network": "BLANCS COTEAUX - 40985 - Boulebard Jean Brion", "opening_hours": "24/7", "operator": "BLANCS COTEAUX - 40985 - Boulebard Jean Brion", "name": "Ladestation BLANCS COTEAUX - 40985 - Boulebard Jean Brion", "addr:country": "FR", "socket:type2": "1", "socket:type2:output": "22 kW", "charging_station:output": "22 kW", "authentication:none": "yes", "_source": "worldwide"}}, {"type": "node", "id": 11109171226, "lat": 48.971941, "lon": 4.009818, "tags": {"amenity": "charging_station", "fee": "no", "network": "AVIZE - 43907 - Rue du bourg Joli", "opening_hours": "24/7", "operator": "AVIZE - 43907 - Rue du bourg Joli", "name": "Ladestation AVIZE - 43907 - Rue du bourg Joli", "addr:country": "FR", "socket:type2": "1", "socket:type2:output": "22 kW", "charging_station:output": "22 kW", "authentication:none": "yes", "_source": "worldwide"}}, {"type": "node", "id": 11109171241, "lat": 48.95772, "lon": 4.36678, "tags": {"amenity": "charging_station", "fee": "yes", "network": "Châlons-en-Champagne | Rue du Flocmagny", "opening_hours": "24/7", "operator": "Châlons-en-Champagne | Rue du Flocmagny", "name": "Ladestation Châlons-en-Champagne | Rue du Flocmagny", "addr:country": "FR", "socket:type2": "1", "socket:type2:output": "22 kW", "charging_station:output": "22 kW", "_source": "worldwide"}}, {"type": "node", "id": 11659346988, "lat": 48.957002, "lon": 4.364429, "tags": {"amenity": "charging_station", "access": "yes", "fee": "yes", "addr:country": "FR", "capacity": "2", "_source": "worldwide"}}, {"type": "node", "id": 11109171258, "lat": 48.783972, "lon": 4.912567, "tags": {"amenity": "charging_station", "fee": "yes", "network": "SERMAIZE LES BAINS - 40907 - Rue de Saint Dizier", "opening_hours": "24/7", "operator": "SERMAIZE LES BAINS - 40907 - Rue de Saint Dizier", "name": "Ladestation SERMAIZE LES BAINS - 40907 - Rue de Saint Dizier", "addr:country": "FR", "socket:type2": "1", "socket:type2:output": "22 kW", "charging_station:output": "22 kW", "_source": "worldwide"}}, {"type": "node", "id": 11109171262, "lat": 48.691364, "lon": 4.730889, "tags": {"amenity": "charging_station", "fee": "yes", "network": "THIEBLEMONT-FAREMONT - 42689 - Rue Laurent Gerard", "opening_hours": "24/7", "operator": "THIEBLEMONT-FAREMONT - 42689 - Rue Laurent Gerard", "name": "Ladestation THIEBLEMONT-FAREMONT - 42689 - Rue Laurent Gerard", "addr:country": "FR", "socket:type2": "1", "socket:type2:output": "22 kW", "charging_station:output": "22 kW", "_source": "worldwide"}}, {"type": "node", "id": 11109171397, "lat": 48.648549, "lon": 4.959916, "tags": {"amenity": "charging_station", "fee": "yes", "network": "CGED CGED ST DIZIER", "opening_hours": "Mo 06:30-19:00,Tu 06:30-19:00,We 06:30-19:00,Th 06:30-19:00,Fr 06:30-19:00", "operator": "CGED CGED ST DIZIER", "name": "Ladestation CGED CGED ST DIZIER", "addr:country": "FR", "socket:type2": "1", "socket:type2:output": "22 kW", "charging_station:output": "22 kW", "_source": "worldwide"}}, {"type": "node", "id": 11109171450, "lat": 48.624835, "lon": 4.111696, "tags": {"amenity": "charging_station", "fee": "no", "network": "Freshmile", "opening_hours": "24/7", "operator": "Freshmile SAS", "name": "Freshmile SAS - Freshmile", "addr:country": "FR", "socket:type2": "1", "socket:type2:output": "22 kW", "charging_station:output": "22 kW", "authentication:none": "yes", "_source": "worldwide"}}, {"type": "node", "id": 11109171452, "lat": 48.635996, "lon": 4.112504, "tags": {"amenity": "charging_station", "fee": "no", "network": "Freshmile", "opening_hours": "24/7", "operator": "Freshmile SAS", "name": "Freshmile SAS - Freshmile", "addr:country": "FR", "socket:type2": "1", "socket:type2:output": "22 kW", "charging_station:output": "22 kW", "authentication:none": "yes", "_source": "worldwide"}}, {"type": "node", "id": 11109171455, "lat": 48.592374, "lon": 4.232003, "tags": {"amenity": "charging_station", "fee": "yes", "network": "Freshmile", "opening_hours": "24/7", "operator": "Freshmile SAS", "name": "Freshmile SAS - Freshmile", "addr:country": "FR", "socket:type2": "1", "socket:type2:output": "22 kW", "charging_station:output": "22 kW", "_source": "worldwide"}}, {"type": "node", "id": 11109171473, "lat": 48.606594, "lon": 4.774333, "tags": {"amenity": "charging_station", "fee": "yes", "network": "Ste MARIE DU LAC - 42657 - Rue de Nuisement", "opening_hours": "24/7", "operator": "Ste MARIE DU LAC - 42657 - Rue de Nuisement", "name": "Ladestation Ste MARIE DU LAC - 42657 - Rue de Nuisement", "addr:country": "FR", "socket:type2": "1", "socket:type2:output": "22 kW", "charging_station:output": "22 kW", "_source": "worldwide"}}, {"type": "node", "id": 11109171476, "lat": 48.589547, "lon": 4.865491, "tags": {"amenity": "charging_station", "fee": "yes", "network": "Freshmile", "opening_hours": "24/7", "operator": "Freshmile SAS", "name": "Freshmile SAS - Freshmile", "addr:country": "FR", "socket:type2": "1", "socket:type2:output": "22 kW", "charging_station:output": "22 kW", "_source": "worldwide"}}, {"type": "node", "id": 11109171482, "lat": 48.47764, "lon": 4.770701, "tags": {"amenity": "charging_station", "fee": "yes", "network": "Freshmile", "opening_hours": "24/7", "operator": "Freshmile SAS", "name": "Freshmile SAS - Freshmile", "addr:country": "FR", "socket:type2": "1", "socket:type2:output": "22 kW", "charging_station:output": "22 kW", "_source": "worldwide"}}, {"type": "node", "id": 11109171486, "lat": 48.418127, "lon": 4.658171, "tags": {"amenity": "charging_station", "fee": "yes", "network": "Freshmile", "opening_hours": "24/7", "operator": "Freshmile SAS", "name": "Freshmile SAS - Freshmile", "addr:country": "FR", "socket:type2": "1", "socket:type2:output": "22 kW", "charging_station:output": "22 kW", "_source": "worldwide"}}, {"type": "node", "id": 11109171489, "lat": 48.380433, "lon": 4.620832, "tags": {"amenity": "charging_station", "fee": "yes", "network": "Freshmile", "opening_hours": "24/7", "operator": "Freshmile SAS", "name": "Freshmile SAS - Freshmile", "addr:country": "FR", "socket:type2": "1", "socket:type2:output": "22 kW", "charging_station:output": "22 kW", "_source": "worldwide"}}, {"type": "node", "id": 11109171491, "lat": 48.503592, "lon": 4.274361, "tags": {"amenity": "charging_station", "fee": "yes", "network": "Freshmile", "opening_hours": "24/7", "operator": "Freshmile SAS", "name": "Freshmile SAS - Freshmile", "addr:country": "FR", "socket:type2": "1", "socket:type2:output": "22 kW", "charging_station:output": "22 kW", "_source": "worldwide"}}, {"type": "node", "id": 11109171493, "lat": 48.519751, "lon": 4.290038, "tags": {"amenity": "charging_station", "fee": "no", "network": "Freshmile", "opening_hours": "24/7", "operator": "Freshmile", "name": "Ladestation Freshmile", "addr:country": "FR", "socket:type2": "2", "socket:type2:output": "22 kW", "charging_station:output": "22 kW", "capacity": "2", "authentication:none": "yes", "_source": "worldwide"}}, {"type": "node", "id": 11109171495, "lat": 48.531443, "lon": 4.194289, "tags": {"amenity": "charging_station", "fee": "yes", "network": "Freshmile", "opening_hours": "24/7", "operator": "Freshmile SAS", "name": "Freshmile SAS - Freshmile", "addr:country": "FR", "socket:type2": "1", "socket:type2:output": "22 kW", "charging_station:output": "22 kW", "_source": "worldwide"}}, {"type": "node", "id": 11109171496, "lat": 48.501568, "lon": 4.385165, "tags": {"amenity": "charging_station", "fee": "yes", "network": "Freshmile", "opening_hours": "24/7", "operator": "Freshmile SAS", "name": "Freshmile SAS - Freshmile", "addr:country": "FR", "socket:type2": "1", "socket:type2:output": "22 kW", "charging_station:output": "22 kW", "_source": "worldwide"}}, {"type": "node", "id": 11466685902, "lat": 48.332565, "lon": 4.125948, "tags": {"amenity": "charging_station", "fee": "yes", "network": "Freshmile", "opening_hours": "24/7", "operator": "Freshmile SAS", "name": "Freshmile SAS - Freshmile", "addr:country": "FR", "socket:type2": "2", "socket:type2:output": "22 kW", "charging_station:output": "22 kW", "capacity": "2", "authentication:none": "yes", "_source": "worldwide"}}, {"type": "node", "id": 11659585467, "lat": 48.977688, "lon": 4.468835, "tags": {"amenity": "charging_station", "access": "customers", "fee": "yes", "operator": "Armes de Champagne", "name": "Ladestation Armes de Champagne", "addr:country": "FR", "_source": "worldwide"}}, {"type": "node", "id": 11818795258, "lat": 48.722593, "lon": 4.592793, "tags": {"amenity": "charging_station", "addr:country": "FR", "_source": "worldwide"}}, {"type": "node", "id": 12089386573, "lat": 48.166834, "lon": 4.246466, "tags": {"amenity": "charging_station", "brand": "SDEA", "opening_hours": "24/7", "name": "Ladestation SDEA", "addr:country": "FR", "capacity": "2", "_source": "worldwide"}}, {"type": "node", "id": 12108059008, "lat": 48.626484, "lon": 4.966117, "tags": {"amenity": "charging_station", "operator": "powerdot", "name": "Ladestation powerdot", "addr:country": "FR", "socket:type2": "1", "socket:type2:output": "22 kW", "socket:type2_combo": "2", "socket:type2_combo:output": "50 kW", "charging_station:output": "50 kW", "_source": "worldwide"}}, {"type": "node", "id": 12603984639, "lat": 48.717248, "lon": 4.6251, "tags": {"amenity": "charging_station", "addr:country": "FR", "capacity": "2", "_source": "worldwide"}}, {"type": "node", "id": 12677547532, "lat": 48.297804, "lon": 4.517087, "tags": {"amenity": "charging_station", "fee": "yes", "network": "SDEA10", "operator": "INEO TINEA", "name": "INEO TINEA - SDEA10", "addr:country": "FR", "_source": "worldwide"}}, {"type": "node", "id": 12912861692, "lat": 48.302686, "lon": 4.076142, "tags": {"amenity": "charging_station", "operator": "SDEA", "name": "Ladestation SDEA", "addr:country": "FR", "capacity": "2", "_source": "worldwide"}}, {"type": "node", "id": 13127661647, "lat": 48.302338, "lon": 4.079847, "tags": {"amenity": "charging_station", "operator": "SDEA", "name": "Ladestation SDEA", "addr:country": "FR", "capacity": "2", "_source": "worldwide"}}, {"type": "node", "id": 12912954368, "lat": 48.302471, "lon": 4.075759, "tags": {"amenity": "charging_station", "operator": "SDEA", "name": "Ladestation SDEA", "addr:country": "FR", "capacity": "2", "_source": "worldwide"}}, {"type": "node", "id": 12918893679, "lat": 48.312758, "lon": 4.073807, "tags": {"amenity": "charging_station", "operator": "Wellborne", "name": "Ladestation Wellborne", "addr:country": "FR", "capacity": "3", "_source": "worldwide"}}, {"type": "node", "id": 12993678902, "lat": 48.294749, "lon": 4.038539, "tags": {"amenity": "charging_station", "addr:country": "FR", "_source": "worldwide"}}, {"type": "node", "id": 13119361763, "lat": 48.298079, "lon": 4.068897, "tags": {"amenity": "charging_station", "operator": "SDEA", "name": "Ladestation SDEA", "addr:country": "FR", "capacity": "2", "_source": "worldwide"}}, {"type": "node", "id": 13369646414, "lat": 48.298222, "lon": 4.072058, "tags": {"amenity": "charging_station", "operator": "SDEA", "name": "Ladestation SDEA", "addr:country": "FR", "_source": "worldwide"}}, {"type": "node", "id": 13237845149, "lat": 48.222932, "lon": 4.886261, "tags": {"amenity": "charging_station", "access": "yes", "fee": "yes", "addr:country": "FR", "capacity": "2", "_source": "worldwide"}}, {"type": "node", "id": 13375667635, "lat": 48.23947, "lon": 4.466378, "tags": {"amenity": "charging_station", "addr:country": "FR", "_source": "worldwide"}}, {"type": "node", "id": 13426190768, "lat": 48.302026, "lon": 4.143596, "tags": {"amenity": "charging_station", "fee": "yes", "network": "SDEA 10", "opening_hours": "24/7", "operator": "Syndicat Départemental Énergie Aube", "name": "Syndicat Départemental Énergie Aube - SDEA 10", "addr:country": "FR", "socket:type2": "2", "socket:type2:output": "22 kW", "charging_station:output": "22 kW", "_source": "worldwide"}}, {"type": "node", "id": 13426256816, "lat": 48.29599, "lon": 4.129823, "tags": {"amenity": "charging_station", "fee": "yes", "network": "SPV COM", "opening_hours": "24/7", "operator": "R3", "name": "R3 - SPV COM", "addr:country": "FR", "socket:type2": "4", "socket:type2:output": "22 kW", "socket:type2_combo": "4", "socket:type2_combo:output": "50 kW", "charging_station:output": "50 kW", "capacity": "8", "_source": "worldwide"}}, {"type": "node", "id": 1417506085, "lat": 48.180805, "lon": 4.434382, "tags": {"amenity": "charging_station", "access": "yes", "fee": "yes", "brand": "Tesla Supercharger", "opening_hours": "24/7", "operator": "Tesla", "name": "Magnant Supercharger", "addr:country": "FR", "socket:type2_combo": "56", "socket:type2_combo:output": "250.0 kW", "charging_station:output": "250.0 kW", "capacity": "56", "_source": "worldwide"}}, {"type": "node", "id": 1458952015, "lat": 48.235699, "lon": 4.110294, "tags": {"amenity": "charging_station", "fee": "yes", "network": "SDEA 10", "opening_hours": "24/7", "operator": "Syndicat Départemental Énergie Aube", "name": "Syndicat Départemental Énergie Aube - SDEA 10", "addr:country": "FR", "socket:type2": "2", "socket:type2:output": "18.0 kW", "socket:type2_combo": "3", "socket:type2_combo:output": "50.0 kW", "socket:chademo": "1", "socket:chademo:output": "50.0 kW", "charging_station:output": "50.0 kW", "capacity": "4", "_source": "worldwide"}}, {"type": "node", "id": 1459834777, "lat": 48.991987, "lon": 4.245343, "tags": {"amenity": "charging_station", "access": "customers", "fee": "yes", "brand": "Tesla Supercharger", "opening_hours": "24/7", "operator": "Tesla", "name": "Châlons-en-Champagne Supercharger", "addr:street": "Route Nationale 8", "addr:postcode": "51510", "addr:city": "Matougues", "addr:country": "FR", "socket:type2_combo": "4", "socket:type2_combo:output": "150.0 kW", "socket:tesla_supercharger": "4", "socket:tesla_supercharger:output": "150.0 kW", "charging_station:output": "150.0 kW", "capacity": "4", "_source": "worldwide"}}]}