{"id": "52--107", "latMin": 52, "lonMin": -107, "latMax": 53, "lonMax": -106, "generated": "2026-04-16T18:39:08.544Z", "count": 12, "pois": [{"type": "node", "id": 6709106422, "lat": 52.146514, "lon": -106.621525, "tags": {"amenity": "charging_station", "fee": "no", "access": "yes", "brand": "Schneider Electric", "operator": "Schneider Electric", "name": "Schneider Electric", "socket:type1": "2", "capacity": "2", "_source": "worldwide"}}, {"type": "node", "id": 6964553221, "lat": 52.087326, "lon": -106.652951, "tags": {"amenity": "charging_station", "fee": "no", "brand": "Sun Country Highway", "operator": "Sherwood Chevrolet", "name": "Sun Country Highway", "socket:type1": "1", "capacity": "1", "_source": "worldwide"}}, {"type": "node", "id": 6964591921, "lat": 52.084366, "lon": -106.648853, "tags": {"amenity": "charging_station", "fee": "no", "brand": "Webasto", "operator": "Saskatoon South Hyundai", "name": "Webasto", "socket:type1": "1", "capacity": "1", "_source": "worldwide"}}, {"type": "node", "id": 6964591922, "lat": 52.084656, "lon": -106.649291, "tags": {"amenity": "charging_station", "fee": "no", "brand": "Webasto", "operator": "Saskatoon South Hyundai", "name": "Webasto", "socket:type1": "1", "capacity": "1", "_source": "worldwide"}}, {"type": "node", "id": 6964597320, "lat": 52.085416, "lon": -106.651683, "tags": {"amenity": "charging_station", "fee": "no", "brand": "ABB", "operator": "ABB", "name": "ABB", "socket:type1_combo": "1", "capacity": "1", "_source": "worldwide"}}, {"type": "node", "id": 6964597321, "lat": 52.084801, "lon": -106.651981, "tags": {"amenity": "charging_station", "fee": "no", "operator": "Audi Saskatoon", "name": "Audi Saskatoon", "socket:type1": "2", "capacity": "2", "_source": "worldwide"}}, {"type": "node", "id": 6964650337, "lat": 52.084542, "lon": -106.651909, "tags": {"amenity": "charging_station", "fee": "no", "brand": "ChargePoint", "operator": "ChargePoint", "name": "ChargePoint", "socket:type1": "2", "capacity": "2", "_source": "worldwide"}}, {"type": "node", "id": 6964650338, "lat": 52.084397, "lon": -106.651372, "tags": {"amenity": "charging_station", "fee": "no", "brand": "ChargePoint", "operator": "ChargePoint", "name": "ChargePoint", "socket:type1": "2", "capacity": "2", "_source": "worldwide"}}, {"type": "node", "id": 6964650339, "lat": 52.089014, "lon": -106.655436, "tags": {"amenity": "charging_station", "fee": "no", "brand": "Bosch", "operator": "Ens Toyota", "name": "Bosch", "socket:type1": "2", "capacity": "2", "_source": "worldwide"}}, {"type": "node", "id": 6964650340, "lat": 52.088038, "lon": -106.653453, "tags": {"amenity": "charging_station", "fee": "no", "brand": "ChargePoint", "operator": "ChargePoint", "name": "ChargePoint", "socket:type1": "2", "capacity": "2", "_source": "worldwide"}}, {"type": "node", "id": 6964653137, "lat": 52.173896, "lon": -106.652472, "tags": {"amenity": "charging_station", "fee": "no", "brand": "Sun Country Highway", "operator": "Peavey Mart", "name": "Sun Country Highway", "socket:type1": "1", "capacity": "1", "_source": "worldwide"}}, {"type": "node", "id": 9204513154, "lat": 52.086863, "lon": -106.645696, "tags": {"amenity": "charging_station", "fee": "yes", "access": "yes", "opening_hours": "24/7", "brand": "Tesla Supercharger", "network": "Supercharger", "operator": "Tesla, Inc.", "name": "Tesla Supercharger", "_source": "worldwide"}}]}