{"id": "35--83", "latMin": 35, "lonMin": -83, "latMax": 36, "lonMax": -82, "generated": "2026-04-16T18:39:07.315Z", "count": 26, "pois": [{"type": "node", "id": 3708459756, "lat": 35.491426, "lon": -82.988789, "tags": {"amenity": "charging_station", "fee": "yes", "opening_hours": "24/7", "name": "Greenlots", "socket:chademo": "1", "socket:type1_combo": "1", "capacity": "2", "_source": "worldwide"}}, {"type": "node", "id": 3708485165, "lat": 35.596847, "lon": -82.561049, "tags": {"amenity": "charging_station", "fee": "no", "name": "EV Charging Station", "socket:type1": "2", "capacity": "2", "_source": "worldwide"}}, {"type": "node", "id": 3708485535, "lat": 35.499806, "lon": -82.522551, "tags": {"amenity": "charging_station", "fee": "no", "opening_hours": "24/7", "name": "EV Charging Station", "socket:type1": "2", "capacity": "2", "_source": "worldwide"}}, {"type": "node", "id": 3708501777, "lat": 35.569087, "lon": -82.555178, "tags": {"amenity": "charging_station", "name": "EV Charging Station", "socket:chademo": "1", "socket:type1": "1", "capacity": "2", "_source": "worldwide"}}, {"type": "node", "id": 3708526618, "lat": 35.316955, "lon": -82.462139, "tags": {"amenity": "charging_station", "fee": "no", "opening_hours": "24/7", "name": "EV Charging Station", "socket:type1": "2", "capacity": "2", "_source": "worldwide"}}, {"type": "node", "id": 4276907405, "lat": 35.61896, "lon": -82.320311, "tags": {"amenity": "charging_station", "fee": "no", "opening_hours": "24/7", "name": "GE WattStation", "socket:type1": "2", "capacity": "2", "_source": "worldwide"}}, {"type": "node", "id": 4276912955, "lat": 35.592966, "lon": -82.551761, "tags": {"amenity": "charging_station", "operator": "Shell Recharge Solutions", "name": "Greenlots", "socket:chademo": "1", "socket:type1_combo": "1", "capacity": "2", "_source": "worldwide"}}, {"type": "node", "id": 4276938450, "lat": 35.645685, "lon": -82.296906, "tags": {"amenity": "charging_station", "fee": "no", "opening_hours": "24/7", "name": "EV Charging Station", "socket:type1": "1", "capacity": "1", "_source": "worldwide"}}, {"type": "node", "id": 6565044511, "lat": 35.702545, "lon": -82.575743, "tags": {"amenity": "charging_station", "name": "EV Charging Station", "_source": "worldwide"}}, {"type": "node", "id": 6708450338, "lat": 35.53139, "lon": -82.60449, "tags": {"amenity": "charging_station", "fee": "yes", "access": "customers", "opening_hours": "24/7", "brand": "Tesla Supercharger", "network": "Supercharger", "operator": "Tesla, Inc.", "name": "Asheville Supercharger", "addr:street": "Brevard Road", "addr:housenumber": "800", "addr:postcode": "28806", "addr:city": "Asheville", "addr:country": "US", "capacity": "12", "_source": "worldwide"}}, {"type": "node", "id": 6970294015, "lat": 35.43075, "lon": -82.553194, "tags": {"amenity": "charging_station", "fee": "no", "access": "yes", "operator": "ChargePoint", "name": "EV Charging Station", "_source": "worldwide"}}, {"type": "node", "id": 7994863211, "lat": 35.702946, "lon": -82.565426, "tags": {"amenity": "charging_station", "name": "EV Charging Station", "_source": "worldwide"}}, {"type": "node", "id": 7994863212, "lat": 35.672313, "lon": -82.581173, "tags": {"amenity": "charging_station", "name": "EV Charging Station", "_source": "worldwide"}}, {"type": "node", "id": 7994863213, "lat": 35.893385, "lon": -82.824858, "tags": {"amenity": "charging_station", "name": "EV Charging Station", "_source": "worldwide"}}, {"type": "node", "id": 11365565643, "lat": 35.56513, "lon": -82.628688, "tags": {"amenity": "charging_station", "name": "EV Charging Station", "socket:type1": "2", "capacity": "2", "_source": "worldwide"}}, {"type": "node", "id": 11771918439, "lat": 35.246502, "lon": -82.329857, "tags": {"amenity": "charging_station", "fee": "yes", "access": "yes", "operator": "Shell", "name": "Shell", "_source": "worldwide"}}, {"type": "node", "id": 11774219405, "lat": 35.233764, "lon": -82.735919, "tags": {"amenity": "charging_station", "name": "EV Charging Station", "_source": "worldwide"}}, {"type": "node", "id": 12111411037, "lat": 35.175234, "lon": -82.189161, "tags": {"amenity": "charging_station", "brand": "ChargePoint", "operator": "ChargePoint", "name": "ChargePoint", "_source": "worldwide"}}, {"type": "node", "id": 12897005208, "lat": 35.529955, "lon": -82.604554, "tags": {"amenity": "charging_station", "opening_hours": "24/7", "brand": "Rivian", "network": "Rivian Adventure", "name": "Rivian Adventure", "addr:street": "Brevard Road", "addr:housenumber": "800", "addr:postcode": "28806", "addr:city": "Asheville", "addr:country": "US", "socket:type1_combo": "6", "capacity": "6", "_source": "worldwide"}}, {"type": "node", "id": 12917566730, "lat": 35.51421, "lon": -82.5258, "tags": {"amenity": "charging_station", "opening_hours": "24/7", "network": "Electrify America", "name": "EV Charging Station", "addr:street": "Hendersonville Road", "addr:housenumber": "1636", "addr:postcode": "28803", "addr:city": "Asheville", "addr:country": "US", "socket:type1_combo": "8", "capacity": "8", "_source": "worldwide"}}, {"type": "node", "id": 12944743384, "lat": 35.33632, "lon": -82.44867, "tags": {"amenity": "charging_station", "fee": "yes", "access": "yes", "opening_hours": "24/7", "brand": "Tesla Supercharger", "network": "Supercharger", "operator": "Tesla, Inc.", "name": "Tesla Supercharger", "addr:street": "Coolridge Street", "addr:housenumber": "160", "addr:postcode": "28792", "addr:city": "Hendersonville", "addr:country": "US", "capacity": "12", "_source": "worldwide"}}, {"type": "node", "id": 12944743708, "lat": 35.59229, "lon": -82.57432, "tags": {"amenity": "charging_station", "fee": "yes", "access": "yes", "opening_hours": "24/7", "brand": "Tesla Supercharger", "network": "Supercharger", "operator": "Tesla, Inc.", "name": "Tesla Supercharger", "addr:street": "Westgate Parkway", "addr:housenumber": "40", "addr:postcode": "28806", "addr:city": "Asheville", "addr:country": "US", "capacity": "20", "_source": "worldwide"}}, {"type": "node", "id": 12944743782, "lat": 35.58191, "lon": -82.52364, "tags": {"amenity": "charging_station", "fee": "yes", "access": "yes", "opening_hours": "24/7", "brand": "Tesla Supercharger", "network": "Supercharger", "operator": "Tesla, Inc.", "name": "Asheville Supercharger", "addr:street": "South Tunnel Road", "addr:housenumber": "4", "addr:postcode": "28805", "addr:city": "Asheville", "addr:country": "US", "capacity": "8", "_source": "worldwide"}}, {"type": "node", "id": 12944744024, "lat": 35.63823, "lon": -82.14317, "tags": {"amenity": "charging_station", "fee": "yes", "access": "yes", "opening_hours": "24/7", "brand": "Tesla Supercharger", "network": "Supercharger", "operator": "Tesla, Inc.", "name": "Old Fort Supercharger", "addr:street": "Parker Padgett Road", "addr:housenumber": "121", "addr:postcode": "28762", "addr:city": "Old Fort", "addr:country": "US", "capacity": "12", "_source": "worldwide"}}, {"type": "node", "id": 12944744127, "lat": 35.58423, "lon": -82.52393, "tags": {"amenity": "charging_station", "fee": "yes", "access": "yes", "opening_hours": "24/7", "brand": "Tesla Supercharger", "network": "Supercharger", "operator": "Tesla, Inc.", "name": "Asheville Supercharger", "addr:street": "South Tunnel Road", "addr:housenumber": "4", "addr:postcode": "28805", "addr:city": "Asheville", "addr:country": "US", "capacity": "8", "_source": "worldwide"}}, {"type": "node", "id": 12998167721, "lat": 35.549864, "lon": -82.60173, "tags": {"amenity": "charging_station", "opening_hours": "24/7", "network": "ChargePoint", "name": "EV Charging Station", "addr:street": "Brevard Road", "addr:housenumber": "611", "addr:postcode": "28806", "addr:city": "Asheville", "addr:country": "US", "socket:type1_combo": "4", "capacity": "4", "_source": "worldwide"}}]}