{"id": "22-88", "latMin": 22, "lonMin": 88, "latMax": 23, "lonMax": 89, "generated": "2026-04-16T18:39:07.239Z", "count": 17, "pois": [{"type": "node", "id": 9717918117, "lat": 22.540865, "lon": 88.368048, "tags": {"amenity": "charging_station", "opening_hours": "24/7", "name": "Electric vehicle charging station", "_source": "worldwide"}}, {"type": "node", "id": 9717920317, "lat": 22.566545, "lon": 88.352106, "tags": {"amenity": "charging_station", "name": "Electric vehicle chargeing station", "addr:street": "Chittaranjan Avenue", "addr:housenumber": "1", "addr:postcode": "700072", "_source": "worldwide"}}, {"type": "node", "id": 9717923217, "lat": 22.547525, "lon": 88.349549, "tags": {"amenity": "charging_station", "opening_hours": "24/7", "name": "Electric vehicle charging station tata", "addr:street": "Jawaharlal Nehru Road", "addr:housenumber": "43", "addr:postcode": "700071", "_source": "worldwide"}}, {"type": "node", "id": 9717925317, "lat": 22.58139, "lon": 88.342141, "tags": {"amenity": "charging_station", "opening_hours": "24/7", "name": "Electric Vehicle Charging Station", "_source": "worldwide"}}, {"type": "node", "id": 10115952217, "lat": 22.607523, "lon": 88.392257, "tags": {"amenity": "charging_station", "opening_hours": "24/7", "name": "Electric vehicle charging station", "_source": "worldwide"}}, {"type": "node", "id": 10115962717, "lat": 22.50936, "lon": 88.367412, "tags": {"amenity": "charging_station", "opening_hours": "24/7", "operator": "CESC", "name": "Electric vehicle charging station 20kw &7kw", "addr:street": "Dhakuria Bridge", "_source": "worldwide"}}, {"type": "node", "id": 10553919109, "lat": 22.59425, "lon": 88.471954, "tags": {"amenity": "charging_station", "name": "Electric Vehicle Charging Station", "addr:street": "NH-34", "addr:postcode": "700156", "_source": "worldwide"}}, {"type": "node", "id": 10553919709, "lat": 22.599478, "lon": 88.471966, "tags": {"amenity": "charging_station", "name": "Electric Vehicle Charging Station", "_source": "worldwide"}}, {"type": "node", "id": 10553919710, "lat": 22.584523, "lon": 88.490891, "tags": {"amenity": "charging_station", "name": "Electric Vehicle Charging Station", "addr:street": "Ecospace Seating Area Path2", "addr:postcode": "700135", "_source": "worldwide"}}, {"type": "node", "id": 10553924809, "lat": 22.578522, "lon": 88.453, "tags": {"amenity": "charging_station", "name": "Mahindra Charging Station", "_source": "worldwide"}}, {"type": "node", "id": 10553925409, "lat": 22.578517, "lon": 88.452657, "tags": {"amenity": "charging_station", "opening_hours": "24/7", "name": "EESL Charging Station", "addr:street": "action area 1", "addr:postcode": "700156", "_source": "worldwide"}}, {"type": "node", "id": 10553967709, "lat": 22.581587, "lon": 88.44817, "tags": {"amenity": "charging_station", "opening_hours": "24/7", "name": "Electric Vehicle Charging Station", "addr:street": "Street Number 30", "addr:postcode": "700059", "_source": "worldwide"}}, {"type": "node", "id": 10554039609, "lat": 22.66067, "lon": 88.441805, "tags": {"amenity": "charging_station", "opening_hours": "24/7", "name": "Electric Vehicle Charging Station", "addr:street": "Jessore Road", "addr:postcode": "700079", "_source": "worldwide"}}, {"type": "node", "id": 10554040909, "lat": 22.630807, "lon": 88.421738, "tags": {"amenity": "charging_station", "opening_hours": "24/7", "name": "Electric Vehicle Charging Station", "addr:street": "RBC Road", "addr:housenumber": "111a", "addr:postcode": "700028", "_source": "worldwide"}}, {"type": "node", "id": 10564291409, "lat": 22.625646, "lon": 88.413176, "tags": {"amenity": "charging_station", "opening_hours": "24/7", "name": "Electric Vehicle Charging Station", "addr:street": "R N Guha Road", "addr:housenumber": "292", "addr:postcode": "700028", "_source": "worldwide"}}, {"type": "node", "id": 12880786515, "lat": 22.568261, "lon": 88.472598, "tags": {"amenity": "charging_station", "access": "unknown", "brand": "Jio BP Pulse", "operator": "Jio BP Pulse", "name": "Jio BP Pulse", "_source": "worldwide"}}, {"type": "node", "id": 12946107084, "lat": 22.470126, "lon": 88.309999, "tags": {"amenity": "charging_station", "brand": "Hero Electric Charging Station", "name": "Hero Electric Charging Station", "_source": "worldwide"}}]}