{"id": "42--90", "latMin": 42, "lonMin": -90, "latMax": 43, "lonMax": -89, "generated": "2026-04-16T18:39:07.854Z", "count": 7, "pois": [{"type": "node", "id": 6399419620, "lat": 42.972888, "lon": -89.506584, "tags": {"amenity": "charging_station", "brand": "ChargePoint", "operator": "ChargePoint", "name": "ChargePoint", "_source": "worldwide"}}, {"type": "node", "id": 6399419621, "lat": 42.972959, "lon": -89.507508, "tags": {"amenity": "charging_station", "brand": "ChargePoint", "operator": "ChargePoint", "name": "ChargePoint", "_source": "worldwide"}}, {"type": "node", "id": 10976806893, "lat": 42.970312, "lon": -89.508753, "tags": {"amenity": "charging_station", "fee": "yes", "brand": "Blink", "operator": "Blink", "name": "Blink", "socket:type1": "1", "capacity": "1", "_source": "worldwide"}}, {"type": "node", "id": 10976806894, "lat": 42.970311, "lon": -89.508709, "tags": {"amenity": "charging_station", "fee": "yes", "brand": "Blink", "operator": "Blink", "name": "Blink", "socket:type1": "1", "capacity": "1", "_source": "worldwide"}}, {"type": "node", "id": 12546618284, "lat": 42.594991, "lon": -89.377459, "tags": {"amenity": "charging_station", "name": "EV Charging Station", "_source": "worldwide"}}, {"type": "node", "id": 12854138233, "lat": 42.281419, "lon": -89.073195, "tags": {"amenity": "charging_station", "name": "EV Charging Station", "_source": "worldwide"}}, {"type": "node", "id": 12944744171, "lat": 42.227935, "lon": -89.071162, "tags": {"amenity": "charging_station", "fee": "yes", "access": "yes", "opening_hours": "24/7", "brand": "Tesla Supercharger", "network": "Supercharger", "operator": "Tesla", "name": "Rockford Supercharger", "addr:street": "11th Street", "addr:housenumber": "3168", "addr:postcode": "61109", "addr:city": "Rockford", "addr:country": "US", "capacity": "12", "_source": "worldwide"}}]}