{"id": "30--96", "latMin": 30, "lonMin": -96, "latMax": 31, "lonMax": -95, "generated": "2026-04-16T18:39:07.270Z", "count": 17, "pois": [{"type": "node", "id": 4551051441, "lat": 30.71616, "lon": -95.56594, "tags": {"amenity": "charging_station", "fee": "yes", "access": "customers", "opening_hours": "24/7", "brand": "Tesla Supercharger", "network": "Supercharger", "operator": "Tesla", "name": "Tesla Supercharger", "addr:street": "Interstate 45 South", "addr:housenumber": "148", "addr:postcode": "77340", "addr:city": "Huntsville", "addr:country": "US", "capacity": "6", "_source": "worldwide"}}, {"type": "node", "id": 6747298353, "lat": 30.176985, "lon": -95.447366, "tags": {"amenity": "charging_station", "fee": "yes", "access": "customers", "opening_hours": "24/7", "brand": "Tesla Supercharger", "network": "Supercharger", "operator": "Tesla, Inc.", "name": "Tesla Supercharger", "_source": "worldwide"}}, {"type": "node", "id": 6956116003, "lat": 30.184541, "lon": -95.485799, "tags": {"amenity": "charging_station", "access": "yes", "brand": "Electric Circuit", "name": "Electric Circuit", "_source": "worldwide"}}, {"type": "node", "id": 7638273485, "lat": 30.126905, "lon": -95.445413, "tags": {"amenity": "charging_station", "fee": "yes", "brand": "eVgo", "name": "eVgo", "_source": "worldwide"}}, {"type": "node", "id": 8639153664, "lat": 30.163288, "lon": -95.454492, "tags": {"amenity": "charging_station", "fee": "yes", "access": "yes", "operator": "Volta", "name": "Volta Charging Station", "_source": "worldwide"}}, {"type": "node", "id": 10268596077, "lat": 30.966116, "lon": -95.879491, "tags": {"amenity": "charging_station", "fee": "yes", "access": "yes", "opening_hours": "24/7", "brand": "Tesla Supercharger", "network": "Supercharger", "operator": "Tesla", "name": "Madisonville Supercharger", "addr:street": "I-45", "addr:housenumber": "205", "addr:postcode": "77864", "addr:city": "Madisonville", "addr:country": "US", "socket:type1_combo": "60", "capacity": "120", "_source": "worldwide"}}, {"type": "node", "id": 11815314124, "lat": 30.163471, "lon": -95.456681, "tags": {"amenity": "charging_station", "fee": "no", "access": "yes", "operator": "Volta", "name": "Volta", "_source": "worldwide"}}, {"type": "node", "id": 11815314125, "lat": 30.163211, "lon": -95.453675, "tags": {"amenity": "charging_station", "operator": "Volta", "name": "Volta", "_source": "worldwide"}}, {"type": "node", "id": 11815314126, "lat": 30.165757, "lon": -95.455646, "tags": {"amenity": "charging_station", "operator": "Volta", "name": "Volta", "_source": "worldwide"}}, {"type": "node", "id": 11815314127, "lat": 30.16439, "lon": -95.458021, "tags": {"amenity": "charging_station", "operator": "Volta", "name": "Volta", "_source": "worldwide"}}, {"type": "node", "id": 12054040739, "lat": 30.194959, "lon": -95.452466, "tags": {"amenity": "charging_station", "fee": "yes", "access": "yes", "opening_hours": "24/7", "brand": "Tesla Supercharger", "network": "Supercharger", "operator": "Tesla", "name": "Tesla Supercharger", "addr:street": "Metropark Drive", "addr:housenumber": "8888", "addr:postcode": "77385", "addr:city": "Shenandoah", "addr:country": "US", "capacity": "8", "_source": "worldwide"}}, {"type": "node", "id": 12055671265, "lat": 30.0503, "lon": -95.43836, "tags": {"amenity": "charging_station", "fee": "yes", "access": "yes", "opening_hours": "24/7", "brand": "Tesla Supercharger", "network": "Supercharger", "operator": "Tesla, Inc.", "name": "Tesla Supercharger", "addr:street": "Cypresswood Drive", "addr:housenumber": "294", "addr:postcode": "77388", "addr:city": "Spring", "addr:country": "US", "capacity": "8", "_source": "worldwide"}}, {"type": "node", "id": 12094045171, "lat": 30.0707, "lon": -95.93043, "tags": {"amenity": "charging_station", "fee": "yes", "access": "yes", "opening_hours": "24/7", "brand": "Tesla Supercharger", "network": "Supercharger", "operator": "Tesla", "name": "Waller Supercharger", "addr:street": "US-290", "addr:housenumber": "40900", "addr:postcode": "77484", "addr:city": "Waller", "addr:country": "US", "socket:type1_combo": "28", "capacity": "56", "_source": "worldwide"}}, {"type": "node", "id": 12923925105, "lat": 30.085474, "lon": -95.44986, "tags": {"amenity": "charging_station", "fee": "yes", "access": "customers", "opening_hours": "24/7", "brand": "Tesla Supercharger", "network": "Supercharger", "operator": "Tesla", "name": "Spring Supercharger", "addr:street": "Spring Stuebner Road", "addr:housenumber": "2102-2180", "addr:postcode": "77389", "addr:city": "Spring", "addr:country": "US", "capacity": "15", "_source": "worldwide"}}, {"type": "node", "id": 12924951749, "lat": 30.188738, "lon": -95.452155, "tags": {"amenity": "charging_station", "fee": "yes", "access": "yes", "opening_hours": "24/7", "brand": "Tesla Supercharger", "network": "Supercharger", "operator": "Tesla", "name": "Tesla Supercharger", "addr:street": "I-45", "addr:housenumber": "10973", "addr:postcode": "77385", "addr:city": "Shenandoah", "addr:country": "US", "capacity": "8", "_source": "worldwide"}}, {"type": "node", "id": 12926742323, "lat": 30.131527, "lon": -95.237268, "tags": {"amenity": "charging_station", "fee": "yes", "access": "yes", "opening_hours": "24/7", "brand": "Tesla Supercharger", "network": "Supercharger", "operator": "Tesla", "name": "New Caney Supercharger", "addr:street": "Market Place Drive", "addr:housenumber": "22118 1/2", "addr:postcode": "77357", "addr:city": "New Caney", "addr:country": "US", "capacity": "16", "_source": "worldwide"}}, {"type": "node", "id": 13654956773, "lat": 30.738678, "lon": -95.590304, "tags": {"amenity": "charging_station", "fee": "yes", "access": "yes", "opening_hours": "24/7", "brand": "Tesla Supercharger", "network": "Supercharger", "operator": "Tesla", "name": "Tesla Supercharger", "addr:street": "I-45", "addr:housenumber": "500", "addr:postcode": "77320", "addr:city": "Huntsville", "addr:country": "US", "capacity": "12", "_source": "worldwide"}}]}