{"id": "63--22", "latMin": 63, "lonMin": -22, "latMax": 64, "lonMax": -21, "generated": "2026-04-16T18:39:08.800Z", "count": 10, "pois": [{"type": "node", "id": 6723103514, "lat": 63.972923, "lon": -22.54476, "tags": {"amenity": "charging_station", "access": "permissive", "fee": "yes", "operator": "Orka náttúrunnar", "name": "ON", "socket:type2_combo": "1", "socket:type2_combo:output": "50.0 kW", "socket:chademo": "1", "socket:chademo:output": "50.0 kW", "charging_station:output": "50.0 kW", "capacity": "2", "_source": "worldwide"}}, {"type": "node", "id": 7116478056, "lat": 63.880139, "lon": -22.451711, "tags": {"amenity": "charging_station", "capacity": "6", "_source": "worldwide"}}, {"type": "node", "id": 9908657517, "lat": 63.997036, "lon": -22.629296, "tags": {"amenity": "charging_station", "capacity": "6", "_source": "worldwide"}}, {"type": "node", "id": 11051176091, "lat": 63.99866, "lon": -22.561442, "tags": {"amenity": "charging_station", "access": "permissive", "fee": "yes", "brand": "ON", "operator": "Orka náttúrunnar", "name": "Sundmiðstöðin Reykjanesbæ - Hverfahleðsla", "socket:type2": "4", "socket:type2:output": "22.0 kW", "charging_station:output": "22.0 kW", "capacity": "4", "_source": "worldwide"}}, {"type": "node", "id": 11051198008, "lat": 63.996456, "lon": -22.561858, "tags": {"amenity": "charging_station", "access": "permissive", "fee": "yes", "brand": "ON", "operator": "Orka náttúrunnar", "name": "Fjölbrautarskóli Suðurnesja - Hverfahleðsla", "socket:type2": "4", "socket:type2:output": "22.0 kW", "charging_station:output": "22.0 kW", "capacity": "4", "_source": "worldwide"}}, {"type": "node", "id": 11051181442, "lat": 63.968935, "lon": -22.571984, "tags": {"amenity": "charging_station", "access": "permissive", "fee": "yes", "brand": "ON", "operator": "Orka náttúrunnar", "name": "Keilir - Hverfahleðsla", "socket:type2": "4", "socket:type2:output": "22.0 kW", "charging_station:output": "22.0 kW", "capacity": "4", "_source": "worldwide"}}, {"type": "node", "id": 11051215746, "lat": 63.972421, "lon": -22.494646, "tags": {"amenity": "charging_station", "access": "permissive", "fee": "yes", "brand": "ON", "operator": "Orka náttúrunnar", "name": "Stapaskóli - Hverfahleðsla", "socket:type2": "4", "socket:type2:output": "22.0 kW", "charging_station:output": "22.0 kW", "capacity": "4", "_source": "worldwide"}}, {"type": "node", "id": 11055725591, "lat": 63.998416, "lon": -22.588738, "tags": {"amenity": "charging_station", "access": "permissive", "fee": "yes", "brand": "Instavolt / HS Orka", "operator": "Instavolt", "name": "Hraðhleðslustöð, Keflavík", "socket:type2_combo": "20", "socket:type2_combo:output": "120.0 kW", "socket:chademo": "20", "socket:chademo:output": "62.5 kW", "charging_station:output": "120.0 kW", "capacity": "20", "_source": "worldwide"}}, {"type": "node", "id": 12097593441, "lat": 63.997033, "lon": -22.583269, "tags": {"amenity": "charging_station", "fee": "yes", "operator": "N1", "name": "Ladestation N1", "_source": "worldwide"}}, {"type": "node", "id": 12552466243, "lat": 63.99683, "lon": -22.580757, "tags": {"amenity": "charging_station", "brand": "Brimborg Bílorka", "name": "Ladestation Brimborg Bílorka", "_source": "worldwide"}}]}