{"id": "-29--54", "latMin": -29, "lonMin": -54, "latMax": -28, "lonMax": -53, "generated": "2026-04-16T18:39:07.201Z", "count": 5, "pois": [{"type": "node", "id": 4556211697, "lat": -28.635625, "lon": -53.610052, "tags": {"amenity": "charging_station", "operator": "Posto Shell", "name": "Posto Paizão", "_source": "worldwide"}}, {"type": "node", "id": 4556251493, "lat": -28.653178, "lon": -53.589254, "tags": {"amenity": "charging_station", "operator": "Posto Ipiranga", "name": "Posto Ipiranga", "_source": "worldwide"}}, {"type": "node", "id": 4557762766, "lat": -28.646832, "lon": -53.585248, "tags": {"amenity": "charging_station", "name": "Estrelar Auto Elétrica", "_source": "worldwide"}}, {"type": "node", "id": 4557938491, "lat": -28.646167, "lon": -53.596282, "tags": {"amenity": "charging_station", "name": "PROTTI", "_source": "worldwide"}}, {"type": "node", "id": 4790962823, "lat": -28.173459, "lon": -53.473225, "tags": {"amenity": "charging_station", "name": "EV Charging Station", "_source": "worldwide"}}]}