{"id": "34-139", "latMin": 34, "lonMin": 139, "latMax": 35, "lonMax": 140, "generated": "2026-04-16T18:39:07.312Z", "count": 7, "pois": [{"type": "node", "id": 2119390423, "lat": 34.738249, "lon": 139.380129, "tags": {"amenity": "charging_station", "name": "EV Charging Station", "_source": "worldwide"}}, {"type": "node", "id": 9459867551, "lat": 34.986611, "lon": 139.094047, "tags": {"amenity": "charging_station", "name": "EV Charging Station", "_source": "worldwide"}}, {"type": "node", "id": 11224339456, "lat": 34.969374, "lon": 139.097291, "tags": {"amenity": "charging_station", "access": "yes", "brand": "EneCange", "name": "EneCange", "_source": "worldwide"}}, {"type": "node", "id": 11274423104, "lat": 34.911808, "lon": 139.129323, "tags": {"amenity": "charging_station", "name": "EV Charging Station", "_source": "worldwide"}}, {"type": "node", "id": 11946312802, "lat": 34.910197, "lon": 139.120519, "tags": {"amenity": "charging_station", "fee": "no", "operator": "E-Mobility Power", "name": "E-Mobility Power", "_source": "worldwide"}}, {"type": "node", "id": 12386030619, "lat": 34.948706, "lon": 139.118697, "tags": {"amenity": "charging_station", "fee": "yes", "brand": "PLUGO", "name": "PLUGO", "_source": "worldwide"}}, {"type": "node", "id": 12688862613, "lat": 34.965203, "lon": 139.093526, "tags": {"amenity": "charging_station", "brand": "TerraStation", "name": "TerraStation", "_source": "worldwide"}}]}