{"id": "-38-175", "latMin": -38, "lonMin": 175, "latMax": -37, "lonMax": 176, "generated": "2026-04-16T18:39:07.185Z", "count": 33, "pois": [{"type": "node", "id": 5621471908, "lat": -37.788365, "lon": 175.281288, "tags": {"amenity": "charging_station", "name": "EV Charging Station", "socket:chademo": "1", "capacity": "3", "_source": "worldwide"}}, {"type": "node", "id": 5623791284, "lat": -37.891777, "lon": 175.466949, "tags": {"amenity": "charging_station", "fee": "yes", "access": "yes", "operator": "ChargeNet NZ", "name": "Cambridge (Victoria Square)", "socket:chademo": "1", "capacity": "2", "_source": "worldwide"}}, {"type": "node", "id": 6403463430, "lat": -37.778064, "lon": 175.309659, "tags": {"amenity": "charging_station", "fee": "no", "access": "yes", "network": "OpenLoop", "operator": "WEL Networks", "name": "Innovation Park Fast Charger", "socket:chademo": "1", "capacity": "3", "_source": "worldwide"}}, {"type": "node", "id": 6884124421, "lat": -37.793693, "lon": 175.28633, "tags": {"amenity": "charging_station", "network": "OpenLoop", "operator": "WEL Networks", "name": "WEL Networks", "_source": "worldwide"}}, {"type": "node", "id": 8359908028, "lat": -37.622878, "lon": 175.203614, "tags": {"amenity": "charging_station", "name": "EV Charging Station", "socket:chademo": "1", "capacity": "3", "_source": "worldwide"}}, {"type": "node", "id": 8474121320, "lat": -37.139184, "lon": 175.543117, "tags": {"amenity": "charging_station", "fee": "yes", "access": "yes", "opening_hours": "24/7", "operator": "ChargeNet NZ", "name": "Thames Library", "socket:chademo": "1", "capacity": "2", "_source": "worldwide"}}, {"type": "node", "id": 8474121321, "lat": -37.660058, "lon": 175.522016, "tags": {"amenity": "charging_station", "fee": "yes", "access": "yes", "opening_hours": "24/7", "operator": "ChargeNet NZ", "name": "Morrinsville (New World)", "addr:street": "Thames Street", "addr:housenumber": "79-87", "socket:chademo": "1", "capacity": "2", "_source": "worldwide"}}, {"type": "node", "id": 8474125717, "lat": -37.393218, "lon": 175.838902, "tags": {"amenity": "charging_station", "fee": "yes", "access": "yes", "operator": "ChargeNet NZ", "name": "ChargeNet NZ", "socket:chademo": "2", "capacity": "4", "_source": "worldwide"}}, {"type": "node", "id": 9911059127, "lat": -37.778129, "lon": 175.307985, "tags": {"amenity": "charging_station", "fee": "yes", "access": "yes", "operator": "Hikotron", "name": "Hikotron at Waikato Innovation Park", "capacity": "4", "_source": "worldwide"}}, {"type": "node", "id": 9914233423, "lat": -37.978147, "lon": 175.758559, "tags": {"amenity": "charging_station", "fee": "yes", "access": "yes", "operator": "ChargeNet NZ", "name": "Tirau (Station St Carpark)", "socket:chademo": "2", "capacity": "4", "_source": "worldwide"}}, {"type": "node", "id": 9914233429, "lat": -37.803764, "lon": 175.769967, "tags": {"amenity": "charging_station", "fee": "yes", "operator": "ChargeNet NZ", "name": "Matamata (New World)", "socket:chademo": "1", "capacity": "2", "_source": "worldwide"}}, {"type": "node", "id": 9920476888, "lat": -37.805251, "lon": 175.396786, "tags": {"amenity": "charging_station", "fee": "yes", "access": "yes", "operator": "Hikotron", "name": "Hikotron at Matangi Factory", "capacity": "2", "_source": "worldwide"}}, {"type": "node", "id": 9931567730, "lat": -37.894002, "lon": 175.471435, "tags": {"amenity": "charging_station", "fee": "yes", "access": "yes", "operator": "Hikotron", "name": "Hikotron at Duke Street Car Park Cambridge", "capacity": "4", "_source": "worldwide"}}, {"type": "node", "id": 9965499061, "lat": -37.876706, "lon": 175.324559, "tags": {"amenity": "charging_station", "fee": "no", "access": "yes", "opening_hours": "24/7", "brand": "OpenLoop", "network": "OpenLoop", "operator": "OpenLoop", "name": "Waitomo Mystery Creek Fuel Stop", "addr:street": "Ingram Road", "addr:housenumber": "153", "addr:postcode": "3282", "socket:chademo": "1", "capacity": "3", "_source": "worldwide"}}, {"type": "node", "id": 9966813322, "lat": -37.245528, "lon": 175.023011, "tags": {"amenity": "charging_station", "fee": "no", "access": "yes", "name": "Countdown Pokeno", "capacity": "2", "_source": "worldwide"}}, {"type": "node", "id": 9966813365, "lat": -37.245537, "lon": 175.021035, "tags": {"amenity": "charging_station", "fee": "no", "access": "yes", "opening_hours": "24/7", "brand": "OpenLoop", "network": "OpenLoop", "operator": "OpenLoop", "name": "Market St Parking Lot", "socket:chademo": "1", "capacity": "2", "_source": "worldwide"}}, {"type": "node", "id": 9967036905, "lat": -37.354739, "lon": 175.080526, "tags": {"amenity": "charging_station", "fee": "no", "access": "yes", "opening_hours": "24/7", "operator": "OpenLoop", "name": "Hampton Downs Motorsport Park", "socket:chademo": "1", "capacity": "3", "_source": "worldwide"}}, {"type": "node", "id": 9971886850, "lat": -37.412591, "lon": 175.127427, "tags": {"amenity": "charging_station", "fee": "no", "access": "yes", "opening_hours": "24/7", "brand": "OpenLoop", "network": "OpenLoop", "operator": "OpenLoop", "name": "Te Kauwhata", "addr:street": "Wayside Road", "addr:housenumber": "35", "addr:postcode": "3782", "addr:country": "NZ", "socket:chademo": "1", "capacity": "3", "_source": "worldwide"}}, {"type": "node", "id": 9976962546, "lat": -37.203672, "lon": 175.873843, "tags": {"amenity": "charging_station", "fee": "yes", "access": "yes", "operator": "ChargeNet NZ", "name": "Hetherington Road Car Park", "socket:chademo": "1", "capacity": "2", "_source": "worldwide"}}, {"type": "node", "id": 9977019619, "lat": -37.000834, "lon": 175.850204, "tags": {"amenity": "charging_station", "fee": "yes", "access": "yes", "operator": "ChargeNet NZ", "name": "Tokoroa Rd Parking/Charging", "socket:chademo": "1", "capacity": "2", "_source": "worldwide"}}, {"type": "node", "id": 9984621644, "lat": -37.991637, "lon": 175.200305, "tags": {"amenity": "charging_station", "fee": "yes", "access": "yes", "opening_hours": "24/7", "operator": "ChargeNet NZ", "name": "Pirongia (Four Square)", "socket:chademo": "1", "capacity": "2", "_source": "worldwide"}}, {"type": "node", "id": 10005250881, "lat": -37.872944, "lon": 175.842566, "tags": {"amenity": "charging_station", "fee": "yes", "access": "yes", "operator": "kiwev", "name": "Te Poi Supermarket", "charging_station:output": "7.4 kW", "capacity": "1", "_source": "worldwide"}}, {"type": "node", "id": 10015270450, "lat": -37.746079, "lon": 175.224846, "tags": {"amenity": "charging_station", "fee": "yes", "access": "yes", "operator": "ChargeNet NZ", "name": "Ebbett Volkswagen", "socket:chademo": "1", "capacity": "2", "_source": "worldwide"}}, {"type": "node", "id": 10020136535, "lat": -37.770541, "lon": 175.339565, "tags": {"amenity": "charging_station", "fee": "yes", "access": "yes", "operator": "Hikotron", "name": "Zenders Cafe & Venue", "addr:street": "Hopkins Road", "addr:housenumber": "44", "capacity": "6", "_source": "worldwide"}}, {"type": "node", "id": 10175460966, "lat": -37.539132, "lon": 175.933859, "tags": {"amenity": "charging_station", "access": "yes", "brand": "Zero", "operator": "Meridian Energy", "name": "Summerset Retirement Village, Katikati", "capacity": "4", "_source": "worldwide"}}, {"type": "node", "id": 10284058490, "lat": -37.731721, "lon": 175.222553, "tags": {"amenity": "charging_station", "fee": "no", "access": "yes", "network": "OpenLoop", "operator": "WEL Networks", "name": "WEL Networks", "_source": "worldwide"}}, {"type": "node", "id": 10578325831, "lat": -37.890665, "lon": 175.467766, "tags": {"amenity": "charging_station", "fee": "yes", "access": "yes", "brand": "bpcharge", "operator": "bpcharge", "name": "BP Cambridge", "socket:chademo": "1", "capacity": "2", "_source": "worldwide"}}, {"type": "node", "id": 10939671209, "lat": -37.976943, "lon": 175.75502, "tags": {"amenity": "charging_station", "fee": "yes", "access": "yes", "brand": "BP", "name": "BP", "socket:chademo": "1", "capacity": "2", "_source": "worldwide"}}, {"type": "node", "id": 11055916641, "lat": -37.779309, "lon": 175.333077, "tags": {"amenity": "charging_station", "fee": "yes", "access": "yes", "network": "OpenLoop", "operator": "WEL Networks", "name": "WEL Networks", "socket:chademo": "1", "capacity": "4", "_source": "worldwide"}}, {"type": "node", "id": 11159728780, "lat": -37.867114, "lon": 175.456602, "tags": {"amenity": "charging_station", "fee": "yes", "access": "yes", "brand": "Z Energy", "network": "Z Energy", "operator": "Z Energy", "name": "Z Energy", "socket:chademo": "1", "capacity": "3", "_source": "worldwide"}}, {"type": "node", "id": 11254394292, "lat": -37.78102, "lon": 175.325364, "tags": {"amenity": "charging_station", "operator": "Hikotron", "name": "Hikotron at K-Mart Distribution Center", "_source": "worldwide"}}, {"type": "node", "id": 11601235402, "lat": -37.777408, "lon": 175.345246, "tags": {"amenity": "charging_station", "fee": "yes", "access": "yes", "opening_hours": "24/7", "brand": "Tesla Supercharger", "network": "Supercharger", "operator": "Tesla, Inc.", "name": "Ruakura Supercharger", "capacity": "6", "_source": "worldwide"}}, {"type": "node", "id": 13688529701, "lat": -37.747607, "lon": 175.232698, "tags": {"amenity": "charging_station", "fee": "yes", "access": "yes", "opening_hours": "24/7", "brand": "Tesla Supercharger", "network": "Supercharger", "operator": "Tesla", "name": "Tesla Supercharger", "_source": "worldwide"}}]}