{"id": "39-27", "latMin": 39, "lonMin": 27, "latMax": 40, "lonMax": 28, "generated": "2026-04-16T18:39:07.791Z", "count": 5, "pois": [{"type": "node", "id": 7077951359, "lat": 39.657102, "lon": 27.906228, "tags": {"amenity": "charging_station", "fee": "yes", "opening_hours": "24/7", "operator": "SHARZ", "name": "SHARZ Yaylada AVM", "addr:street": "Paşa Alanı, Bandırma Cd. No:74, 10020 Karesi/Balıkesir", "addr:city": "BALIKESİR MERKEZ", "socket:type2": "1", "socket:type2:output": "22 kW", "charging_station:output": "22 kW", "_source": "worldwide"}}, {"type": "node", "id": 12828816901, "lat": 39.180456, "lon": 27.677853, "tags": {"amenity": "charging_station", "_source": "worldwide"}}, {"type": "node", "id": 13105696603, "lat": 39.180719, "lon": 27.676113, "tags": {"amenity": "charging_station", "_source": "worldwide"}}, {"type": "node", "id": 12881063114, "lat": 39.757739, "lon": 27.963019, "tags": {"amenity": "charging_station", "access": "yes", "fee": "yes", "brand": "Tesla Supercharger", "opening_hours": "24/7", "operator": "Tesla", "name": "Balıkesir - Izmir Bound Supercharger", "socket:type2_combo": "8", "socket:type2_combo:output": "250.0 kW", "charging_station:output": "250.0 kW", "capacity": "8", "_source": "worldwide"}}, {"type": "node", "id": 12963969048, "lat": 39.756509, "lon": 27.960215, "tags": {"amenity": "charging_station", "access": "yes", "fee": "yes", "brand": "Tesla Supercharger", "operator": "Tesla", "name": "Balıkesir - Istanbul Bound Supercharger", "socket:type2_combo": "8", "socket:type2_combo:output": "250.0 kW", "charging_station:output": "250.0 kW", "capacity": "8", "_source": "worldwide"}}]}