{"id": "50-28", "latMin": 50, "lonMin": 28, "latMax": 51, "lonMax": 29, "generated": "2026-04-16T18:39:08.401Z", "count": 6, "pois": [{"type": "node", "id": 7667632128, "lat": 50.275048, "lon": 28.68114, "tags": {"amenity": "charging_station", "fee": "yes", "opening_hours": "24/7", "operator": "Yasno", "name": "Yasno", "socket:chademo": "1", "capacity": "3", "_source": "worldwide"}}, {"type": "node", "id": 7991637601, "lat": 50.30678, "lon": 28.481433, "tags": {"amenity": "charging_station", "name": "EV Charging Station", "_source": "worldwide"}}, {"type": "node", "id": 7991685824, "lat": 50.285857, "lon": 28.815902, "tags": {"amenity": "charging_station", "name": "EV Charging Station", "_source": "worldwide"}}, {"type": "node", "id": 11148613900, "lat": 50.287512, "lon": 28.893714, "tags": {"amenity": "charging_station", "brand": "EcoFactor", "name": "EcoFactor", "socket:chademo": "1", "capacity": "2", "_source": "worldwide"}}, {"type": "node", "id": 11148613902, "lat": 50.286875, "lon": 28.815139, "tags": {"amenity": "charging_station", "brand": "Flash", "name": "Flash", "socket:type1": "1", "capacity": "2", "_source": "worldwide"}}, {"type": "node", "id": 11760814374, "lat": 50.286386, "lon": 28.827708, "tags": {"amenity": "charging_station", "name": "TOKA #563", "socket:chademo": "1", "capacity": "3", "_source": "worldwide"}}]}