{"id": "37-21", "latMin": 37, "lonMin": 21, "latMax": 38, "lonMax": 22, "generated": "2026-04-16T18:39:07.492Z", "count": 2125, "pois": [{"type": "node", "id": 3072019717, "lat": 37.0440922, "lon": 21.5528757, "tags": {"tourism": "viewpoint"}}, {"type": "node", "id": 8947215742, "lat": 37.0426947, "lon": 21.5546381, "tags": {"castle_type": "fortification", "historic": "castle", "historic:civilization": "ancient_greek", "name": "Οχύρωση Πρώτης", "name:el": "Οχύρωση Πρώτης", "name:en": "Fortification of Proti", "source": "https://www.kastra.eu/castlegr.php?kastro=proti"}}, {"type": "node", "id": 3072019708, "lat": 37.0443881, "lon": 21.5576119, "tags": {"historic": "wreck", "name": "Shipwreck Anouar", "seamark:type": "wreck", "tourism": "attraction"}}, {"type": "node", "id": 9127861117, "lat": 37.0570168, "lon": 21.5781572, "tags": {"amenity": "restaurant", "name:en": "Panorama"}}, {"type": "node", "id": 3700977281, "lat": 37.0575279, "lon": 21.5784788, "tags": {"amenity": "parking"}}, {"type": "node", "id": 3700977282, "lat": 37.0576295, "lon": 21.5785996, "tags": {"name": "Super Market", "shop": "supermarket"}}, {"type": "node", "id": 7861404485, "lat": 37.0574569, "lon": 21.5776002, "tags": {"amenity": "restaurant", "name": "Artoinos", "name:en": "Artonios"}}, {"type": "node", "id": 7861404585, "lat": 37.0574994, "lon": 21.5774067, "tags": {"amenity": "atm", "operator": "Piräus Bank"}}, {"type": "node", "id": 7861473986, "lat": 37.0579771, "lon": 21.5774383, "tags": {"shop": "supermarket"}}, {"type": "node", "id": 7861552086, "lat": 37.0587278, "lon": 21.5768216, "tags": {"historic": "memorial"}}, {"type": "node", "id": 7861566285, "lat": 37.0581061, "lon": 21.5774869, "tags": {"amenity": "pharmacy", "healthcare": "pharmacy"}}, {"type": "node", "id": 7861566485, "lat": 37.0580613, "lon": 21.5775391, "tags": {"shop": "bakery"}}, {"type": "node", "id": 7861570385, "lat": 37.0576429, "lon": 21.5779881, "tags": {"shop": "supermarket"}}, {"type": "node", "id": 7861578085, "lat": 37.0581072, "lon": 21.5779437, "tags": {"shop": "bakery"}}, {"type": "node", "id": 7861587485, "lat": 37.0579174, "lon": 21.5777792, "tags": {"amenity": "cafe", "name:en": "noname"}}, {"type": "node", "id": 7861618286, "lat": 37.0590867, "lon": 21.5746341, "tags": {"amenity": "cafe"}}, {"type": "node", "id": 7865640742, "lat": 37.0581728, "lon": 21.5762105, "tags": {"amenity": "parking"}}, {"type": "node", "id": 9136148499, "lat": 37.0596313, "lon": 21.5792464, "tags": {"addr:city": "Μαραθόπολη", "amenity": "fuel", "brand": "ΕΛΙΝΟΙΛ", "brand:wikidata": "Q12876543", "name": "ΕΛΙΝΟΙΛ", "operator": "X-GASOLINE STATION MANAGEMENT IKE"}}, {"type": "node", "id": 9688250317, "lat": 37.0590289, "lon": 21.5747838, "tags": {"amenity": "restaurant", "name": "Ρικι", "name:el": "Ρικι", "name:en": "Riki"}}, {"type": "node", "id": 13174239853, "lat": 37.0612416, "lon": 21.5775005, "tags": {"access": "yes", "addr:city": "Μαραθόπολη", "addr:country": "GR", "addr:postcode": "24400", "amenity": "charging_station", "authentication:app": "yes", "authentication:membership_card": "yes", "brand": "Chargespot", "capacity": "1", "contact:phone": "18311", "contact:website": "https://www.chargespot.gr/", "covered": "no", "fee": "yes", "lit": "yes", "manufacturer": "Chago", "motorcar": "yes", "name": "Chargespot - Artina Nuovo Hotel", "opening_hours": "24/7", "operator": "Artina Nuovo Hotel", "parking:fee": "no", "payment:app": "yes", "ref:EU:EVSE": "GR*WAV*E78426", "ref:GR:IDRO": "GR-WAV-S17466", "socket:type2": "1", "socket:type2:output": "22"}}, {"type": "node", "id": 13174239856, "lat": 37.0614299, "lon": 21.5773442, "tags": {"addr:city": "Μαραθόπολη", "addr:country": "GR", "addr:postcode": "24400", "name": "Artina", "tourism": "hotel"}}, {"type": "node", "id": 13174239857, "lat": 37.0611704, "lon": 21.5773335, "tags": {"addr:city": "Μαραθόπολη", "addr:country": "GR", "addr:postcode": "24400", "name": "Artina Nuovo", "tourism": "hotel"}}, {"type": "node", "id": 13174239852, "lat": 37.0684982, "lon": 21.5790582, "tags": {"access": "customers", "addr:city": "Μαραθόπολη", "addr:country": "GR", "addr:postcode": "24400", "amenity": "charging_station", "authentication:app": "yes", "authentication:membership_card": "yes", "brand": "EKO Charge&Go", "capacity": "1", "contact:phone": "18198", "contact:website": "https://elpefuture.gr/", "covered": "no", "fee": "yes", "lit": "yes", "manufacturer": "ABB", "motorcar": "yes", "name": "EKO Charge&Go - Esperides appartments", "operator": "Esperides appartments", "parking:fee": "no", "payment:app": "yes", "ref:EU:EVSE": "GR*HEC*ETACW2243021T1607*1", "ref:GR:IDRO": "GR-HEC-SE004", "socket:type2": "1", "socket:type2:output": "22"}}, {"type": "node", "id": 11938105669, "lat": 37.0823183, "lon": 21.5796865, "tags": {"internet_access": "wlan", "name": "Mesogeios Hotel", "phone": "+30 2763 061094", "tourism": "hotel", "website": "https://mesogeiosap.gr/"}}, {"type": "node", "id": 5516547898, "lat": 37.1182128, "lon": 21.5761248, "tags": {"amenity": "restaurant"}}, {"type": "node", "id": 5516547899, "lat": 37.1191893, "lon": 21.575986, "tags": {"amenity": "restaurant", "name": "Restaurant"}}, {"type": "node", "id": 3068537391, "lat": 37.0091851, "lon": 21.6365909, "tags": {"amenity": "cafe", "name": "Koa Beach Cafe"}}, {"type": "node", "id": 5433577612, "lat": 37.0001564, "lon": 21.6837566, "tags": {"shop": "convenience"}}, {"type": "node", "id": 5433577615, "lat": 37.0000729, "lon": 21.6828621, "tags": {"name": "Μυλωνάς Ηλ.", "shop": "supermarket"}}, {"type": "node", "id": 5433577616, "lat": 37.0000436, "lon": 21.682328, "tags": {"amenity": "pharmacy", "healthcare": "pharmacy"}}, {"type": "node", "id": 871767117, "lat": 37.0056846, "lon": 21.660386, "tags": {"amenity": "restaurant", "name": "Taverna Spiros"}}, {"type": "node", "id": 2380528689, "lat": 37.0069738, "lon": 21.6675923, "tags": {"amenity": "restaurant", "cuisine": "greek"}}, {"type": "node", "id": 5167433040, "lat": 37.0216824, "lon": 21.6871357, "tags": {"archaeological_site": "tomb", "historic": "archaeological_site", "historic:civilization": "mycenaean", "name": "Μυκηναϊκός Θολωτός Τύμβος", "name:de": "Grab des Nestor", "name:el": "Μυκηναϊκός Θολωτός Τύμβος", "name:en": "Mycean. Tholos Tomb", "name:ru": "Толос (Микенск. гробница)", "tomb": "tumulus", "tourism": "attraction"}}, {"type": "node", "id": 13519528183, "lat": 37.0216824, "lon": 21.6871357, "tags": {"historic": "tomb", "historic:civilization": "mycenaean", "name": "Μυκηναϊκός Θολωτός Τύμβος", "name:de": "Grab des Nestor", "name:el": "Μυκηναϊκός Θολωτός Τύμβος", "name:en": "Mycean. Tholos Tomb", "name:ru": "Толос (Микенск. гробница)", "tomb": "tumulus", "tourism": "attraction"}}, {"type": "node", "id": 5167433038, "lat": 37.0272668, "lon": 21.6949463, "tags": {"historic": "archaeological_site"}}, {"type": "node", "id": 5659874022, "lat": 37.0273299, "lon": 21.6947374, "tags": {"name:en": "Nesters palace - 1300BC Mycenaean kings tomb", "tourism": "attraction"}}, {"type": "node", "id": 7188022405, "lat": 37.0276973, "lon": 21.6961699, "tags": {"natural": "spring"}}, {"type": "node", "id": 8265820032, "lat": 37.0281569, "lon": 21.6963607, "tags": {"historic": "archaeological_site", "name": "Άνω Εγκλιανός", "name:el": "Άνω Εγκλιανός"}}, {"type": "node", "id": 11020159169, "lat": 37.0271417, "lon": 21.6956908, "tags": {"amenity": "cafe", "check_date": "2023-07-02"}}, {"type": "node", "id": 13519528160, "lat": 37.0283215, "lon": 21.6959009, "tags": {"archaeological_site": "tomb", "historic": "archaeological_site", "name": "Τάφος Γρύπα Πολεμιστή", "name:el": "Τάφος Γρύπα Πολεμιστή"}}, {"type": "node", "id": 5257890336, "lat": 37.0037086, "lon": 21.7539436, "tags": {"amenity": "fuel", "name": "ELIN"}}, {"type": "node", "id": 5176002152, "lat": 37.0437254, "lon": 21.6052894, "tags": {"addr:city": "Marathopoli", "addr:postcode": "24400", "internet_access": "yes", "name": "Messinian Horizons", "stars": "3", "tourism": "hotel"}}, {"type": "node", "id": 9136129810, "lat": 37.0716147, "lon": 21.6221288, "tags": {"addr:city": "Δερβίσι", "amenity": "fuel", "brand": "Revoil", "brand:wikidata": "Q62530755", "name": "REVOIL", "operator": "ΛΑΜΠΟΥΣΗ ΧΡΥΣΟΥΛΑ"}}, {"type": "node", "id": 7695024766, "lat": 37.0651615, "lon": 21.633089, "tags": {"amenity": "fuel", "brand": "ΕΛΙΝΟΙΛ", "brand:wikidata": "Q12876543", "name": "ΕΛΙΝΟΙΛ", "operator": "X-GASOLINE STATION MANAGEMENT IKE"}}, {"type": "node", "id": 9136151329, "lat": 37.064898, "lon": 21.643306, "tags": {"addr:city": "Γαργαλιάνοι", "amenity": "fuel", "brand": "Shell", "brand:wikidata": "Q110716465", "brand:wikipedia": "en:Royal Dutch Shell", "name": "SHELL", "operator": "ΜΑΡΑΒΕΛΑΣ ΓΕΩΡΓΙΟΣ"}}, {"type": "node", "id": 7699882149, "lat": 37.0671954, "lon": 21.6514976, "tags": {"amenity": "fuel", "brand": "Avin", "brand:wikidata": "Q22979634", "brand:wikipedia": "en:Avin International", "name": "AVIN", "operator": "ΖΕΜΠΕΚΗΣ Ι. ΠΑΝΑΓΙΩΤΗΣ"}}, {"type": "node", "id": 7187843473, "lat": 37.0538282, "lon": 21.6957871, "tags": {"natural": "spring"}}, {"type": "node", "id": 7187803315, "lat": 37.0522406, "lon": 21.7050268, "tags": {"name": "Πέτρινο Γεφύρι", "tourism": "attraction"}}, {"type": "node", "id": 7187934535, "lat": 37.0671451, "lon": 21.6967026, "tags": {"amenity": "shelter", "ele": "350", "shelter_type": "gazebo"}}, {"type": "node", "id": 7699882399, "lat": 37.0763078, "lon": 21.6883983, "tags": {"addr:city": "Πύργος", "amenity": "fuel", "brand": "ΕΤΕΚΑ", "brand:wikidata": "Q31283952", "brand:wikipedia": "el:ΕΤΕΚΑ", "name": "ΕΤΕΚΑ", "operator": "ΠΑΝΑΓΙΩΤΟΠΟΥΛΟΣ ΔΗΜΗΤΡΙΟΣ"}}, {"type": "node", "id": 1852999781, "lat": 37.0953881, "lon": 21.6089036, "tags": {"tourism": "viewpoint"}}, {"type": "node", "id": 1852999782, "lat": 37.0961821, "lon": 21.6192723, "tags": {"name": "Κόκκινα Πατερά", "name:el": "Κόκκινα Πατερά", "name:en": "Kokkina Patera", "name:ru": "Коккина патера", "tourism": "viewpoint"}}, {"type": "node", "id": 7187677829, "lat": 37.0448175, "lon": 21.7086707, "tags": {"name": "Γυφτόβρυση", "natural": "spring"}}, {"type": "node", "id": 12645217829, "lat": 37.0445533, "lon": 21.708954, "tags": {"amenity": "drinking_water"}}, {"type": "node", "id": 7702178867, "lat": 37.0525644, "lon": 21.7115285, "tags": {"amenity": "fuel", "brand": "Revoil", "brand:wikidata": "Q62530755", "name": "REVOIL", "operator": "ΠΑΝΑΓΟΠΟΥΛΟΣ ΠΑΝΑΓΙΩΤΗΣ"}}, {"type": "node", "id": 9856659652, "lat": 37.0512738, "lon": 21.7173848, "tags": {"amenity": "fuel", "brand": "ΕΛΙΝΟΙΛ", "brand:wikidata": "Q12876543", "name": "ΕΛΙΝΟΙΛ", "operator": "ΓΛΙΑΤΑΣ ΔΗΜΗΤΡΙΟΣ"}}, {"type": "node", "id": 12645107366, "lat": 37.0508315, "lon": 21.717776, "tags": {"shop": "convenience"}}, {"type": "node", "id": 1610255397, "lat": 37.0535572, "lon": 21.7207753, "tags": {"name": "Αρχαιολογικό Μουσείο Χώρας", "tourism": "museum", "wikidata": "Q20585328", "wikipedia": "en:Archaeological Museum of Chora"}}, {"type": "node", "id": 4402366746, "lat": 37.06034, "lon": 21.730219, "tags": {"addr:city": "Χωρα Μεσσηνιας", "addr:housenumber": "0", "addr:postcode": "24600", "addr:street": "Χωρα Μεσσηνιας", "internet_access": "yes", "internet_access:fee": "no", "name": "Ξενοδοχείο Μελίβοια", "name:el": "Ξενοδοχείο Μελίβοια", "name:en": "Hotel Melivoia", "operator": "Αλεξοπουλος Αθανασιος", "rooms": "15", "smoking": "outside", "stars": "3", "tourism": "hotel"}}, {"type": "node", "id": 4402370817, "lat": 37.0604244, "lon": 21.7304367, "tags": {"addr:city": "Χωρα Μεσσηνιας", "addr:postcode": "24600", "addr:street": "Χωρα Μεσσηνιας", "amenity": "restaurant", "capacity": "100", "cuisine": "greek", "delivery": "yes", "description": "Απολαυστικά πιάτα μαγειρεμένα με τοπικό ελαιόλαδο. Η αίθουσα καλύπτει κάθε σας εκδήλωση!", "name": "psarakia restaurant", "opening_hours": "08:00-3:00", "smoking": "outside", "takeaway": "yes"}}, {"type": "node", "id": 9856659661, "lat": 37.0319353, "lon": 21.7895047, "tags": {"amenity": "fuel", "brand": "ΕΛΙΝΟΙΛ", "brand:wikidata": "Q12876543", "name": "ΕΛΙΝΟΙΛ", "operator": "ΨΩΝΗΣ ΚΩΝΣΤΑΝΤΙΝΟΣ"}}, {"type": "node", "id": 9136072650, "lat": 37.0329824, "lon": 21.7955852, "tags": {"addr:city": "Βλαχόπουλο", "amenity": "fuel", "brand": "Avin", "brand:wikidata": "Q22979634", "brand:wikipedia": "en:Avin International", "name": "AVIN", "operator": "ΚΑΥΚΑ ΑΙΚΑΤΕΡΙΝΗ"}}, {"type": "node", "id": 6745621619, "lat": 37.04771, "lon": 21.8077034, "tags": {"ele": "404", "man_made": "water_well"}}, {"type": "node", "id": 6602369326, "lat": 37.0756833, "lon": 21.7785237, "tags": {"historic": "memorial", "name": "Παπαφλέσσας"}}, {"type": "node", "id": 7187856564, "lat": 37.0960104, "lon": 21.7172958, "tags": {"amenity": "restaurant", "name": "Ταβερνα Το Εξοχικον"}}, {"type": "node", "id": 7187880452, "lat": 37.0944705, "lon": 21.7184425, "tags": {"ele": "451", "natural": "spring"}}, {"type": "node", "id": 5915919871, "lat": 37.1085012, "lon": 21.7720993, "tags": {"amenity": "parking"}}, {"type": "node", "id": 7194991496, "lat": 37.1343232, "lon": 21.7760512, "tags": {"ele": "639", "natural": "spring"}}, {"type": "node", "id": 7194994728, "lat": 37.1213364, "lon": 21.7894086, "tags": {"ele": "492", "natural": "spring"}}, {"type": "node", "id": 7194975282, "lat": 37.1143611, "lon": 21.8047323, "tags": {"ele": "430", "natural": "spring"}}, {"type": "node", "id": 10159331114, "lat": 37.1571169, "lon": 21.5678327, "tags": {"amenity": "cafe", "name": "Almyra"}}, {"type": "node", "id": 8051080550, "lat": 37.1556054, "lon": 21.586405, "tags": {"name": "Venos", "shop": "supermarket"}}, {"type": "node", "id": 13495949601, "lat": 37.1514043, "lon": 21.5834536, "tags": {"amenity": "fuel", "name": "Ελίν Λογγίνος", "name:en": "Silk Oil"}}, {"type": "node", "id": 5937025178, "lat": 37.1618939, "lon": 21.583089, "tags": {"artwork_type": "architecture", "material": "metal", "name": "Πύργος Άιφελ Φιλιατρών", "name:el": "Πύργος Άιφελ Φιλιατρών", "name:en": "Filiatra Eiffel Tower", "name:ru": "Эйфелева башня", "tourism": "artwork"}}, {"type": "node", "id": 9136148466, "lat": 37.1596232, "lon": 21.5856478, "tags": {"addr:city": "Φιλιατρά", "amenity": "fuel", "brand": "Shell", "brand:wikidata": "Q110716465", "brand:wikipedia": "en:Royal Dutch Shell", "name": "SHELL", "operator": "ΕΡΜΗΣ ΑΕΜΕΕ ΥΠ/ΜΑ ΦΙΛΙΑΤΡΩΝ"}}, {"type": "node", "id": 9136148473, "lat": 37.1567164, "lon": 21.585512, "tags": {"addr:city": "Φιλιατρά", "addr:housenumber": "1", "addr:street": "Δημάρχου Ανδρέα Κεφαλά", "amenity": "fuel", "brand": "SILKOIL", "name": "SILKOIL", "operator": "ΛΟΓΓΙΝΟΣ ΣΩΤΗΡΙΟΣ"}}, {"type": "node", "id": 9136148476, "lat": 37.1535187, "lon": 21.5904549, "tags": {"addr:city": "Φιλιατρά", "amenity": "fuel", "brand": "Revoil", "brand:wikidata": "Q62530755", "name": "REVOIL", "operator": "ΚΑΛΟΓΕΡΟΠΟΥΛΟΣ ΔΗΜΗΤΡΙΟΣ"}}, {"type": "node", "id": 13484815801, "lat": 37.1531556, "lon": 21.5972168, "tags": {"amenity": "restaurant", "name": "Κτήμα Καλογεροπουλου", "phone": "+30 697 798 3161"}}, {"type": "node", "id": 7713617007, "lat": 37.1679911, "lon": 21.5829199, "tags": {"amenity": "fuel", "brand": "Avin", "brand:wikidata": "Q22979634", "brand:wikipedia": "en:Avin International", "fuel:diesel": "yes", "fuel:octane_95": "yes", "name": "AVIN", "operator": "ΓΡΙΒΟΚΩΣΤΟΠΟΥΛΟΣ ΘΕΟΔΩΡΟΣ + ΣΙΑ Ο.Ε"}}, {"type": "node", "id": 13174246792, "lat": 37.1671896, "lon": 21.5830024, "tags": {"access": "yes", "addr:city": "Φιλιατρά", "addr:postcode": "24300", "amenity": "charging_station", "authentication:app": "yes", "brand": "DEI Blue", "capacity": "2", "contact:phone": "+30 2112110900", "contact:website": "https://www.deiblue.gr/", "covered": "no", "fee": "yes", "int_name": "DEI blue - AB Vassilopoulos", "lit": "yes", "manufacturer": "Phoenix Contact", "motorcar": "yes", "name": "DEI blue - ΑΒ Βασιλόπουλος", "name:el": "DEI blue - ΑΒ Βασιλόπουλος", "name:en": "DEI blue - AB Vassilopoulos", "opening_hours": "24/7", "operator": "ΑΒ Βασιλόπουλος", "payment:app": "yes", "ref:EU:EVSE": "GR*PPC*E0000002898*1;GR*PPC*E0000002898*2", "ref:GR:IDRO": "GR-PPC-Scs36448-L", "socket:type2": "2", "socket:type2:output": "22"}}, {"type": "node", "id": 13174246791, "lat": 37.1719409, "lon": 21.5833993, "tags": {"access": "yes", "addr:city": "Φιλιατρά", "addr:postcode": "24300", "amenity": "charging_station", "authentication:app": "yes", "authentication:membership_card": "yes", "brand": "nrg incharge", "capacity": "2", "contact:phone": "+30 2188818102", "contact:website": "https://www.nrgincharge.gr/", "covered": "no", "fee": "yes", "int_name": "nrg - METRO Cash & Carry Filiatra", "motorcar": "yes", "name": "nrg - METRO Cash & Carry Φιλιατρά", "name:el": "nrg - METRO Cash & Carry Φιλιατρά", "name:en": "nrg - METRO Cash & Carry Filiatra", "opening_hours": "Mo-Fr 08:00-21:00; Sa 08:00-18:00", "operator": "METRO Cash & Carry", "parking:fee": "no", "payment:app": "yes", "payment:website": "yes", "ref": "#1076;#1077", "ref:EU:EVSE": "GR*NRG*E1076*1;GR*NRG*E1077*1", "ref:GR:IDRO": "GR-NRG-S592", "socket:type2": "2", "socket:type2:output": "22"}}, {"type": "node", "id": 10880593578, "lat": 37.2077404, "lon": 21.5901425, "tags": {"access": "permissive", "amenity": "parking", "parking": "surface"}}, {"type": "node", "id": 10880593583, "lat": 37.2076442, "lon": 21.5900405, "tags": {"artwork_type": "sculpture", "tourism": "artwork"}}, {"type": "node", "id": 354453827, "lat": 37.2081032, "lon": 21.590517, "tags": {"name": "Castle", "tourism": "attraction"}}, {"type": "node", "id": 9127861018, "lat": 37.2114643, "lon": 21.5936083, "tags": {"tourism": "viewpoint"}}, {"type": "node", "id": 11687339469, "lat": 37.1840861, "lon": 21.6754529, "tags": {"amenity": "shelter", "bench": "yes", "bin": "yes", "ele": "321"}}, {"type": "node", "id": 3043781133, "lat": 37.2102942, "lon": 21.6379722, "tags": {"amenity": "restaurant", "capacity": "50", "cuisine": "regional", "name": "Elitsa", "opening_hours": "20:00-24:00", "smoking": "isolated"}}, {"type": "node", "id": 9761404599, "lat": 37.2101872, "lon": 21.6384473, "tags": {"amenity": "drinking_water"}}, {"type": "node", "id": 9761404600, "lat": 37.210074, "lon": 21.6384137, "tags": {"historic": "memorial"}}, {"type": "node", "id": 9136240210, "lat": 37.2263728, "lon": 21.6350478, "tags": {"amenity": "fuel", "brand": "SILKOIL", "name": "SILKOIL", "operator": "ΚΟΥΤΣΑΝΑΣΤΑΣΗΣ ΠΑΝΑΓΙΩΤΗΣ"}}, {"type": "node", "id": 2838245909, "lat": 37.2168818, "lon": 21.6588542, "tags": {"amenity": "restaurant", "cuisine": "regional", "name": "Mitrópoulos"}}, {"type": "node", "id": 13316780851, "lat": 37.2222087, "lon": 21.6762002, "tags": {"historic": "memorial", "memorial": "stele"}}, {"type": "node", "id": 7195067485, "lat": 37.1827281, "lon": 21.7421435, "tags": {"ele": "546", "natural": "spring"}}, {"type": "node", "id": 8963780339, "lat": 37.1376812, "lon": 21.7688075, "tags": {"alt_name": "Κάστρο Γούταινας", "castle_type": "castle", "historic": "castle", "historic:civilization": "medieval", "name": "Κάστρο Βούταινας", "name:el": "Κάστρο Βούταινας", "name:en": "Castle of Voutaina", "source": "https://www.kastra.eu/castlegr.php?kastro=vutena", "wikidata": "Q108664550"}}, {"type": "node", "id": 7194991495, "lat": 37.1522391, "lon": 21.7663337, "tags": {"ele": "614", "natural": "spring"}}, {"type": "node", "id": 7194955816, "lat": 37.1543015, "lon": 21.7824618, "tags": {"ele": "631", "natural": "spring"}}, {"type": "node", "id": 7194431216, "lat": 37.145986, "lon": 21.799762, "tags": {"ele": "574", "natural": "spring"}}, {"type": "node", "id": 7194482687, "lat": 37.1433801, "lon": 21.803335, "tags": {"ele": "522", "natural": "spring"}}, {"type": "node", "id": 7194482686, "lat": 37.1436306, "lon": 21.8056735, "tags": {"ele": "532", "natural": "spring"}}, {"type": "node", "id": 7194975283, "lat": 37.2219679, "lon": 21.7483281, "tags": {"ele": "355", "natural": "spring"}}, {"type": "node", "id": 7194256338, "lat": 37.2130082, "lon": 21.7795407, "tags": {"ele": "476", "natural": "spring"}}, {"type": "node", "id": 13524725531, "lat": 37.2083066, "lon": 21.7837618, "tags": {"historic": "memorial", "memorial": "stele"}}, {"type": "node", "id": 11932907328, "lat": 37.2096387, "lon": 21.7855143, "tags": {"amenity": "drinking_water", "ele": "489"}}, {"type": "node", "id": 6460673209, "lat": 37.2195165, "lon": 21.7634653, "tags": {"amenity": "shelter", "shelter_type": "gazebo"}}, {"type": "node", "id": 2917568982, "lat": 37.2535221, "lon": 21.6589272, "tags": {"addr:city": "Kyparissía", "addr:postcode": "24500", "amenity": "restaurant", "cuisine": "regional", "name": "Εν Πλω", "name:el": "Εν Πλω", "name:en": "En Plo", "opening_hours": "10:00-23:00", "smoking": "outside"}}, {"type": "node", "id": 2926148674, "lat": 37.2534882, "lon": 21.6647253, "tags": {"addr:city": "Kyparissia", "addr:housenumber": "72", "addr:street": "El. Venizelou", "amenity": "restaurant", "capacity": "20", "cuisine": "crépes,pítas", "name": "Anapsiktírio", "opening_hours": "10:00-24:00", "smoking": "outside"}}, {"type": "node", "id": 8862831735, "lat": 37.2537691, "lon": 21.6616089, "tags": {"historic": "archaeological_site", "name": "Πηγή Διονυσιάδα"}}, {"type": "node", "id": 5077491827, "lat": 37.2469828, "lon": 21.6778063, "tags": {"amenity": "cafe", "name": "Το γλυκάκι"}}, {"type": "node", "id": 13313348298, "lat": 37.2473477, "lon": 21.6782492, "tags": {"amenity": "restaurant", "cuisine": "regional", "name": "Το ταβερνάκι της Άνω Πόδης"}}, {"type": "node", "id": 13313349815, "lat": 37.2472062, "lon": 21.6780745, "tags": {"name": "Η παλιά Αρκαδιά", "shop": "convenience"}}, {"type": "node", "id": 13313349820, "lat": 37.2471082, "lon": 21.677957, "tags": {"amenity": "restaurant", "cuisine": "barbecue", "name": "Πανωπολίτικο"}}, {"type": "node", "id": 13313349849, "lat": 37.2469421, "lon": 21.6777402, "tags": {"amenity": "restaurant", "cuisine": "meze", "name": "Μαντζούνι"}}, {"type": "node", "id": 13313349854, "lat": 37.2471623, "lon": 21.6777565, "tags": {"amenity": "cafe", "name": "Αλγόρυθμος"}}, {"type": "node", "id": 2917323098, "lat": 37.2507666, "lon": 21.6703197, "tags": {"addr:city": "Κυπαρισσία", "addr:postcode": "24500", "addr:street": "25 Martiou", "amenity": "restaurant", "cuisine": "regional", "name": "Paradosiakó", "opening_hours": "18:00-24:00"}}, {"type": "node", "id": 3700994406, "lat": 37.2518237, "lon": 21.6718144, "tags": {"amenity": "fuel", "brand": "KMOIL", "name": "KMOIL", "operator": "ΚΕΡΕΡΕ ΑΦΡΟΔΙΤΗ"}}, {"type": "node", "id": 4363453200, "lat": 37.2512786, "lon": 21.6682814, "tags": {"name": "Μπουλουλης", "name:de": "Bouloulis", "name:el": "Μπουλουλης", "shop": "bakery"}}, {"type": "node", "id": 4363553100, "lat": 37.2513665, "lon": 21.6679264, "tags": {"name:de": "Mantzuouni", "shop": "supermarket"}}, {"type": "node", "id": 4363582291, "lat": 37.2510264, "lon": 21.668526, "tags": {"shop": "bakery"}}, {"type": "node", "id": 5617492150, "lat": 37.2509914, "lon": 21.6703571, "tags": {"amenity": "fuel", "brand": "ΕΤΕΚΑ", "brand:wikidata": "Q31283952", "brand:wikipedia": "el:ΕΤΕΚΑ", "name": "ΕΤΕΚΑ", "operator": "ΠΑΝΑΓΙΩΤΟΠΟΥΛΟΥ Α"}}, {"type": "node", "id": 5617492151, "lat": 37.2508379, "lon": 21.6698647, "tags": {"addr:street": "25ης Μαρτίου", "amenity": "fuel", "brand": "BP", "brand:wikidata": "Q152057", "brand:wikipedia": "en:BP", "name": "BP", "operator": "ΑΠΟΣΤΟΛΟΠΟΥΛΟΣ ΓΕΩΡΓΙΟΣ"}}, {"type": "node", "id": 5617515011, "lat": 37.2496464, "lon": 21.671884, "tags": {"shop": "bakery"}}, {"type": "node", "id": 5617545261, "lat": 37.2514102, "lon": 21.6704235, "tags": {"name": "Βασιλικόν", "tourism": "hotel"}}, {"type": "node", "id": 5617545263, "lat": 37.2514119, "lon": 21.6694684, "tags": {"name": "Τριφυλλία", "tourism": "hotel"}}, {"type": "node", "id": 7843782685, "lat": 37.2509134, "lon": 21.6686727, "tags": {"amenity": "cafe"}}, {"type": "node", "id": 9023084407, "lat": 37.250988, "lon": 21.6686132, "tags": {"addr:housenumber": "31", "amenity": "fast_food", "diet:vegan": "yes", "fixme": "Amenity might have closed (their webpage is down).", "name": "Souvlistas"}}, {"type": "node", "id": 9843438074, "lat": 37.2507353, "lon": 21.6701055, "tags": {"amenity": "cafe"}}, {"type": "node", "id": 9843438076, "lat": 37.2505667, "lon": 21.6699049, "tags": {"amenity": "pharmacy", "healthcare": "pharmacy"}}, {"type": "node", "id": 9843438077, "lat": 37.2503999, "lon": 21.669453, "tags": {"name": "υνεπ αγορα", "shop": "supermarket"}}, {"type": "node", "id": 9843548203, "lat": 37.2517791, "lon": 21.6673394, "tags": {"amenity": "restaurant", "name": "Παραμυθάκι"}}, {"type": "node", "id": 9844025436, "lat": 37.2514524, "lon": 21.667809, "tags": {"amenity": "restaurant"}}, {"type": "node", "id": 10005704046, "lat": 37.252443, "lon": 21.6664244, "tags": {"addr:city": "Κυπαρισσία", "addr:housenumber": "59", "addr:postcode": "29100", "addr:street": "Ελευθερίου Βενιζέλου", "cuisine": "coffee_shop;sweets", "name": "Λυδιώτης", "phone": "+30 2761 022067", "shop": "bakery"}}, {"type": "node", "id": 11962450061, "lat": 37.2503677, "lon": 21.6716029, "tags": {"amenity": "cafe", "name": "Rose"}}, {"type": "node", "id": 12041596366, "lat": 37.2520472, "lon": 21.6701767, "tags": {"amenity": "restaurant", "cuisine": "greek", "name": "Σταθμός", "outdoor_seating": "yes"}}, {"type": "node", "id": 12041596454, "lat": 37.2481058, "lon": 21.6691468, "tags": {"addr:city": "Κυπαρισσία", "addr:housenumber": "74", "addr:postcode": "29100", "addr:street": "Πονηροπούλου", "cuisine": "coffee_shop;sweets", "name": "Λυδιώτης", "phone": "+30 2761 022367", "shop": "bakery"}}, {"type": "node", "id": 13431236876, "lat": 37.2517627, "lon": 21.667635, "tags": {"amenity": "pharmacy", "healthcare": "pharmacy"}}, {"type": "node", "id": 3017222193, "lat": 37.2524327, "lon": 21.6750046, "tags": {"amenity": "fuel", "brand": "Revoil", "brand:wikidata": "Q62530755", "name": "REVOIL", "operator": "ΒΕΡΓΗΣ ΚΩΝΣΤΑΝΤΙΝΟΣ-ΓΕΩΡΓΙΟΣ"}}, {"type": "node", "id": 3017222194, "lat": 37.2529614, "lon": 21.6767924, "tags": {"amenity": "fuel", "brand": "JetOil"}}, {"type": "node", "id": 5077492922, "lat": 37.2474675, "lon": 21.6784265, "tags": {"amenity": "restaurant", "cuisine": "regional", "name": "Η Αρκαδιά γευσιπωλείο"}}, {"type": "node", "id": 8381385182, "lat": 37.2483878, "lon": 21.6789977, "tags": {"amenity": "drinking_water", "name": "Παζαρόβρυση", "tourism": "attraction"}}, {"type": "node", "id": 8947276837, "lat": 37.2500959, "lon": 21.6788638, "tags": {"alt_name": "Κάστρο των Γιγάντων", "castle_type": "castle", "historic": "castle", "historic:civilization": "medieval", "name": "Κάστρο Κυπαρισσίας", "name:el": "Κάστρο Κυπαρισσίας", "name:en": "Castle of Kyparissia", "source": "https://www.kastra.eu/castlegr.php?kastro=kyparisia", "start_date": "΄1205", "wikidata": "Q56476723"}}, {"type": "node", "id": 9127861118, "lat": 37.2474092, "lon": 21.6783429, "tags": {"amenity": "restaurant", "cuisine": "regional", "name": "Παλιά Αγορά", "name:en": "Palia Agora"}}, {"type": "node", "id": 10038903096, "lat": 37.2520632, "lon": 21.6740608, "tags": {"access": "yes", "addr:city": "Κυπαρισσία", "addr:country": "GR", "addr:postcode": "24500", "amenity": "charging_station", "authentication:app": "yes", "authentication:membership_card": "yes", "brand": "Blink", "capacity": "1", "contact:email": "support@blinkcharging.gr", "contact:facebook": "https://www.facebook.com/blinkcharginghellas", "contact:phone": "+30 2107232862", "contact:website": "https://blinkcharging.gr/", "covered": "no", "fee": "yes", "int_name": "Blink - AB Food Market Kyparissia", "lit": "yes", "motorcar": "yes", "name": "Blink - ΑΒ Βασιλόπουλος Κυπαρισσία", "name:el": "Blink - ΑΒ Βασιλόπουλος Κυπαρισσία", "name:en": "Blink - AB Food Market Kyparissia", "opening_hours": "24/7", "operator": "ΑΒ Βασιλόπουλος", "parking:fee": "no", "payment:app": "yes", "ref:EU:EVSE": "GR*BLK*EEW1S22W0049*0", "ref:GR:IDRO": "GR-BLK-S465ba1dd-d734-8158-93cc-330000695180", "socket:type2_cable": "1", "socket:type2_cable:output": "22"}}, {"type": "node", "id": 2917330501, "lat": 37.2555796, "lon": 21.6628266, "tags": {"addr:city": "Kyparissia", "addr:postcode": "24500", "addr:street": "Limáni - Kyparissías", "amenity": "restaurant", "capacity": "50", "cuisine": "regional", "name": "ο Μόλος", "opening_hours": "10:00-23:00", "phone": "2761400076", "smoking": "outside"}}, {"type": "node", "id": 5617586465, "lat": 37.2549641, "lon": 21.6652401, "tags": {"amenity": "parking"}}, {"type": "node", "id": 5005045321, "lat": 37.2549311, "lon": 21.666613, "tags": {"amenity": "cafe", "name:de": "Cubaraki Wifi"}}, {"type": "node", "id": 5617516529, "lat": 37.2555966, "lon": 21.6676056, "tags": {"amenity": "restaurant"}}, {"type": "node", "id": 10038903091, "lat": 37.2555281, "lon": 21.6678289, "tags": {"access": "yes", "addr:city": "Κυπαρισσία", "addr:postcode": "24500", "amenity": "charging_station", "authentication:app": "yes", "authentication:membership_card": "yes", "brand": "Chargespot", "capacity": "2", "contact:phone": "18311", "contact:website": "https://www.chargespot.gr/", "covered": "no", "fee": "yes", "lit": "yes", "manufacturer": "Chago", "motorcar": "yes", "name": "Chargespot - Kyparissia Beach Hotel", "opening_hours": "24/7", "operator": "Kyparissia Beach Hotel", "parking:fee": "no", "payment:app": "yes", "ref:EU:EVSE": "GR*WAV*E91605;GR*WAV*E91606", "ref:GR:IDRO": "GR-WAV-S134", "socket:type2": "2", "socket:type2:output": "22"}}, {"type": "node", "id": 10576746896, "lat": 37.2551275, "lon": 21.6676956, "tags": {"addr:city": "Kyparissia", "addr:postcode": "24500", "internet_access": "wlan", "internet_access:fee": "no", "name": "Kyparissia Beach Hotel", "phone": "2761024492", "tourism": "hotel", "website": "https://kyparissiabeachhotel.gr/", "wikidata": "Q111858113"}}, {"type": "node", "id": 10038956429, "lat": 37.2594814, "lon": 21.675646, "tags": {"access": "yes", "addr:city": "Κυπαρισσία", "addr:postcode": "24500", "amenity": "charging_station", "authentication:app": "yes", "authentication:membership_card": "yes", "brand": "Chargespot", "capacity": "1", "contact:phone": "18311", "contact:website": "https://www.chargespot.gr/", "covered": "no", "fee": "yes", "lit": "yes", "manufacturer": "Chago", "motorcar": "yes", "name": "Chargespot - Apollo Resort Art Hotel", "opening_hours": "24/7", "operator": "Apollo Resort Art Hotel", "parking:fee": "no", "payment:app": "yes", "ref:EU:EVSE": "GR*WAV*E57456", "ref:GR:IDRO": "GR-WAV-S22", "socket:type2": "1", "socket:type2:output": "22"}}, {"type": "node", "id": 5077491725, "lat": 37.249158, "lon": 21.6794016, "tags": {"historic": "memorial", "memorial": "bust", "name": "Γιαννάκης Γκρίτζαλης"}}, {"type": "node", "id": 6554347655, "lat": 37.2477548, "lon": 21.6799104, "tags": {"name": "Σταφιδόβρυση", "natural": "spring"}}, {"type": "node", "id": 8381180394, "lat": 37.2491433, "lon": 21.6793796, "tags": {"genus": "Platanus", "name": "Ο Πλάτανος της Αρκαδιάς", "natural": "tree", "tourism": "attraction"}}, {"type": "node", "id": 8381180395, "lat": 37.2491578, "lon": 21.6795032, "tags": {"amenity": "drinking_water"}}, {"type": "node", "id": 8387137460, "lat": 37.2489507, "lon": 21.6794162, "tags": {"amenity": "parking"}}, {"type": "node", "id": 13551348557, "lat": 37.2491428, "lon": 21.6808003, "tags": {"direction": "200 - 360", "tourism": "viewpoint"}}, {"type": "node", "id": 13551348565, "lat": 37.2490557, "lon": 21.6809524, "tags": {"historic": "memorial", "memorial": "bust"}}, {"type": "node", "id": 4400433089, "lat": 37.2524245, "lon": 21.6913354, "tags": {"name": "Ο Παλιός Νερόμυλος", "name:el": "Ο Παλιός Νερόμυλος", "name:en": "Old Watermill shop and cafe", "opening_hours": "Mo-Fr 09:00-14:30, 18:00-21:00; Sa-Su 09:00-23:00", "tourism": "attraction", "website": "http://www.opaliosneromylos.gr"}}, {"type": "node", "id": 13121531998, "lat": 37.2616271, "lon": 21.6870023, "tags": {"access": "yes", "addr:city": "Κυπαρισσία", "addr:country": "GR", "addr:postcode": "24500", "amenity": "charging_station", "authentication:app": "yes", "brand": "DEI Blue", "capacity": "8", "contact:phone": "+30 2112110900", "contact:website": "https://www.deiblue.gr/", "covered": "no", "fee": "yes", "int_name": "DEI blue - Σκλαβενίτης", "lit": "yes", "manufacturer": "Alfen BV", "motorcar": "yes", "name": "DEI blue - Σκλαβενίτης", "name:el": "DEI blue - Σκλαβενίτης", "name:en": "DEI blue - Sklavenitis", "opening_hours": "24/7", "operator": "Σκλαβενίτης", "payment:app": "yes", "ref:EU:EVSE": "GR*PPC*EDEIBLUE*NYCV*46*1;GR*PPC*EDEIBLUE*NYCV*46*2", "ref:GR:IDRO": "GR-PPC-Scs37247-L", "socket:type2": "6", "socket:type2:output": "22", "socket:type2_combo": "2", "socket:type2_combo:current": "250", "socket:type2_combo:output": "150", "socket:type2_combo:voltage": "600"}}, {"type": "node", "id": 13273521501, "lat": 37.2655187, "lon": 21.6896992, "tags": {"access": "customers", "addr:city": "Κυπαρισσία", "addr:postcode": "24500", "addr:street": "Πύργος - Κυπαρισσία", "amenity": "charging_station", "authentication:none": "yes", "brand": "Lidl", "capacity": "2", "contact:website": "https://www.lidl-hellas.gr/", "covered": "no", "description": "Free of charge. 18kW limited. After 30 minutes charging stops.", "fee": "no", "int_name": "Lidl Kyparissia", "manufacturer": "ABB", "motorcar": "yes", "name": "Lidl Κυπαρισσία", "name:el": "Lidl Κυπαρισσία", "name:en": "Lidl Kyparissia", "opening_hours": "Mo-Sa 07:45-21:00; Su,PH off", "operator": "Lidl", "operator:wikidata": "Q151954", "parking:fee": "no", "ref:EU:EVSE": "GR-LDL-E00000185;GR-LDL-E00000186", "ref:GR:IDRO": "GR-LDL-S26905390", "socket:type2": "1", "socket:type2:output": "22", "socket:type2_combo": "1", "socket:type2_combo:output": "24", "start_date": "2025-11-20"}}, {"type": "node", "id": 9136270023, "lat": 37.2712384, "lon": 21.6961851, "tags": {"amenity": "fuel", "brand": "Aegean", "brand:wikidata": "Q28146598", "brand:wikipedia": "el:Aegean Oil", "name": "AEGEAN", "operator": "ΑΣΠΑΣΙΑ ΜΑΡΙΑ ΧΡΟΝΟΠΟΥΛΟΥ"}}, {"type": "node", "id": 13123679659, "lat": 37.2724638, "lon": 21.6970767, "tags": {"access": "yes", "addr:city": "Κυπαρισσία", "addr:place": "Μεμί", "addr:postcode": "24500", "amenity": "charging_station", "authentication:app": "yes", "authentication:membership_card": "yes", "brand": "Joltie", "capacity": "2", "contact:email": "support@joltie.com", "contact:phone": "+30 2152151608", "contact:website": "https://www.joltie.com/", "covered": "no", "fee": "yes", "manufacturer": "Phoenix Contact", "motorcar": "yes", "name": "Joltie - Electronet Κυπαρισσία", "opening_hours": "24/7", "operator": "Electronet Κυπαρισσία", "parking:fee": "no", "payment:app": "yes", "payment:rfid_card": "yes", "ref:EU:EVSE": "GR*JLT*E7c14dc66-1;GR*JLT*E7c14dc66-2", "ref:GR:IDRO": "GR-JLT-S31", "socket:type2": "2", "socket:type2:output": "22"}}, {"type": "node", "id": 3017222195, "lat": 37.2767526, "lon": 21.698366, "tags": {"amenity": "fuel", "brand": "Shell", "brand:wikidata": "Q110716465", "brand:wikipedia": "en:Royal Dutch Shell", "name": "SHELL", "operator": "ΦΑΡΑΝΤΖΗΣ ΑΛΕΞΑΝΔΡΟΣ"}}, {"type": "node", "id": 13484802701, "lat": 37.2831144, "lon": 21.6850528, "tags": {"amenity": "restaurant", "name": "Petrinos Mylos", "phone": "+30 699 720 3666"}}, {"type": "node", "id": 3005038339, "lat": 37.2991034, "lon": 21.6963178, "tags": {"name": "studios Akrogiali", "tourism": "hotel"}}, {"type": "node", "id": 3005038563, "lat": 37.2991434, "lon": 21.6959271, "tags": {"access": "customers", "amenity": "parking", "fee": "no", "name": "Akrogiali", "parking": "surface", "surface": "gravel", "survey:date": "2024-10-04"}}, {"type": "node", "id": 3014370256, "lat": 37.2994508, "lon": 21.6956359, "tags": {"name": "villa caretta", "tourism": "hotel"}}, {"type": "node", "id": 3014370258, "lat": 37.2993882, "lon": 21.6958951, "tags": {"name": "Νιρηίδες", "tourism": "hotel"}}, {"type": "node", "id": 6750794386, "lat": 37.2989468, "lon": 21.6952873, "tags": {"amenity": "restaurant", "cuisine": "greek;mediterranean;fish", "internet_access": "wlan", "name": "Το Πεέτρινο Μπαλκόνι", "name:el": "Το Πεέτρινο Μπαλκόνι", "name:en": "To Petrino Balkoni", "opening_hours": "Mo-Su 10:00-02:00", "website": "https://m.facebook.com/topetrinobalkoni/?ref=ts&fref=ts"}}, {"type": "node", "id": 8837790985, "lat": 37.2997669, "lon": 21.6959978, "tags": {"amenity": "atm", "brand": "Euronet", "brand:wikidata": "Q5412010", "cash_in": "no", "name": "Euronet", "operator": "Euronet", "operator:wikidata": "Q5412010"}}, {"type": "node", "id": 11876808669, "lat": 37.2996957, "lon": 21.6953407, "tags": {"amenity": "restaurant", "name": "Ζέφυρος", "name:de": "Zephyros", "name:el": "Ζέφυρος", "name:en": "Zephyros"}}, {"type": "node", "id": 11876831769, "lat": 37.2991717, "lon": 21.6953081, "tags": {"amenity": "restaurant", "name": "Ακρογιάλι", "name:de": "Akrogiali", "name:el": "Ακρογιάλι", "name:en": "Akrogiali", "survey:date": "2024-10-04"}}, {"type": "node", "id": 12416504945, "lat": 37.2982398, "lon": 21.698911, "tags": {"historic": "memorial", "memorial": "stele"}}, {"type": "node", "id": 2917250720, "lat": 37.2978802, "lon": 21.699313, "tags": {"shop": "convenience"}}, {"type": "node", "id": 3014336092, "lat": 37.2973022, "lon": 21.7014161, "tags": {"amenity": "pharmacy", "dispensing": "no", "healthcare": "pharmacy"}}, {"type": "node", "id": 3014336093, "lat": 37.2977505, "lon": 21.699345, "tags": {"amenity": "cafe"}}, {"type": "node", "id": 3017222196, "lat": 37.2953588, "lon": 21.7026106, "tags": {"addr:city": "Καλό Νερό", "amenity": "fuel", "brand": "Avin", "brand:wikidata": "Q22979634", "brand:wikipedia": "en:Avin International", "compressed_air": "yes", "name": "AVIN", "operator": "ΠΛΕΤΣΑ ΔΕΣΠΟΙΝΑ"}}, {"type": "node", "id": 3017222197, "lat": 37.2972827, "lon": 21.701337, "tags": {"shop": "convenience"}}, {"type": "node", "id": 3724472735, "lat": 37.2976749, "lon": 21.7021918, "tags": {"shop": "bakery"}}, {"type": "node", "id": 6754100985, "lat": 37.2976721, "lon": 21.7024128, "tags": {"name": "Παντοπωλείο Φώτη Γαλάνη", "name:el": "Παντοπωλείο Φώτη Γαλάνη", "name:en": "Fotis Galanis market", "opening_hours": "Mo-Sa 08:00-21:00; Su 09:00-14:00", "shop": "convenience", "website": "https://m.facebook.com/fotis.galanis.market/"}}, {"type": "node", "id": 11231270505, "lat": 37.2994802, "lon": 21.7021513, "tags": {"amenity": "fuel", "brand": "Aegean", "brand:wikidata": "Q28146598", "compressed_air": "yes", "name": "AEGEAN"}}, {"type": "node", "id": 11876794969, "lat": 37.2976334, "lon": 21.699464, "tags": {"addr:postcode": "24500", "amenity": "restaurant", "cuisine": "greek;grill;regional", "name": "Κάκτος", "name:de": "Kaktos", "name:el": "Κάκτος", "name:en": "Kaktos", "phone": "+30 276 107 1178", "website": "https://www.facebook.com/kaktosgrillbar"}}, {"type": "node", "id": 3005027904, "lat": 37.2999574, "lon": 21.6954746, "tags": {"drinking_water": "no", "man_made": "water_well"}}, {"type": "node", "id": 3014370257, "lat": 37.3006335, "lon": 21.6955859, "tags": {"amenity": "restaurant", "cuisine": "regional", "name": "Karetta"}}, {"type": "node", "id": 3017222198, "lat": 37.3052101, "lon": 21.7026016, "tags": {"amenity": "fuel", "brand": "ΕΛΙΝΟΙΛ", "brand:wikidata": "Q12876543", "compressed_air": "yes", "name": "ελην", "operator": "ΜΠΟΥΣΟΥΛΑΣ ΘΕΟΔΩΡΟΣ", "wheelchair": "limited"}}, {"type": "node", "id": 9812506550, "lat": 37.341701, "lon": 21.7039276, "tags": {"name": "Natura Club Hotel adults only", "tourism": "hotel", "website": "https://hotelnaturaclub.com/"}}, {"type": "node", "id": 13574458576, "lat": 37.3416006, "lon": 21.7035328, "tags": {"access": "yes", "addr:city": "Καλό Νερό", "addr:postcode": "42200", "addr:street": "Πύργου - Κυπαρισσίας", "amenity": "charging_station", "authentication:app": "yes", "brand": "DEI Blue", "capacity": "1", "contact:phone": "+30 2112110900", "contact:website": "https://www.deiblue.gr/", "covered": "no", "fee": "yes", "lit": "yes", "manufacturer": "Autel", "motorcar": "yes", "name": "DEI blue - Natura Club & Spa", "opening_hours": "24/7", "operator": "Natura Club & Spa", "payment:app": "yes", "ref:EU:EVSE": "GR*PPC*EDEIBLUE*NHG*029*1", "ref:GR:IDRO": "GR-PPC-Scs42738-L", "socket:type2": "1", "socket:type2:output": "22", "start_date": "2026-02-17"}}, {"type": "node", "id": 7195054279, "lat": 37.2447431, "lon": 21.7083088, "tags": {"name": "Κεφαλάρι", "natural": "spring"}}, {"type": "node", "id": 11932910065, "lat": 37.2464495, "lon": 21.7077159, "tags": {"amenity": "drinking_water", "description": "water fontain"}}, {"type": "node", "id": 7195054243, "lat": 37.2445283, "lon": 21.7300242, "tags": {"ele": "303", "natural": "spring"}}, {"type": "node", "id": 7195054244, "lat": 37.243955, "lon": 21.7271449, "tags": {"ele": "316", "natural": "spring"}}, {"type": "node", "id": 9866468607, "lat": 37.2448663, "lon": 21.7467583, "tags": {"archaeological_site": "settlement", "historic": "archaeological_site", "name": "Αμφιγένεια", "name:el": "Αμφιγένεια", "name:en": "Amphigeneia"}}, {"type": "node", "id": 6568762464, "lat": 37.2774704, "lon": 21.7380258, "tags": {"name": "Φαράγγι Περιστεριάς", "name:de": "Peristeria-Schlucht", "name:el": "Φαράγγι Περιστεριάς", "name:en": "Peristeria Gorge", "tourism": "attraction"}}, {"type": "node", "id": 9022921081, "lat": 37.2769625, "lon": 21.7381538, "tags": {"natural": "spring"}}, {"type": "node", "id": 9022922972, "lat": 37.2769119, "lon": 21.738198, "tags": {"leisure": "picnic_table"}}, {"type": "node", "id": 6568762465, "lat": 37.2794406, "lon": 21.7412738, "tags": {"name": "Ρέμα Καλό Νερό", "tourism": "attraction"}}, {"type": "node", "id": 7194256290, "lat": 37.2902519, "lon": 21.8014602, "tags": {"natural": "spring"}}, {"type": "node", "id": 7194305491, "lat": 37.2920073, "lon": 21.7997451, "tags": {"natural": "spring"}}, {"type": "node", "id": 7740509195, "lat": 37.2959533, "lon": 21.7735426, "tags": {"man_made": "spring_box", "name": "Πηγές Αβάρου", "name:de": "Quellen von Avaros", "name:el": "Πηγές Αβάρου", "natural": "spring"}}, {"type": "node", "id": 13203224773, "lat": 37.3202302, "lon": 21.7640667, "tags": {"amenity": "parking"}}, {"type": "node", "id": 13203224774, "lat": 37.3229844, "lon": 21.765417, "tags": {"amenity": "parking"}}, {"type": "node", "id": 12547475241, "lat": 37.3385997, "lon": 21.7721551, "tags": {"artist:wikidata": "Q113127363", "artwork_type": "statue", "material": "bronze", "statue": "equestrian", "subject:wikidata": "Q319678", "subject:wikipedia": "en:Theodoros Kolokotronis", "tourism": "artwork", "wikidata": "Q113131404"}}, {"type": "node", "id": 6428238285, "lat": 37.6460724, "lon": 21.3059597, "tags": {"tourism": "viewpoint"}}, {"type": "node", "id": 446415627, "lat": 37.6453527, "lon": 21.3182586, "tags": {"amenity": "parking", "capacity": "50", "capacity:disabled": "no", "fee": "no", "parking": "surface"}}, {"type": "node", "id": 3687865895, "lat": 37.6461506, "lon": 21.316059, "tags": {"name": "Tsoukalas Ioannis (Yannis)", "name:en": "Touskalas rooms to let with perfect view - Yannis", "phone": "(+30)2621041079", "tourism": "guest_house", "website": "https://www.tsoukalas-rooms.com/"}}, {"type": "node", "id": 4901522684, "lat": 37.6470923, "lon": 21.3165909, "tags": {"addr:city": "Κατάκολο", "amenity": "pharmacy", "drive_through": "no", "healthcare": "pharmacy", "name": "Pharmacy Store", "opening_hours": "Mo-Sa 09:00-21:00", "operator": "Malevitis"}}, {"type": "node", "id": 6428058586, "lat": 37.6449772, "lon": 21.3150839, "tags": {"name:it": "Incrocio Panoramico", "tourism": "viewpoint"}}, {"type": "node", "id": 6428150285, "lat": 37.6468117, "lon": 21.3154324, "tags": {"name:it": "Incrocio Panoramico", "tourism": "viewpoint"}}, {"type": "node", "id": 6661441485, "lat": 37.6465634, "lon": 21.3172848, "tags": {"amenity": "restaurant", "cuisine": "greek", "name:en": "Filia", "name:es": "Filia"}}, {"type": "node", "id": 8837778270, "lat": 37.6466096, "lon": 21.3168615, "tags": {"shop": "convenience"}}, {"type": "node", "id": 8837788704, "lat": 37.6466503, "lon": 21.316847, "tags": {"shop": "convenience"}}, {"type": "node", "id": 8837791573, "lat": 37.646975, "lon": 21.3168325, "tags": {"amenity": "atm", "brand": "Alpha Bank", "brand:wikidata": "Q747394", "name": "Alpha bank", "operator": "Alpha Bank", "operator:wikidata": "Q747394"}}, {"type": "node", "id": 9379306818, "lat": 37.6469646, "lon": 21.3170025, "tags": {"amenity": "cafe", "name:en": "Azzurro"}}, {"type": "node", "id": 10922250438, "lat": 37.6467111, "lon": 21.3167936, "tags": {"amenity": "atm", "brand": "Euronet", "brand:wikidata": "Q5412010", "name": "Euronet", "operator": "Euronet", "operator:wikidata": "Q5412010"}}, {"type": "node", "id": 12846555443, "lat": 37.6462896, "lon": 21.3175159, "tags": {"amenity": "restaurant", "cuisine": "greek", "name": "Del Mar Cafe"}}, {"type": "node", "id": 12846555448, "lat": 37.6464278, "lon": 21.317396, "tags": {"amenity": "restaurant", "cuisine": "greek", "name": "mamer"}}, {"type": "node", "id": 13175479780, "lat": 37.6444807, "lon": 21.3161333, "tags": {"access": "yes", "addr:city": "Κατάκολο", "addr:country": "GR", "addr:postcode": "27067", "amenity": "charging_station", "authentication:app": "yes", "authentication:membership_card": "yes", "brand": "Chargespot", "capacity": "1", "contact:phone": "18311", "contact:website": "https://www.chargespot.gr/", "covered": "no", "fee": "yes", "lit": "yes", "manufacturer": "Chago", "motorcar": "yes", "name": "Chargespot - Orizontes View Hotel", "opening_hours": "24/7", "operator": "Orizontes View Hotel", "parking:fee": "no", "payment:app": "yes", "ref:EU:EVSE": "GR*WAV*E78357", "ref:GR:IDRO": "GR-WAV-S17471", "socket:type2": "1", "socket:type2:output": "22"}}, {"type": "node", "id": 13175479781, "lat": 37.6442428, "lon": 21.3165946, "tags": {"addr:city": "Κατάκολο", "addr:country": "GR", "addr:postcode": "27067", "amenity": "cafe", "name": "Μελτέμι", "name:en": "Meltemi"}}, {"type": "node", "id": 9945450818, "lat": 37.6448115, "lon": 21.3245443, "tags": {"name:en": "Cruise Berth Point", "tourism": "attraction"}}, {"type": "node", "id": 301507823, "lat": 37.6493509, "lon": 21.3144899, "tags": {"name": "Katakolon", "name:ru": "Вид на Катаколо", "tourism": "viewpoint"}}, {"type": "node", "id": 446415628, "lat": 37.6482394, "lon": 21.3171372, "tags": {"amenity": "parking", "parking": "surface"}}, {"type": "node", "id": 4901522682, "lat": 37.648014, "lon": 21.3158062, "tags": {"museum": "technology", "name": "Μουσείο Αρχαίας Ελληνικής Τεχνολογίας", "name:el": "Μουσείο Αρχαίας Ελληνικής Τεχνολογίας", "name:en": "Museum of Ancient Greek Technology", "operator": "Kostas Kotsanas", "tourism": "museum", "website": "https://kotsanas.com/", "wikidata": "Q15260365"}}, {"type": "node", "id": 6427656685, "lat": 37.6472193, "lon": 21.315962, "tags": {"amenity": "restaurant", "name": "Taverna Jimmy's"}}, {"type": "node", "id": 6428150286, "lat": 37.648238, "lon": 21.3138863, "tags": {"tourism": "picnic_site"}}, {"type": "node", "id": 6783712306, "lat": 37.6476243, "lon": 21.3164836, "tags": {"artwork_type": "statue", "material": "metal", "name": "Προτομή Μίλτωνος Ιατρίδη", "tourism": "artwork"}}, {"type": "node", "id": 8837787970, "lat": 37.6479334, "lon": 21.3166026, "tags": {"amenity": "drinking_water"}}, {"type": "node", "id": 9379306620, "lat": 37.6473016, "lon": 21.3167501, "tags": {"amenity": "restaurant", "name:en": "Karousos"}}, {"type": "node", "id": 12147994514, "lat": 37.6475165, "lon": 21.3159032, "tags": {"historic": "memorial", "memorial": "sculpture"}}, {"type": "node", "id": 301507730, "lat": 37.6602199, "lon": 21.3146545, "tags": {"name": "Katakolon", "tourism": "viewpoint"}}, {"type": "node", "id": 12031599443, "lat": 37.6561627, "lon": 21.3182656, "tags": {"name": "Mini Market", "shop": "convenience"}}, {"type": "node", "id": 7849877785, "lat": 37.6645281, "lon": 21.3106696, "tags": {"addr:city": "Katakolo", "addr:housenumber": "1", "addr:postcode": "270 67", "addr:street": "Agios Andreas", "amenity": "restaurant", "bar": "yes", "brand": "Vriniotis Resorts", "cuisine": "greek", "diet:gluten_free": "yes", "diet:vegan": "yes", "diet:vegetarian": "yes", "email": "sea@beauvoir.gr", "internet_access": "wlan", "internet_access:fee": "customers", "internet_access:ssid": "BEAUVOIR", "name": "BEAUVOIR | West Peloponnese", "name:de": "BEAUVOIR", "opening_hours": "Mo-Su 11:00-23:00", "operator": "Vriniotis Resorts", "outdoor_seating": "yes", "payment:cash": "yes", "payment:contactless": "yes", "payment:maestro": "yes", "payment:mastercard": "yes", "payment:visa": "yes", "phone": "+302621041404", "reservation": "recommended", "website": "https://www.beauvoir.gr/"}}, {"type": "node", "id": 9982937774, "lat": 37.6641432, "lon": 21.3108513, "tags": {"addr:city": "Katakolo", "addr:housenumber": "1", "addr:postcode": "270 67", "addr:street": "Agios Andreas", "bar": "yes", "brand": "Vriniotis Resorts", "email": "resort@pheia.gr", "internet_access": "yes", "internet_access:fee": "customers", "internet_access:ssid": "PHEIA", "name": "PHEIA | West Peloponnese", "operator": "Vriniotis Resorts", "payment:cash": "yes", "payment:contactless": "yes", "payment:credit_cards": "yes", "payment:maestro": "yes", "payment:mastercard": "yes", "payment:visa": "yes", "phone": "+30 26210 41 401", "reservation": "required", "rooms": "22", "tourism": "hotel", "website": "https://www.pheia.gr/", "wheelchair": "yes"}}, {"type": "node", "id": 10923933205, "lat": 37.6641285, "lon": 21.3107241, "tags": {"name:de": "Vriniotis", "name:en": "Vriniotis", "tourism": "hotel"}}, {"type": "node", "id": 5954072086, "lat": 37.6626541, "lon": 21.3139138, "tags": {"amenity": "parking", "surface": "ground"}}, {"type": "node", "id": 5954072088, "lat": 37.6642869, "lon": 21.3142557, "tags": {"direction": "NE", "tourism": "viewpoint"}}, {"type": "node", "id": 8961071811, "lat": 37.6642975, "lon": 21.3140198, "tags": {"alt_name": "Κάστρο Μπελβεντέρε", "castle_type": "castle", "historic": "castle", "historic:civilization": "medieval", "name": "Ποντικόκαστρο", "name:el": "Ποντικόκαστρο", "name:en": "Pontikokastro", "source": "https://www.kastra.eu/castlegr.php?kastro=pontiko", "start_date": "1499", "wikidata": "Q19826720"}}, {"type": "node", "id": 10613887215, "lat": 37.6637269, "lon": 21.3141323, "tags": {"historic": "archaeological_site", "name": "Αρχαία Φειά", "wikidata": "Q3563531"}}, {"type": "node", "id": 5955025740, "lat": 37.664935, "lon": 21.3288694, "tags": {"amenity": "fast_food", "cuisine": "kebab", "name": "Souvlaki", "name:ru": "Сувлачная", "smoking": "yes", "takeaway": "yes"}}, {"type": "node", "id": 13165627201, "lat": 37.6747897, "lon": 21.3145631, "tags": {"amenity": "restaurant", "cuisine": "greek", "name": "Ταβέρνα Της Μαχης", "self_service": "no"}}, {"type": "node", "id": 6677284785, "lat": 37.6853298, "lon": 21.3126468, "tags": {"amenity": "restaurant", "name": "рыбный ресторанчик с пляжем!!!"}}, {"type": "node", "id": 11001306011, "lat": 37.6995897, "lon": 21.320246, "tags": {"addr:city": "SKAFIDIA", "addr:housenumber": "0", "addr:postcode": "27100", "addr:street": "SKAFIDIA", "brand": "DIMITRA APARTMENTS", "email": "info@familyhoteldimitra.gr", "internet_access": "wlan", "internet_access:fee": "no", "name": "DIMITRA APARTMENTS HOTEL", "phone": "0030 6972230071", "rooms": "7", "tourism": "hotel", "website": "http://www.familyhoteldimitra.gr/"}}, {"type": "node", "id": 3569101893, "lat": 37.6880575, "lon": 21.3276981, "tags": {"addr:city": "Leventochori", "addr:country": "GR", "addr:postcode": "27100", "name": "Mini Market", "opening_hours": "8:00+", "shop": "supermarket"}}, {"type": "node", "id": 5783553653, "lat": 37.6877643, "lon": 21.3268758, "tags": {"amenity": "restaurant", "name:en": "Charilis"}}, {"type": "node", "id": 5783553753, "lat": 37.6874954, "lon": 21.3268537, "tags": {"amenity": "restaurant", "name:en": "Savouras"}}, {"type": "node", "id": 6438985665, "lat": 37.6998672, "lon": 21.3176519, "tags": {"amenity": "restaurant", "bar": "yes", "cuisine": "greek", "name": "Sol y Mar", "outdoor_seating": "yes"}}, {"type": "node", "id": 8749931092, "lat": 37.7024581, "lon": 21.3202767, "tags": {"historic": "archaeological_site", "name": "Ρωμαϊκά Λουτρά", "wikidata": "Q113867619"}}, {"type": "node", "id": 13175508260, "lat": 37.705737, "lon": 21.3215232, "tags": {"access": "yes", "addr:city": "Πύργος", "addr:place": "Καλακαίικα", "addr:postcode": "27100", "amenity": "charging_station", "authentication:app": "yes", "authentication:membership_card": "yes", "brand": "nrg incharge", "capacity": "4", "contact:phone": "+30 2188818102", "contact:website": "https://www.nrgincharge.gr/", "covered": "yes", "description": "Underground parking", "fee": "yes", "level": "-1", "lit": "yes", "motorcar": "yes", "name": "nrg - Aldemar Olympian Village", "opening_hours": "24/7", "operator": "Aldemar Olympian Village", "payment:app": "yes", "payment:website": "yes", "ref": "#1332;#1333", "ref:EU:EVSE": "GR*NRG*E1332*1;GR*NRG*E1332*2;GR*NRG*E1333*1;GR*NRG*E1333*2", "ref:GR:IDRO": "GR-NRG-S740", "socket:type2": "4", "socket:type2:output": "22"}}, {"type": "node", "id": 2410611421, "lat": 37.708516, "lon": 21.3207889, "tags": {"name": "Royal Olympian", "stars": "4", "tourism": "hotel"}}, {"type": "node", "id": 8961071810, "lat": 37.7008303, "lon": 21.3255348, "tags": {"amenity": "monastery", "castle_type": "castle", "historic": "castle", "historic:civilization": "byzantine", "name": "Πύργος Σκαφιδιάς", "name:el": "Πύργος Σκαφιδιάς", "name:en": "Tower of Skafidia", "source": "https://www.kastra.eu/castlegr.php?kastro=skafidia", "wikidata": "Q108784498"}}, {"type": "node", "id": 838952283, "lat": 37.7080252, "lon": 21.3264949, "tags": {"name": "Aldemar Olympian Village", "stars": "4", "tourism": "hotel", "website": "https://www.aldemar-resorts.gr/"}}, {"type": "node", "id": 5783553853, "lat": 37.709325, "lon": 21.326646, "tags": {"amenity": "restaurant", "name:en": "Vythos Restaurant"}}, {"type": "node", "id": 13387350750, "lat": 37.7072989, "lon": 21.3279484, "tags": {"access": "yes", "addr:place": "Καλακαίικα", "addr:postcode": "27100", "amenity": "charging_station", "authentication:app": "yes", "brand": "DEI Blue", "capacity": "2", "contact:phone": "+30 2112110900", "contact:website": "https://www.deiblue.gr/", "covered": "no", "fee": "yes", "manufacturer": "Phoenix Contact", "motorcar": "yes", "name": "DΕΙ blue - Fotis Rooms Taverna", "opening_hours": "24/7", "operator": "Fotis Rooms Taverna", "parking:fee": "no", "payment:app": "yes", "ref:EU:EVSE": "GR*PPC*EDEIBLUE*RHA*70*1;GR*PPC*EDEIBLUE*RHA*71*1", "ref:GR:IDRO": "GR-PPC-Scs42670-L", "socket:type2": "2", "socket:type2:output": "22", "start_date": "2025-12-18"}}, {"type": "node", "id": 12228430933, "lat": 37.663977, "lon": 21.3441858, "tags": {"air_conditioning": "yes", "internet_access": "wlan", "internet_access:fee": "customers", "survey:date": "2024-10-05", "tourism": "chalet"}}, {"type": "node", "id": 1358324207, "lat": 37.6673092, "lon": 21.3385252, "tags": {"amenity": "fuel"}}, {"type": "node", "id": 4873658779, "lat": 37.6860976, "lon": 21.3576296, "tags": {"amenity": "cafe"}}, {"type": "node", "id": 4873658781, "lat": 37.6862263, "lon": 21.357959, "tags": {"amenity": "cafe"}}, {"type": "node", "id": 4873658782, "lat": 37.6862359, "lon": 21.35765, "tags": {"name": "Mini Market", "shop": "convenience"}}, {"type": "node", "id": 4873661392, "lat": 37.6861523, "lon": 21.3573491, "tags": {"amenity": "cafe"}}, {"type": "node", "id": 4873662759, "lat": 37.686059, "lon": 21.3579468, "tags": {"amenity": "restaurant"}}, {"type": "node", "id": 4873658780, "lat": 37.6862037, "lon": 21.3584997, "tags": {"amenity": "cafe"}}, {"type": "node", "id": 4873663540, "lat": 37.6861214, "lon": 21.3582769, "tags": {"amenity": "restaurant"}}, {"type": "node", "id": 5872922344, "lat": 37.6860649, "lon": 21.3581856, "tags": {"shop": "bakery"}}, {"type": "node", "id": 1358360126, "lat": 37.6761558, "lon": 21.3662643, "tags": {"amenity": "fuel", "brand": "ΕΛΙΝΟΙΛ", "brand:wikidata": "Q12876543", "name": "ΕΛΙΝΟΙΛ", "operator": "STEF OIL ΚΑΥΣΙΜΑ ΜΟΝΟΠΡΟΣΩΠΗ ΙΚΕ"}}, {"type": "node", "id": 1358360145, "lat": 37.6779272, "lon": 21.3727579, "tags": {"amenity": "fuel", "brand": "Revoil", "brand:wikidata": "Q62530755", "name": "REVOIL", "operator": "ΜΑΧΑΙΡΑΣ ΓΕΩΡΓΙΟΣ του ΑΝΔΡΕΑ"}}, {"type": "node", "id": 11800043723, "lat": 37.6801743, "lon": 21.3744781, "tags": {"alt_name:el": "Τρύπιος Βράχος Γρανιτσαιίκων;Τρύπιο Λιθάρι Γρανιτσαιίκων", "alt_name:en": "Hollow Rock at Granitsaiika;Trypios Vrachos Granitsaiika;Trypio Lithari Granitsaiika", "name": "Τρύπιος Βράχος", "name:el": "Τρύπιος Βράχος", "name:en": "Hollow Rock", "natural": "stone", "tourism": "attraction"}}, {"type": "node", "id": 9860837219, "lat": 37.6792714, "lon": 21.3821049, "tags": {"amenity": "fuel", "brand": "ΕΛΙΝΟΙΛ", "brand:wikidata": "Q12876543", "name": "ΕΛΙΝΟΙΛ", "operator": "STEF OIL ΚΑΥΣΙΜΑ ΜΟΝ. Ι.Κ.Ε."}}, {"type": "node", "id": 2410730233, "lat": 37.6788825, "lon": 21.3858897, "tags": {"amenity": "restaurant", "cuisine": "grill", "name": "Σταυροδρομι"}}, {"type": "node", "id": 4873646808, "lat": 37.6791996, "lon": 21.3860756, "tags": {"amenity": "cafe"}}, {"type": "node", "id": 4873646809, "lat": 37.678983, "lon": 21.3851207, "tags": {"shop": "supermarket"}}, {"type": "node", "id": 4873646810, "lat": 37.6783876, "lon": 21.3876206, "tags": {"amenity": "fuel", "brand": "Aegean", "brand:wikidata": "Q28146598", "name": "AEGEAN", "operator": "ΤΑΞΙ ΚΑΥΣΙΜΑ ΜΟΝ. Ε.Π.Ε."}}, {"type": "node", "id": 4873646811, "lat": 37.6786731, "lon": 21.3874649, "tags": {"shop": "bakery"}}, {"type": "node", "id": 4873646812, "lat": 37.6784948, "lon": 21.3869714, "tags": {"shop": "bakery"}}, {"type": "node", "id": 4873646813, "lat": 37.679051, "lon": 21.3847666, "tags": {"amenity": "restaurant"}}, {"type": "node", "id": 4873646814, "lat": 37.6793821, "lon": 21.386097, "tags": {"shop": "supermarket"}}, {"type": "node", "id": 4873658776, "lat": 37.6834436, "lon": 21.3866493, "tags": {"amenity": "restaurant"}}, {"type": "node", "id": 4873658777, "lat": 37.6836291, "lon": 21.3868666, "tags": {"amenity": "cafe"}}, {"type": "node", "id": 11070575853, "lat": 37.6944276, "lon": 21.3493936, "tags": {"man_made": "water_well"}}, {"type": "node", "id": 4307461010, "lat": 37.7386094, "lon": 21.3120147, "tags": {"internet_access": "yes", "internet_access:fee": "no", "name": "Whites Villas", "rooms": "2", "tourism": "guest_house"}}, {"type": "node", "id": 2410612521, "lat": 37.714711, "lon": 21.3159735, "tags": {"amenity": "cafe"}}, {"type": "node", "id": 5864352685, "lat": 37.7144336, "lon": 21.3245394, "tags": {"name": "Casa Skafidia", "tourism": "guest_house"}}, {"type": "node", "id": 4329367805, "lat": 37.7444487, "lon": 21.3067528, "tags": {"amenity": "restaurant", "cuisine": "regional;greek;grill", "int_name": "Xenofos", "name": "Ξενόφως", "outdoor_seating": "yes"}}, {"type": "node", "id": 9774858723, "lat": 37.7447529, "lon": 21.3074435, "tags": {"amenity": "restaurant", "name": "Almira", "outdoor_seating": "yes"}}, {"type": "node", "id": 13142006188, "lat": 37.7511936, "lon": 21.3086459, "tags": {"access": "yes", "addr:place": "Παλούκι Πύργου", "addr:postcode": "27200", "amenity": "charging_station", "authentication:app": "yes", "authentication:membership_card": "yes", "branch": "Greece", "brand": "Electrip", "capacity": "3", "contact:phone": "+30 2111984476; 8006000665", "contact:website": "https://electripglobal.com/", "covered": "yes", "fee": "yes", "motorcar": "yes", "name": "Electrip - Salt Boutique Ηotel", "opening_hours": "24/7", "operator": "Salt Boutique Ηotel", "parking:fee": "no", "payment:app": "yes", "ref:EU:EVSE": "GR-ELE-E2023060616391498CD37.1;GR-ELE-E202306061639148640E7.1;GR-ELE-E202306061639141130E0.1", "ref:GR:IDRO": "GR-ELE-S2023060616391274A362", "socket:type2": "3", "socket:type2:output": "22"}}, {"type": "node", "id": 13142006189, "lat": 37.7512593, "lon": 21.307911, "tags": {"addr:place": "Παλούκι Πύργου", "addr:postcode": "27200", "contact:website": "https://saltboutiquehotel.gr/", "name": "Salt Boutique Ηotel", "tourism": "hotel"}}, {"type": "node", "id": 26860018, "lat": 37.7650546, "lon": 21.2985946, "tags": {"name": "Kourouta", "phone": "+30 26220 24921", "tourism": "camp_site", "website": "https://www.harmonyresort.gr/camping/"}}, {"type": "node", "id": 26860071, "lat": 37.7576575, "lon": 21.30464, "tags": {"name": "Paradise", "phone": "+30 2622028840", "tourism": "camp_site", "website": "https://www.camping-paradise.gr/"}}, {"type": "node", "id": 6595128963, "lat": 37.7540947, "lon": 21.3048678, "tags": {"amenity": "restaurant", "cuisine": "seafood;pasta", "internet_access": "wlan", "name": "Porto Marine", "outdoor_seating": "yes", "phone": "+30 262202181"}}, {"type": "node", "id": 6595146683, "lat": 37.7575034, "lon": 21.3042192, "tags": {"amenity": "restaurant"}}, {"type": "node", "id": 6595147154, "lat": 37.7535142, "lon": 21.3048836, "tags": {"amenity": "restaurant"}}, {"type": "node", "id": 9769716486, "lat": 37.7553815, "lon": 21.3056288, "tags": {"name": "Villa Kalliopi", "phone": "+306939403507", "tourism": "guest_house"}}, {"type": "node", "id": 10901477774, "lat": 37.7542144, "lon": 21.3042069, "tags": {"artwork_type": "statue", "tourism": "artwork"}}, {"type": "node", "id": 7160830762, "lat": 37.7646793, "lon": 21.2996419, "tags": {"name": "Harmony Resort", "phone": "+30 2622 024921", "tourism": "hotel", "website": "https://www.harmonyresort.gr"}}, {"type": "node", "id": 9767836124, "lat": 37.7423431, "lon": 21.3305086, "tags": {"shop": "convenience"}}, {"type": "node", "id": 9767939769, "lat": 37.74079, "lon": 21.33138, "tags": {"amenity": "pharmacy"}}, {"type": "node", "id": 9767939770, "lat": 37.7415976, "lon": 21.331092, "tags": {"amenity": "cafe", "internet_access": "wlan", "name": "Το Καρτέρι", "outdoor_seating": "yes"}}, {"type": "node", "id": 9767939771, "lat": 37.7418001, "lon": 21.3309579, "tags": {"historic": "memorial", "memorial": "war_memorial"}}, {"type": "node", "id": 9767939776, "lat": 37.7419932, "lon": 21.3312006, "tags": {"shop": "convenience"}}, {"type": "node", "id": 9767939778, "lat": 37.7423718, "lon": 21.3309123, "tags": {"amenity": "cafe", "internet_access": "wlan", "name": "Ο Μουσουκας", "outdoor_seating": "yes", "phone": "+30 2622 092347"}}, {"type": "node", "id": 1344970263, "lat": 37.7559717, "lon": 21.3322244, "tags": {"amenity": "fuel"}}, {"type": "node", "id": 4329281937, "lat": 37.7158358, "lon": 21.3440489, "tags": {"amenity": "restaurant", "name": "Zorbas"}}, {"type": "node", "id": 4329273105, "lat": 37.715134, "lon": 21.3492931, "tags": {"amenity": "pharmacy"}}, {"type": "node", "id": 4329273106, "lat": 37.7152178, "lon": 21.348485, "tags": {"shop": "convenience"}}, {"type": "node", "id": 4329281936, "lat": 37.714917, "lon": 21.3462939, "tags": {"amenity": "fuel"}}, {"type": "node", "id": 9767836129, "lat": 37.7136318, "lon": 21.3493189, "tags": {"amenity": "cafe", "outdoor_seating": "yes"}}, {"type": "node", "id": 9767836130, "lat": 37.713496, "lon": 21.349563, "tags": {"historic": "memorial", "memorial": "war_memorial"}}, {"type": "node", "id": 9767836131, "lat": 37.7134164, "lon": 21.3501652, "tags": {"amenity": "cafe", "outdoor_seating": "yes"}}, {"type": "node", "id": 9767836132, "lat": 37.7135596, "lon": 21.3497803, "tags": {"shop": "convenience"}}, {"type": "node", "id": 9767939768, "lat": 37.71504, "lon": 21.34878, "tags": {"shop": "bakery"}}, {"type": "node", "id": 1344970261, "lat": 37.7136341, "lon": 21.3803943, "tags": {"addr:city": "Πύργος", "addr:country": "GR", "addr:place": "Χανάκια", "addr:postcode": "27100", "amenity": "fuel", "brand": "Shell", "brand:wikidata": "Q110716465", "brand:wikipedia": "en:Royal Dutch Shell", "compressed_air": "yes", "name": "SHELL", "opening_hours": "Mo-Su 07:00-22:00", "operator": "ΧΟΧΟΛΗΣ ΔΙΟΝ & ΣΙΑ Ο.Ε."}}, {"type": "node", "id": 13175538507, "lat": 37.7137272, "lon": 21.3806042, "tags": {"access": "yes", "addr:city": "Πύργος", "addr:country": "GR", "addr:place": "Χανάκια", "addr:postcode": "27100", "amenity": "charging_station", "authentication:app": "yes", "authentication:membership_card": "yes", "brand": "nrg incharge", "capacity": "1", "contact:phone": "+30 2188818102", "contact:website": "https://www.nrgincharge.gr/", "covered": "no", "fee": "yes", "int_name": "nrg - Shell Chanakia", "motorcar": "yes", "name": "nrg - Shell Χανάκια", "name:el": "nrg - Shell Χανάκια", "name:en": "nrg - Shell Chanakia", "opening_hours": "Mo-Su 07:00-22:00", "operator": "Shell Coral Χανάκια", "parking:fee": "no", "payment:app": "yes", "payment:website": "yes", "ref": "#537", "ref:EU:EVSE": "GR*NRG*E537*1", "ref:GR:IDRO": "GR-NRG-S331", "socket:type2": "1", "socket:type2:output": "22"}}, {"type": "node", "id": 6895506983, "lat": 37.7480086, "lon": 21.3632249, "tags": {"information": "board", "name": "Πίστα Motocross Παναγιωτόπουλος Κεραμοτουβλοποιία", "tourism": "information"}}, {"type": "node", "id": 7849298887, "lat": 37.5121842, "lon": 21.5967983, "tags": {"amenity": "cafe", "name": "Σταύρος"}}, {"type": "node", "id": 5699899029, "lat": 37.5310177, "lon": 21.576818, "tags": {"amenity": "parking"}}, {"type": "node", "id": 5699899033, "lat": 37.5320075, "lon": 21.5756512, "tags": {"amenity": "parking"}}, {"type": "node", "id": 10652743638, "lat": 37.5304587, "lon": 21.5911791, "tags": {"historic": "archaeological_site", "name": "Αρχαϊκός ναός Ποσειδώνα", "wikidata": "Q131513358"}}, {"type": "node", "id": 7791447724, "lat": 37.5339062, "lon": 21.5984694, "tags": {"alt_name": "Κάστρο Κλειδίου", "castle_type": "defensive", "historic": "castle", "historic:civilization": "ancient_greek", "name": "Κάστρο Σαμικού", "name:el": "Κάστρο Σαμικού", "name:en": "Castle of Samiko", "ruins": "yes", "source": "https://www.kastra.eu/castleen.php?kastro=samiko", "start_date": "~500 BC"}}, {"type": "node", "id": 9835374221, "lat": 37.5348224, "lon": 21.5990354, "tags": {"information": "map", "tourism": "information"}}, {"type": "node", "id": 9835374223, "lat": 37.5350274, "lon": 21.599287, "tags": {"information": "guidepost", "tourism": "information"}}, {"type": "node", "id": 9864019017, "lat": 37.5337646, "lon": 21.5984452, "tags": {"alt_name": "Samicum;Αρήνη;Σαμικόν;Σαμικό;Samiko;Arene", "historic": "archaeological_site", "name": "Αρχαίο Σαμικό", "wikidata": "Q3558588"}}, {"type": "node", "id": 9835374226, "lat": 37.5364055, "lon": 21.6006216, "tags": {"information": "guidepost", "tourism": "information"}}, {"type": "node", "id": 9766385766, "lat": 37.5443691, "lon": 21.5974318, "tags": {"amenity": "cafe", "internet_access": "wlan", "name": "Πάγκαλος", "outdoor_seating": "yes", "phone": "+30 2625 071298"}}, {"type": "node", "id": 9767778318, "lat": 37.5448198, "lon": 21.5959749, "tags": {"amenity": "cafe", "outdoor_seating": "yes"}}, {"type": "node", "id": 9767778317, "lat": 37.5490964, "lon": 21.5956785, "tags": {"shop": "convenience"}}, {"type": "node", "id": 13202122901, "lat": 37.3537519, "lon": 21.692064, "tags": {"amenity": "parking"}}, {"type": "node", "id": 13202123101, "lat": 37.3537583, "lon": 21.6920687, "tags": {"access": "no", "amenity": "parking"}}, {"type": "node", "id": 5617586689, "lat": 37.3492013, "lon": 21.6935727, "tags": {"access": "yes", "amenity": "parking", "fee": "no", "parking": "surface"}}, {"type": "node", "id": 6449813959, "lat": 37.3494047, "lon": 21.6979073, "tags": {"drinking_water": "yes", "natural": "spring"}}, {"type": "node", "id": 8837790177, "lat": 37.3651101, "lon": 21.6889009, "tags": {"amenity": "drinking_water", "description": "drinkable to be verified", "note": "Locals tell taps around provide water just for washing. Further survey needed"}}, {"type": "node", "id": 8974401044, "lat": 37.3716143, "lon": 21.6857146, "tags": {"amenity": "drinking_water"}}, {"type": "node", "id": 4380352318, "lat": 37.3679435, "lon": 21.6882682, "tags": {"amenity": "drinking_water", "description": "standard plug"}}, {"type": "node", "id": 4380352319, "lat": 37.3701543, "lon": 21.6866819, "tags": {"amenity": "drinking_water", "description": "standard plug"}}, {"type": "node", "id": 8837742076, "lat": 37.3678858, "lon": 21.6874684, "tags": {"amenity": "drinking_water"}}, {"type": "node", "id": 3711095326, "lat": 37.3968397, "lon": 21.6773061, "tags": {"name": "Apollo village", "phone": "+30 697 353 7167", "tourism": "camp_site", "website": "www.apollovillagecamping.gr/"}}, {"type": "node", "id": 4380352320, "lat": 37.3720474, "lon": 21.6843621, "tags": {"amenity": "drinking_water", "description": "shower"}}, {"type": "node", "id": 3017233916, "lat": 37.3755988, "lon": 21.6909389, "tags": {"amenity": "restaurant", "name": "Ελαία"}}, {"type": "node", "id": 3017233919, "lat": 37.3735426, "lon": 21.6890775, "tags": {"amenity": "restaurant", "name": "Το Ηλιοβασίλεμα"}}, {"type": "node", "id": 13067162134, "lat": 37.3752652, "lon": 21.6906475, "tags": {"check_date": "2025-08-12", "shop": "convenience"}}, {"type": "node", "id": 1341055771, "lat": 37.3938889, "lon": 21.6898648, "tags": {"amenity": "fuel", "brand": "BP", "brand:wikidata": "Q152057", "brand:wikipedia": "en:BP", "date": "20110714", "fuel:diesel": "yes", "fuel:octane_100": "no", "fuel:octane_95": "yes", "fuel:octane_98": "yes", "name": "BP", "operator": "ΣΤΡΙΓΚΑΣ ΧΡΗΣΤΟΣ", "source": "Remap by Bing Zoom Level 19"}}, {"type": "node", "id": 8022224085, "lat": 37.3930116, "lon": 21.6879919, "tags": {"access": "yes", "amenity": "drinking_water", "bottle": "yes", "covered": "no", "fee": "no", "indoor": "no"}}, {"type": "node", "id": 13066791728, "lat": 37.3924444, "lon": 21.6886057, "tags": {"amenity": "fast_food", "check_date": "2025-08-13", "cuisine": "regional", "delivery": "yes", "name": "Estrada", "opening_hours:delivery": "8:00-24:00", "phone": "+30 26250 61367", "phone:mobile": "+30 6981 478082"}}, {"type": "node", "id": 13066791729, "lat": 37.3922694, "lon": 21.6889706, "tags": {"amenity": "restaurant", "check_date": "2025-08-12", "phone": "+30 2625 061622"}}, {"type": "node", "id": 13066972315, "lat": 37.3919617, "lon": 21.6896936, "tags": {"check_date": "2025-08-12", "shop": "bakery"}}, {"type": "node", "id": 2747199236, "lat": 37.4106992, "lon": 21.6659171, "tags": {"amenity": "cafe"}}, {"type": "node", "id": 2747199238, "lat": 37.4092819, "lon": 21.6666101, "tags": {"amenity": "cafe", "fee": "no", "indoor_seating": "no", "name": "Seagull Beach Bar", "outdoor_seating": "yes", "smoking": "yes", "wheelchair": "limited"}}, {"type": "node", "id": 13152232901, "lat": 37.4107313, "lon": 21.6684339, "tags": {"name": "Camping Tholo", "tourism": "camp_site"}}, {"type": "node", "id": 5699919556, "lat": 37.4189496, "lon": 21.6614815, "tags": {"amenity": "parking"}}, {"type": "node", "id": 9764485325, "lat": 37.4208079, "lon": 21.6659394, "tags": {"name": "Kanella", "phone": "+30 693 724 8497", "tourism": "guest_house"}}, {"type": "node", "id": 2434728882, "lat": 37.4125372, "lon": 21.6713602, "tags": {"amenity": "restaurant", "cuisine": "regional", "name": "Nikos", "opening_hours": "24/7"}}, {"type": "node", "id": 2434728883, "lat": 37.4121332, "lon": 21.6693098, "tags": {"amenity": "restaurant", "cuisine": "greek", "indoor_seating": "yes", "internet_access": "wlan", "name": "Taverna 'Oti'", "outdoor_seating": "yes", "phone": "2625061050", "smoking": "outside", "wheelchair": "limited"}}, {"type": "node", "id": 9764485321, "lat": 37.4130652, "lon": 21.6725729, "tags": {"amenity": "cafe", "internet_access": "wlan", "outdoor_seating": "yes"}}, {"type": "node", "id": 1342686775, "lat": 37.4224921, "lon": 21.6688206, "tags": {"amenity": "fuel", "brand": "KMOil", "date": "20110628", "source": "remap Bing Zoom Level 16"}}, {"type": "node", "id": 5699919555, "lat": 37.4267214, "lon": 21.6572586, "tags": {"amenity": "parking"}}, {"type": "node", "id": 3017233891, "lat": 37.4298179, "lon": 21.6655875, "tags": {"amenity": "fuel", "brand": "Cyclon", "compressed_air": "no", "name": "Cyclon"}}, {"type": "node", "id": 7845490133, "lat": 37.4296534, "lon": 21.6651207, "tags": {"amenity": "cafe"}}, {"type": "node", "id": 3733003994, "lat": 37.4338798, "lon": 21.6578008, "tags": {"amenity": "cafe", "name": "Café Ali", "outdoor_seating": "yes"}}, {"type": "node", "id": 3733009425, "lat": 37.4324353, "lon": 21.6538758, "tags": {"amenity": "cafe"}}, {"type": "node", "id": 7845366289, "lat": 37.4346383, "lon": 21.6572972, "tags": {"amenity": "restaurant", "name": "Ο Μπάμπης", "opening_hours": "\"Only open during the summer.\""}}, {"type": "node", "id": 7886623413, "lat": 37.4332603, "lon": 21.6582605, "tags": {"amenity": "restaurant", "cuisine": "regional", "name": "Αυλή", "phone": "+30 2625 061385"}}, {"type": "node", "id": 3017233892, "lat": 37.4375108, "lon": 21.6616682, "tags": {"amenity": "fuel", "brand": "Revoil", "brand:wikidata": "Q62530755", "fuel:diesel": "yes", "fuel:octane_95": "yes", "name": "REVOIL", "operator": "ΤΡΟΧΟΚΙΝΗΣΗ ΚΟΥΤΣΟΥΜΠΟΣ ΜΟΝ. Ι.Κ.Ε"}}, {"type": "node", "id": 9764485326, "lat": 37.4329894, "lon": 21.6981278, "tags": {"leisure": "picnic_table"}}, {"type": "node", "id": 516350096, "lat": 37.346513, "lon": 21.722511, "tags": {"name": "Triptychon", "operator": "Dr. Illichmann", "tourism": "guest_house", "wheelchair": "yes"}}, {"type": "node", "id": 4359216893, "lat": 37.4039756, "lon": 21.7194979, "tags": {"amenity": "drinking_water"}}, {"type": "node", "id": 9883758430, "lat": 37.413176, "lon": 21.7223639, "tags": {"alt_name:de": "Tempel von Prasidaki;Athenatempel von Prasidaki", "alt_name:el": "Ναός στό Πρασιδάκι", "alt_name:en": "Temple of Prasidaki", "archaeological_site": "temple", "historic": "archaeological_site", "name": "Ναός της Αθήνας", "name:de": "Tempel der Athena", "name:el": "Ναός της Αθήνας", "name:en": "Temple of Athena"}}, {"type": "node", "id": 9756501504, "lat": 37.4356938, "lon": 21.7162351, "tags": {"tourism": "viewpoint"}}, {"type": "node", "id": 9764743883, "lat": 37.4356236, "lon": 21.716322, "tags": {"amenity": "shelter", "shelter_type": "picnic_shelter"}}, {"type": "node", "id": 9764743901, "lat": 37.43554, "lon": 21.71231, "tags": {"amenity": "drinking_water"}}, {"type": "node", "id": 9764451945, "lat": 37.4366103, "lon": 21.7230388, "tags": {"amenity": "shelter", "shelter_type": "public_transport"}}, {"type": "node", "id": 9764743898, "lat": 37.4373194, "lon": 21.7207834, "tags": {"historic": "memorial", "memorial": "war_memorial"}}, {"type": "node", "id": 9764743899, "lat": 37.4372055, "lon": 21.7206721, "tags": {"amenity": "drinking_water"}}, {"type": "node", "id": 9764743900, "lat": 37.4371441, "lon": 21.7208266, "tags": {"amenity": "cafe", "internet_access": "wlan", "name": "Πάλσαρ", "outdoor_seating": "yes"}}, {"type": "node", "id": 9767757541, "lat": 37.4370247, "lon": 21.7206759, "tags": {"phone": "+30 2625 061571", "shop": "convenience"}}, {"type": "node", "id": 10614187241, "lat": 37.4345181, "lon": 21.7225712, "tags": {"historic": "archaeological_site"}}, {"type": "node", "id": 2932163364, "lat": 37.4403452, "lon": 21.724696, "tags": {"archaeological_site": "city", "historic": "archaeological_site", "historic:region": "Elis", "name": "Λέπρεο", "name:ca": "Lèpreon", "name:de": "Lepreon", "name:el": "Λέπρεο", "name:en": "Lepreon", "name:grc": "Λέπρεος", "name:ru": "Лепрео", "note": "Draw outline of city", "operator": "Ζ΄ Εφορεία Προϊστορικών και Κλασικών Αρχαιοτήτων", "tourism": "attraction", "wikidata": "Q5860679", "wikipedia": "en:Lepreum"}}, {"type": "node", "id": 9955104269, "lat": 37.4406183, "lon": 21.7252439, "tags": {"information": "board", "tourism": "information"}}, {"type": "node", "id": 9764451944, "lat": 37.4401455, "lon": 21.748048, "tags": {"leisure": "picnic_table"}}, {"type": "node", "id": 9764451946, "lat": 37.4401313, "lon": 21.7479498, "tags": {"amenity": "drinking_water", "ele": "359"}}, {"type": "node", "id": 4235130224, "lat": 37.4418623, "lon": 21.7559062, "tags": {"amenity": "fuel", "brand": "EKO", "brand:wikidata": "Q31283948", "name": "EKO", "operator": "ΖΩΗ ΑΘΑΝΑΣΙΑ"}}, {"type": "node", "id": 9764451941, "lat": 37.4403131, "lon": 21.7534826, "tags": {"amenity": "cafe", "name": "Ο Νικος"}}, {"type": "node", "id": 9764061475, "lat": 37.4416293, "lon": 21.7709294, "tags": {"shop": "convenience"}}, {"type": "node", "id": 9764061477, "lat": 37.4429138, "lon": 21.770388, "tags": {"historic": "memorial", "memorial": "bust", "name": "Αναστασιος Ν. Ταγαρης"}}, {"type": "node", "id": 9764061478, "lat": 37.4428552, "lon": 21.7704741, "tags": {"historic": "memorial", "memorial": "bust", "name": "Χαραλαμπος Μεν. Πιπιλης"}}, {"type": "node", "id": 9764061485, "lat": 37.442876, "lon": 21.7704229, "tags": {"historic": "memorial", "memorial": "war_memorial"}}, {"type": "node", "id": 9764061488, "lat": 37.4422236, "lon": 21.7709558, "tags": {"amenity": "restaurant", "int_name": "Panorama", "internet_access": "wlan", "name": "Πανόραμα", "outdoor_seating": "yes"}}, {"type": "node", "id": 9764061480, "lat": 37.4443563, "lon": 21.7694593, "tags": {"leisure": "picnic_table"}}, {"type": "node", "id": 9764061482, "lat": 37.4443073, "lon": 21.7693953, "tags": {"amenity": "drinking_water", "ele": "475"}}, {"type": "node", "id": 1787194451, "lat": 37.4423, "lon": 21.7733142, "tags": {"shop": "bakery"}}, {"type": "node", "id": 1787194467, "lat": 37.4431178, "lon": 21.7742905, "tags": {"int_name": "Ilakia", "name": "Ιλάκια", "phone": "+30 2625 041366", "tourism": "hotel", "website": "https://www.ilakia.gr/"}}, {"type": "node", "id": 1787194473, "lat": 37.4420743, "lon": 21.7726919, "tags": {"shop": "supermarket"}}, {"type": "node", "id": 9762078833, "lat": 37.4420207, "lon": 21.7741514, "tags": {"amenity": "cafe", "outdoor_seating": "yes"}}, {"type": "node", "id": 9762078839, "lat": 37.4417699, "lon": 21.7742559, "tags": {"amenity": "cafe", "internet_access": "wlan", "name": "Μπενακης", "outdoor_seating": "yes"}}, {"type": "node", "id": 9762078849, "lat": 37.4430645, "lon": 21.7749678, "tags": {"name": "Φυσικογεωγραφικό Γεωλογικό Μουσείο της Νέδας", "name:el": "Φυσικογεωγραφικό Γεωλογικό Μουσείο της Νέδας", "name:en": "Neda Physicogeographical Geological Museum", "tourism": "museum"}}, {"type": "node", "id": 9762078862, "lat": 37.4428644, "lon": 21.7745337, "tags": {"historic": "memorial", "memorial": "bust", "name": "Ιωάννης Αθαν. Πιπιλής"}}, {"type": "node", "id": 9762078868, "lat": 37.4419995, "lon": 21.7742684, "tags": {"name": "Mini Market Γρηγορόπουλου Χρυσούλα", "shop": "convenience"}}, {"type": "node", "id": 9762078882, "lat": 37.4415243, "lon": 21.7743226, "tags": {"amenity": "atm", "brand": "Τράπεζα Πειραιώς", "brand:el": "Τράπεζα Πειραιώς", "brand:en": "Piraeus Bank", "brand:wikidata": "Q3312", "name": "Τράπεζα Πειραιώς", "name:el": "Τράπεζα Πειραιώς", "name:en": "Piraeus Bank", "opening_hours": "24/7", "operator": "Τράπεζα Πειραιώς", "operator:el": "Τράπεζα Πειραιώς", "operator:en": "Piraeus Bank", "operator:wikidata": "Q3312", "short_name": "Πειραιώς", "short_name:el": "Πειραιώς", "short_name:en": "Piraeus"}}, {"type": "node", "id": 9764061473, "lat": 37.4419483, "lon": 21.7742562, "tags": {"amenity": "cafe", "name": "Η Πλατεία"}}, {"type": "node", "id": 9764061476, "lat": 37.4419918, "lon": 21.7725125, "tags": {"amenity": "cafe", "name": "Ada Ms", "outdoor_seating": "yes"}}, {"type": "node", "id": 9764061484, "lat": 37.4418165, "lon": 21.7712542, "tags": {"amenity": "cafe", "internet_access": "wlan", "name": "Centro", "outdoor_seating": "yes"}}, {"type": "node", "id": 9764061487, "lat": 37.4422515, "lon": 21.7731175, "tags": {"amenity": "cafe", "outdoor_seating": "yes"}}, {"type": "node", "id": 9773124320, "lat": 37.4413881, "lon": 21.7745081, "tags": {"name": "Λαογραφικό Μουσείο Νέας Φιγαλείας", "name:el": "Λαογραφικό Μουσείο Νέας Φιγαλείας", "name:en": "Folklore Museum of Nea Figaleia", "tourism": "museum"}}, {"type": "node", "id": 1787194459, "lat": 37.4454417, "lon": 21.7780957, "tags": {"amenity": "drinking_water", "ele": "494"}}, {"type": "node", "id": 5289167730, "lat": 37.4456032, "lon": 21.7781361, "tags": {"ele": "501", "man_made": "water_well"}}, {"type": "node", "id": 9762078883, "lat": 37.4404507, "lon": 21.7881432, "tags": {"amenity": "shelter", "ele": "571", "shelter_type": "public_transport"}}, {"type": "node", "id": 1809788598, "lat": 37.4484411, "lon": 21.7868429, "tags": {"amenity": "drinking_water", "ele": "478"}}, {"type": "node", "id": 1290087482, "lat": 37.4449821, "lon": 21.7918669, "tags": {"historic": "archaeological_site", "name": "Αγιος Νικόλαος"}}, {"type": "node", "id": 5084748527, "lat": 37.455066, "lon": 21.6399796, "tags": {"amenity": "restaurant", "name:en": "Oi Mouries-Nikos"}}, {"type": "node", "id": 5084748423, "lat": 37.4555199, "lon": 21.6417581, "tags": {"amenity": "restaurant", "name": "Αρμόδιος"}}, {"type": "node", "id": 5084748424, "lat": 37.4560801, "lon": 21.6439901, "tags": {"amenity": "cafe", "name": "Το Πέτρινο", "name:el": "Το Πέτρινο", "name:en": "Café Petrino"}}, {"type": "node", "id": 5084748426, "lat": 37.4561422, "lon": 21.6454458, "tags": {"artwork_type": "statue", "tourism": "artwork"}}, {"type": "node", "id": 5084748528, "lat": 37.4552505, "lon": 21.6409185, "tags": {"amenity": "restaurant", "name": "Κάτι Ψένεται", "name:el": "Κάτι Ψένεται", "name:en": "Kati Psenete"}}, {"type": "node", "id": 5084748530, "lat": 37.4562372, "lon": 21.6450951, "tags": {"shop": "supermarket"}}, {"type": "node", "id": 5084748531, "lat": 37.4563956, "lon": 21.6448743, "tags": {"amenity": "cafe"}}, {"type": "node", "id": 5084748532, "lat": 37.4560122, "lon": 21.645027, "tags": {"amenity": "cafe", "name": "Καφενείο Δαμικούκας"}}, {"type": "node", "id": 5084748533, "lat": 37.4560059, "lon": 21.6452352, "tags": {"amenity": "cafe", "name": "Sweet Corner"}}, {"type": "node", "id": 5084756122, "lat": 37.4568776, "lon": 21.6444185, "tags": {"historic": "memorial"}}, {"type": "node", "id": 5084756221, "lat": 37.45617, "lon": 21.6451192, "tags": {"amenity": "cafe"}}, {"type": "node", "id": 7819341091, "lat": 37.4554897, "lon": 21.6453584, "tags": {"amenity": "restaurant", "name": "Το Πηγάδι"}}, {"type": "node", "id": 9753684831, "lat": 37.4559679, "lon": 21.644047, "tags": {"historic": "memorial", "memorial": "bust"}}, {"type": "node", "id": 9764743911, "lat": 37.4566026, "lon": 21.6464822, "tags": {"amenity": "drinking_water"}}, {"type": "node", "id": 9767686759, "lat": 37.4561236, "lon": 21.6453141, "tags": {"amenity": "restaurant", "cuisine": "regional", "name": "Ο Γιατρός της πείνας", "name:el": "Ο Γιατρός της πείνας", "name:en": "The Doctor Of Hunger"}}, {"type": "node", "id": 13154909003, "lat": 37.4556739, "lon": 21.6453176, "tags": {"amenity": "restaurant", "name": "…στο χέρι"}}, {"type": "node", "id": 13631080887, "lat": 37.455178, "lon": 21.6413284, "tags": {"name": "Κοχύλι", "tourism": "hotel"}}, {"type": "node", "id": 1286593946, "lat": 37.4586891, "lon": 21.6428952, "tags": {"name": "Paraliako", "tourism": "hotel"}}, {"type": "node", "id": 7806876749, "lat": 37.4602363, "lon": 21.6426919, "tags": {"amenity": "restaurant", "name": "Η Φωλιά του Δάσους", "name:de": "Waldnest", "name:el": "Η Φωλιά του Δάσους"}}, {"type": "node", "id": 3924020607, "lat": 37.4639682, "lon": 21.6336028, "tags": {"access": "yes", "amenity": "parking", "fee": "no", "parking": "surface", "supervised": "no", "surface": "dirt"}}, {"type": "node", "id": 13202122801, "lat": 37.4715745, "lon": 21.630201, "tags": {"amenity": "parking"}}, {"type": "node", "id": 2395083616, "lat": 37.4805797, "lon": 21.6264367, "tags": {"name": "Holiday Garden", "tourism": "hostel"}}, {"type": "node", "id": 4368948938, "lat": 37.4796929, "lon": 21.6266504, "tags": {"name": "Olympion Village", "tourism": "hostel"}}, {"type": "node", "id": 2280233282, "lat": 37.4873422, "lon": 21.6160691, "tags": {"amenity": "parking", "fee": "no", "parking": "surface", "supervised": "no", "surface": "sand"}}, {"type": "node", "id": 7852184885, "lat": 37.4936218, "lon": 21.6161064, "tags": {"amenity": "restaurant", "cuisine": "greek", "name": "Τα Πευκα", "name:el": "Τα Πευκα", "name:en": "Ta Pevka"}}, {"type": "node", "id": 9835666666, "lat": 37.4935328, "lon": 21.6180015, "tags": {"amenity": "restaurant", "name": "Στροφυλιά"}}, {"type": "node", "id": 5077486641, "lat": 37.4775433, "lon": 21.6273293, "tags": {"amenity": "restaurant", "cuisine": "barbecue;fish;regional", "int_name": "Filoxenia", "name": "Φιλοξενία", "name:el": "Φιλοξενία"}}, {"type": "node", "id": 3017233899, "lat": 37.4881872, "lon": 21.6276354, "tags": {"amenity": "fuel", "brand": "Shell", "brand:wikidata": "Q110716465", "brand:wikipedia": "en:Royal Dutch Shell", "name": "SHELL", "operator": "ΔΗΜΗΤΡΙΟΣ ΚΩΝ/ΝΟΥ ΝΙΚΟΛΑΚΟΠΟΥΛΟΣ Μ.ΕΠΕ"}}, {"type": "node", "id": 4359272094, "lat": 37.4826631, "lon": 21.6465045, "tags": {"historic": "memorial", "material": "stone", "memorial": "war_memorial"}}, {"type": "node", "id": 4366242591, "lat": 37.481633, "lon": 21.6439462, "tags": {"amenity": "restaurant", "int_name": "Estiatorio Maniatis", "name": "Εστιατόριο Μανιάτης", "phone": "6944851788"}}, {"type": "node", "id": 4366690993, "lat": 37.4803437, "lon": 21.641671, "tags": {"amenity": "restaurant", "int_name": "To Petrino", "name": "Το Πέτρινο"}}, {"type": "node", "id": 3017233893, "lat": 37.4810259, "lon": 21.6500278, "tags": {"amenity": "fuel", "brand": "Avin", "brand:wikidata": "Q22979634", "name": "AVIN", "operator": "ΣΙΑΓΚΑΣ ΧΑΡΑΛΑΜΠΟΣ"}}, {"type": "node", "id": 4358639589, "lat": 37.4820118, "lon": 21.6495787, "tags": {"name": "ΑΒ", "shop": "supermarket"}}, {"type": "node", "id": 4359216894, "lat": 37.4828768, "lon": 21.6483073, "tags": {"name": "ΚΡΗΤΙΚΟΣ", "opening_hours": "Mo-Fr 08:00-21:00; Sa 08:00-20:00", "shop": "supermarket"}}, {"type": "node", "id": 4359251492, "lat": 37.4828549, "lon": 21.6484083, "tags": {"amenity": "cafe"}}, {"type": "node", "id": 4359271990, "lat": 37.4833228, "lon": 21.6472214, "tags": {"amenity": "restaurant", "name": "Koukios Grill"}}, {"type": "node", "id": 4359272092, "lat": 37.4831329, "lon": 21.6486886, "tags": {"amenity": "cafe"}}, {"type": "node", "id": 4359272093, "lat": 37.4831857, "lon": 21.6475572, "tags": {"amenity": "pharmacy", "healthcare": "pharmacy"}}, {"type": "node", "id": 4359272095, "lat": 37.4827545, "lon": 21.6466627, "tags": {"amenity": "cafe", "name:en": "Sugar Touwn"}}, {"type": "node", "id": 4359272096, "lat": 37.4828156, "lon": 21.6475198, "tags": {"amenity": "cafe", "cuisine": "ice_cream"}}, {"type": "node", "id": 4359282589, "lat": 37.4828137, "lon": 21.6474042, "tags": {"amenity": "cafe", "name": "Corretto"}}, {"type": "node", "id": 4359282789, "lat": 37.4829488, "lon": 21.6476657, "tags": {"amenity": "restaurant", "cuisine": "italian"}}, {"type": "node", "id": 4359282889, "lat": 37.4830741, "lon": 21.6475954, "tags": {"amenity": "cafe", "name": "Square Café"}}, {"type": "node", "id": 4366162302, "lat": 37.4829224, "lon": 21.649216, "tags": {"amenity": "fast_food"}}, {"type": "node", "id": 4366197000, "lat": 37.4823949, "lon": 21.6496708, "tags": {"amenity": "pharmacy", "healthcare": "pharmacy"}}, {"type": "node", "id": 4366242592, "lat": 37.4812775, "lon": 21.6507314, "tags": {"name": "Πουμελιώτης", "shop": "supermarket", "wheelchair": "designated"}}, {"type": "node", "id": 4366242593, "lat": 37.4833079, "lon": 21.6484349, "tags": {"amenity": "pharmacy", "healthcare": "pharmacy"}}, {"type": "node", "id": 4366244691, "lat": 37.4825123, "lon": 21.6498073, "tags": {"addr:city": "Ζαχάρω", "addr:housenumber": "10", "addr:postcode": "27054", "addr:street": "Αρήνης", "email": "info@gourgoulisbakery.gr", "name": "Κουλουροποιΐα Γουργούλης", "name:de": "D. Gouroulis", "name:el": "Κουλουροποιΐα Γουργούλης", "phone": "+30 2625032000", "shop": "bakery", "website": "https://gourgoulisbakery.gr"}}, {"type": "node", "id": 4366254990, "lat": 37.4814798, "lon": 21.6497636, "tags": {"amenity": "pharmacy", "healthcare": "pharmacy"}}, {"type": "node", "id": 4366255095, "lat": 37.4825376, "lon": 21.6489377, "tags": {"name:en": "Sugar & Flour", "shop": "bakery"}}, {"type": "node", "id": 4366308691, "lat": 37.4812722, "lon": 21.6497866, "tags": {"name": "Palazzo", "shop": "convenience"}}, {"type": "node", "id": 4366313789, "lat": 37.4815832, "lon": 21.6496968, "tags": {"amenity": "restaurant"}}, {"type": "node", "id": 4366313790, "lat": 37.4810038, "lon": 21.650868, "tags": {"shop": "bakery"}}, {"type": "node", "id": 4366758390, "lat": 37.4824642, "lon": 21.6480344, "tags": {"amenity": "cafe", "name": "Aleion"}}, {"type": "node", "id": 6393922585, "lat": 37.4828979, "lon": 21.6467897, "tags": {"amenity": "restaurant", "name": "ΜΕΖΕΔΟΠΕΝΙΕΣ", "opening_hours": "Mo-Fr 18:00-00:30; Sa-Su 12:00-00:30"}}, {"type": "node", "id": 7803788950, "lat": 37.4809011, "lon": 21.6500503, "tags": {"name": "Βλασσόπουλος", "shop": "bakery", "shop:pastry": "yes"}}, {"type": "node", "id": 9832486307, "lat": 37.4818702, "lon": 21.6496917, "tags": {"amenity": "cafe"}}, {"type": "node", "id": 13174230751, "lat": 37.4819462, "lon": 21.6494179, "tags": {"access": "yes", "addr:city": "Ζαχάρω", "addr:country": "GR", "addr:postcode": "27054", "amenity": "charging_station", "authentication:app": "yes", "authentication:membership_card": "yes", "brand": "Blink", "capacity": "1", "contact:email": "support@blinkcharging.gr", "contact:facebook": "https://www.facebook.com/blinkcharginghellas", "contact:phone": "+30 2107232862", "contact:website": "https://blinkcharging.gr/", "covered": "no", "fee": "yes", "int_name": "Blink - AB Zacharo", "lit": "yes", "motorcar": "yes", "name": "Blink - ΑΒ Βασιλόπουλος Ζαχάρω", "name:el": "Blink - ΑΒ Βασιλόπουλος Ζαχάρω", "name:en": "Blink - AB Zacharo", "note": "Στο μητρώο είναι σε λάθος συντεταγμένες", "opening_hours": "24/7", "operator": "ΑΒ Βασιλόπουλος", "parking:fee": "no", "payment:app": "yes", "ref:EU:EVSE": "GR*BLK*EEW1S22W0013*0", "ref:GR:IDRO": "GR-BLK-S465ba1dd-d734-8158-93cc-330000695179", "socket:type2_cable": "1", "socket:type2_cable:output": "22"}}, {"type": "node", "id": 1341043387, "lat": 37.485071, "lon": 21.646199, "tags": {"addr:city": "Ζαχάρω", "amenity": "fuel", "brand": "KMOIL", "date": "20110627", "name": "KMOIL", "operator": "ΙΔΙΟΛΕΙΤΟΥΡΓΟΥΜΕΝΑ ΠΡΑΤΗΡΙΑ ΚΜOIL Ι.Κ.Ε.", "source": "remap Bing Zoom Level 16"}}, {"type": "node", "id": 3017233896, "lat": 37.4845422, "lon": 21.6464783, "tags": {"amenity": "fuel", "brand": "ΕΛΙΝ"}}, {"type": "node", "id": 11955938925, "lat": 37.4848475, "lon": 21.6460684, "tags": {"name": "Gourgoulis Family Pastry & Bakery Lab", "shop": "bakery"}}, {"type": "node", "id": 3017233895, "lat": 37.4840283, "lon": 21.6470157, "tags": {"addr:city": "Ζαχάρω", "amenity": "fuel", "brand": "BP", "brand:wikidata": "Q152057", "brand:wikipedia": "en:BP", "name": "BP", "operator": "ΜΠΑΔΑΣ ΚΩΝΣΤΑΝΤΙΝΟΣ & ΣΙΑ ΕΕ"}}, {"type": "node", "id": 4359227892, "lat": 37.483381, "lon": 21.6478723, "tags": {"amenity": "cafe", "outdoor_seating": "yes"}}, {"type": "node", "id": 4359251590, "lat": 37.4833734, "lon": 21.6472927, "tags": {"amenity": "fast_food", "name": "Aladdin"}}, {"type": "node", "id": 4360534514, "lat": 37.4834398, "lon": 21.6478208, "tags": {"historic": "memorial", "material": "bronze", "memorial": "bust", "name": "Αντιδήμαρχος Αντώνης Κρέσπης", "name:de": "Stellvertretender Bürgermeister Antonis Krespis", "name:el": "Αντιδήμαρχος Αντώνης Κρέσπης", "name:en": "Deputy Mayor Antonis Krespis"}}, {"type": "node", "id": 4363452396, "lat": 37.4835344, "lon": 21.6478508, "tags": {"amenity": "cafe", "internet_access": "wlan", "name": "Esquina"}}, {"type": "node", "id": 4366242596, "lat": 37.4843588, "lon": 21.6466674, "tags": {"amenity": "cafe"}}, {"type": "node", "id": 4366242597, "lat": 37.4838109, "lon": 21.6473664, "tags": {"amenity": "cafe", "internet_access": "wlan", "name": "edo...katse"}}, {"type": "node", "id": 4366313990, "lat": 37.4833305, "lon": 21.6483254, "tags": {"amenity": "restaurant", "internet_access": "wlan", "name": "Kokoriko Grill House", "phone": "2625034880"}}, {"type": "node", "id": 4366416491, "lat": 37.4838781, "lon": 21.6480369, "tags": {"amenity": "pharmacy", "healthcare": "pharmacy"}}, {"type": "node", "id": 4366657391, "lat": 37.4844382, "lon": 21.6482977, "tags": {"shop": "convenience"}}, {"type": "node", "id": 4366704193, "lat": 37.4848071, "lon": 21.6480389, "tags": {"shop": "bakery"}}, {"type": "node", "id": 4366714994, "lat": 37.4865082, "lon": 21.6495103, "tags": {"amenity": "cafe"}}, {"type": "node", "id": 4366763391, "lat": 37.484778, "lon": 21.6486998, "tags": {"shop": "bakery"}}, {"type": "node", "id": 4366780689, "lat": 37.484287, "lon": 21.6481083, "tags": {"amenity": "pharmacy", "healthcare": "pharmacy"}}, {"type": "node", "id": 4370608990, "lat": 37.4845788, "lon": 21.6492969, "tags": {"amenity": "cafe"}}, {"type": "node", "id": 4370608991, "lat": 37.4845028, "lon": 21.6492032, "tags": {"amenity": "restaurant", "name": "RG’s Grill"}}, {"type": "node", "id": 5077486639, "lat": 37.4836035, "lon": 21.6476122, "tags": {"amenity": "cafe"}}, {"type": "node", "id": 6392906685, "lat": 37.4857108, "lon": 21.6488444, "tags": {"shop": "convenience"}}, {"type": "node", "id": 6392916985, "lat": 37.486527, "lon": 21.6494141, "tags": {"name": "Διεθνές", "phone": "2625034000", "tourism": "hotel"}}, {"type": "node", "id": 6392924185, "lat": 37.4879461, "lon": 21.6498721, "tags": {"historic": "memorial", "name": "Αγησίλαος Διον"}}, {"type": "node", "id": 7856242186, "lat": 37.484324, "lon": 21.6481387, "tags": {"amenity": "atm", "brand": "Εθνική Τράπεζα", "brand:el": "Εθνική Τράπεζα", "brand:en": "National Bank of Greece", "brand:wikidata": "Q1816028", "name": "Εθνική Τράπεζα", "name:el": "Εθνική Τράπεζα", "name:en": "National Bank of Greece", "opening_hours": "24/7", "operator": "Εθνική Τράπεζα", "operator:el": "Εθνική Τράπεζα", "operator:en": "National Bank of Greece", "operator:wikidata": "Q1816028"}}, {"type": "node", "id": 9763849279, "lat": 37.4841129, "lon": 21.6485875, "tags": {"amenity": "cafe"}}, {"type": "node", "id": 9764785937, "lat": 37.4834354, "lon": 21.6480444, "tags": {"amenity": "fast_food", "name": "Σουβλατζιδικο", "outdoor_seating": "yes", "phone": "+30 2625 100022", "takeaway": "yes"}}, {"type": "node", "id": 9764785939, "lat": 37.4837893, "lon": 21.6477198, "tags": {"amenity": "fast_food", "cuisine": "pizza;burger;sandwich", "internet_access": "wlan", "name": "Face & Place", "outdoor_seating": "yes"}}, {"type": "node", "id": 10159051157, "lat": 37.4842224, "lon": 21.6472511, "tags": {"amenity": "drinking_water"}}, {"type": "node", "id": 4363582292, "lat": 37.5006115, "lon": 21.6328884, "tags": {"amenity": "restaurant", "cuisine": "greek;barbecue;fish", "name:de": "O Stratos"}}, {"type": "node", "id": 9766385780, "lat": 37.4992825, "lon": 21.636419, "tags": {"amenity": "drinking_water"}}, {"type": "node", "id": 9903486770, "lat": 37.4612355, "lon": 21.6612885, "tags": {"historic": "archaeological_site", "historic:civilization": "mycenaean", "name": "Ο Μυκηναϊκός Κακόβατος", "name:de": "Mykenisches Kakovatos", "name:el": "Ο Μυκηναϊκός Κακόβατος", "name:en": "Mycenean Kakovatos"}}, {"type": "node", "id": 11350457969, "lat": 37.4690659, "lon": 21.6544462, "tags": {"addr:street": "Πύργος - Κυπαρισσία", "name:en": "Your spot west Peloponese", "phone": "+30 697 470 5740", "tourism": "camp_site"}}, {"type": "node", "id": 7979878783, "lat": 37.4752393, "lon": 21.6787594, "tags": {"tourism": "picnic_site"}}, {"type": "node", "id": 9838461013, "lat": 37.454931, "lon": 21.6846167, "tags": {"historic": "memorial", "material": "stone", "memorial": "bust", "name": "ΙΩΑΝΝΗΣ ΣΙΟΡΔΙΝΗΣ"}}, {"type": "node", "id": 9838494918, "lat": 37.4550829, "lon": 21.6844763, "tags": {"amenity": "restaurant", "name": "Ο ΑΓΓΕΛΟΣ"}}, {"type": "node", "id": 8972054830, "lat": 37.4623422, "lon": 21.7049245, "tags": {"alt_name": "Κάστρο Γλάτσας", "castle_type": "fortification", "historic": "castle", "historic:civilization": "ancient_greek", "name": "Κάστρο Καλίδονας", "name:el": "Κάστρο Καλίδονας", "name:en": "Castle of Kalidona", "source": "https://www.kastra.eu/castlegr.php?kastro=kalidon", "wikidata": "Q108612486"}}, {"type": "node", "id": 4359216889, "lat": 37.4803504, "lon": 21.6778643, "tags": {"amenity": "restaurant", "cuisine": "greek;barbecue;grill;fish;coffee_shop;mediterranean", "name:en": "AntiPeina", "phone": "00302625033035"}}, {"type": "node", "id": 5075237221, "lat": 37.4799439, "lon": 21.6775294, "tags": {"historic": "memorial"}}, {"type": "node", "id": 9766385769, "lat": 37.5134874, "lon": 21.6168144, "tags": {"name": "Kalogeropoulos", "tourism": "guest_house"}}, {"type": "node", "id": 9766385772, "lat": 37.5131998, "lon": 21.6164309, "tags": {"name": "Jenny", "tourism": "guest_house"}}, {"type": "node", "id": 9767778321, "lat": 37.5182966, "lon": 21.607043, "tags": {"amenity": "shelter"}}, {"type": "node", "id": 10652722669, "lat": 37.5189529, "lon": 21.6019889, "tags": {"historic": "archaeological_site", "name": "Σπήλαιο και Ιερό Ανιγρίδων Νυμφών"}}, {"type": "node", "id": 8961074765, "lat": 37.5184642, "lon": 21.6089735, "tags": {"alt_name": "Καστέλι του Μοριά", "castle_type": "fortress", "historic": "castle", "name": "Καστροσπηλιά Σασσαλότρυπας", "name:el": "Καστροσπηλιά Σασσαλότρυπας", "name:en": "Cave-fort of Sassalotrypa", "source": "https://www.kastra.eu/castlegr.php?kastro=sasalo", "wikidata": "Q108612654"}}, {"type": "node", "id": 9766385781, "lat": 37.5164964, "lon": 21.6116983, "tags": {"name": "Archaia Sami", "tourism": "guest_house"}}, {"type": "node", "id": 9766385767, "lat": 37.5053769, "lon": 21.6286574, "tags": {"name": "Kaiafas Lake", "stars": "3", "tourism": "hotel", "wikidata": "Q111858071"}}, {"type": "node", "id": 13174230750, "lat": 37.505381, "lon": 21.6288963, "tags": {"access": "yes", "addr:city": "Ζαχάρω", "addr:country": "GR", "addr:place": "Λίμνη Καϊάφα", "addr:postcode": "27054", "amenity": "charging_station", "authentication:app": "yes", "authentication:membership_card": "yes", "brand": "Chargespot", "capacity": "1", "contact:phone": "18311", "contact:website": "https://www.chargespot.gr/", "covered": "no", "fee": "yes", "lit": "yes", "manufacturer": "Chago", "motorcar": "yes", "name": "Chargespot - Kaiafas Lake Hotel", "opening_hours": "24/7", "operator": "Kaiafas Lake Hotel", "parking:fee": "no", "payment:app": "yes", "ref:EU:EVSE": "GR*WAV*E78355", "ref:GR:IDRO": "GR-WAV-S17490", "socket:type2": "1", "socket:type2:output": "22"}}, {"type": "node", "id": 8961074766, "lat": 37.5278688, "lon": 21.6669319, "tags": {"alt_name": "Κάστρο Ξεροχωρίου ιά", "castle_type": "castle", "historic": "castle", "historic:civilization": "byzantine", "name": "Κάστρο Ρίζας", "name:el": "Κάστρο Ρίζας", "name:en": "Castle of Riza", "ruins": "castle", "source": "https://www.kastra.eu/castlegr.php?kastro=xerochori", "wikidata": "Q108612750"}}, {"type": "node", "id": 10614194487, "lat": 37.4628929, "lon": 21.7063343, "tags": {"historic": "archaeological_site", "name": "Αρχαία Χάας"}}, {"type": "node", "id": 8972055044, "lat": 37.4872008, "lon": 21.7819599, "tags": {"alt_name": "Κάστρο Άλβαινας", "castle_type": "castle", "historic": "castle", "historic:civilization": "byzantine", "name": "Κάστρο Αράκλοβου", "name:el": "Κάστρο Αράκλοβου", "name:en": "Araklovo Castle", "ruins": "yes", "source": "https://www.kastra.eu/castlegr.php?kastro=araklovo", "wikidata": "Q2086109", "wikipedia": "en:Araklovon Castle"}}, {"type": "node", "id": 10614163647, "lat": 37.4932176, "lon": 21.767038, "tags": {"historic": "archaeological_site", "name": "Πιθανό Ιερό του Άδη όρος Μίνθη"}}, {"type": "node", "id": 7790507881, "lat": 37.5308197, "lon": 21.7317149, "tags": {"memorial": "statue", "name": "Μνημείο Ανοικοδόμησης", "tourism": "attraction"}}, {"type": "node", "id": 10614065190, "lat": 37.5405251, "lon": 21.7243702, "tags": {"historic": "archaeological_site", "name": "Ιερό της Λιμνιάτιδος Αρτέμιδος", "source:url": "https://pleiades.stoa.org/places/570119"}}, {"type": "node", "id": 12095583622, "lat": 37.543863, "lon": 21.710738, "tags": {"historic": "archaeological_site", "name": "Ιερό της Λιμνιάτιδος Αρτέμιδος", "name:de": "Tempel der Artemis Limnatis", "name:el": "Ιερό της Λιμνιάτιδος Αρτέμιδος"}},