{"id": "37--82", "latMin": 37, "lonMin": -82, "latMax": 38, "lonMax": -81, "generated": "2026-04-16T18:39:07.476Z", "count": 5, "pois": [{"type": "node", "id": 12944743513, "lat": 37.84768, "lon": -81.19627, "tags": {"amenity": "charging_station", "fee": "yes", "access": "customers", "opening_hours": "24/7", "brand": "Tesla Supercharger", "network": "Supercharger", "operator": "Tesla, Inc.", "name": "Mount Hope Supercharger", "addr:street": "Robert C. Byrd Drive", "addr:housenumber": "5481", "addr:postcode": "25880", "addr:city": "Mount Hope", "addr:country": "US", "capacity": "8", "_source": "worldwide"}}, {"type": "node", "id": 12944744012, "lat": 37.364, "lon": -81.05239, "tags": {"amenity": "charging_station", "fee": "yes", "access": "yes", "opening_hours": "24/7", "brand": "Tesla Supercharger", "network": "Supercharger", "operator": "Tesla, Inc.", "name": "Princeton Supercharger", "addr:street": "Oakvale Road", "addr:housenumber": "1000", "addr:postcode": "24740", "addr:city": "Princeton", "addr:country": "US", "capacity": "8", "_source": "worldwide"}}, {"type": "node", "id": 13353315811, "lat": 37.474509, "lon": -81.067191, "tags": {"amenity": "charging_station", "name": "DC America", "_source": "worldwide"}}, {"type": "node", "id": 13353514404, "lat": 37.80171, "lon": -81.213194, "tags": {"amenity": "charging_station", "name": "DC America", "_source": "worldwide"}}, {"type": "node", "id": 13667892404, "lat": 37.615688, "lon": -81.115335, "tags": {"amenity": "charging_station", "fee": "yes", "access": "yes", "opening_hours": "24/7", "brand": "Tesla Supercharger", "network": "Supercharger", "operator": "Tesla", "name": "Ghent Supercharger", "_source": "worldwide"}}]}