{"id": "51-21", "latMin": 51, "lonMin": 21, "latMax": 52, "lonMax": 22, "generated": "2026-04-16T18:39:08.541Z", "count": 13, "pois": [{"type": "node", "id": 1266217004, "lat": 51.411138, "lon": 21.184718, "tags": {"amenity": "charging_station", "operator": "MPK Radom", "name": "Ladestation MPK Radom", "addr:country": "PL", "capacity": "1", "_source": "worldwide"}}, {"type": "node", "id": 1414961566, "lat": 51.454493, "lon": 21.143414, "tags": {"amenity": "charging_station", "brand": "Elocity", "operator": "Elocity", "name": "Elocity - Elocity", "addr:country": "PL", "socket:type2_combo": "4", "socket:type2_combo:output": "120.0 kW", "charging_station:output": "120.0 kW", "capacity": "6", "_source": "worldwide"}}, {"type": "node", "id": 1426194694, "lat": 51.413258, "lon": 21.161693, "tags": {"amenity": "charging_station", "operator": "Inbalance grid", "name": "Ladestation Inbalance grid", "addr:country": "PL", "socket:type2": "2", "socket:type2:output": "22 kW", "charging_station:output": "22 kW", "capacity": "4", "_source": "worldwide"}}, {"type": "node", "id": 1427669531, "lat": 51.065263, "lon": 21.075092, "tags": {"amenity": "charging_station", "access": "yes", "fee": "yes", "brand": "ChargeIn", "operator": "Perfopol", "name": "Perfopol - ChargeIn", "addr:country": "PL", "capacity": "6", "_source": "worldwide"}}, {"type": "node", "id": 1454516444, "lat": 51.036161, "lon": 21.088461, "tags": {"amenity": "charging_station", "access": "yes", "fee": "yes", "addr:country": "PL", "capacity": "2", "_source": "worldwide"}}, {"type": "node", "id": 1454516445, "lat": 51.035127, "lon": 21.088123, "tags": {"amenity": "charging_station", "access": "yes", "fee": "yes", "operator": "GreenWay", "name": "Ladestation GreenWay", "addr:country": "PL", "capacity": "3", "_source": "worldwide"}}, {"type": "node", "id": 1454516457, "lat": 51.065879, "lon": 21.071459, "tags": {"amenity": "charging_station", "access": "yes", "fee": "yes", "operator": "NOXO.", "name": "Ladestation NOXO.", "addr:country": "PL", "capacity": "2", "_source": "worldwide"}}, {"type": "node", "id": 1454516458, "lat": 51.060913, "lon": 21.067417, "tags": {"amenity": "charging_station", "access": "yes", "fee": "yes", "operator": "Lidl", "name": "Ladestation Lidl", "addr:country": "PL", "capacity": "2", "_source": "worldwide"}}, {"type": "node", "id": 1454516462, "lat": 51.05228, "lon": 21.087447, "tags": {"amenity": "charging_station", "access": "yes", "fee": "yes", "operator": "Lidl", "name": "Ladestation Lidl", "addr:country": "PL", "capacity": "2", "_source": "worldwide"}}, {"type": "node", "id": 1454516465, "lat": 51.024197, "lon": 21.074544, "tags": {"amenity": "charging_station", "fee": "yes", "opening_hours": "Mo-Fr 09:00-17:00", "operator": "Re-Energia", "name": "Ladestation Re-Energia", "addr:country": "PL", "capacity": "2", "_source": "worldwide"}}, {"type": "node", "id": 1454937427, "lat": 51.426381, "lon": 21.948404, "tags": {"amenity": "charging_station", "access": "yes", "fee": "yes", "opening_hours": "24/7", "operator": "GreenWay", "name": "Hotel Oskar Puławy", "addr:country": "PL", "socket:type2_combo": "2", "socket:type2_combo:output": "50 kW", "charging_station:output": "50 kW", "capacity": "2", "_source": "worldwide"}}, {"type": "node", "id": 1458301590, "lat": 51.429885, "lon": 21.149736, "tags": {"amenity": "charging_station", "fee": "yes", "brand": "Powerdot", "opening_hours": "24/7", "operator": "Powerdot", "name": "Powerdot", "addr:country": "PL", "socket:type2": "1", "socket:type2:output": "11.0 kW", "socket:type2_combo": "2", "socket:type2_combo:output": "120.0 kW", "charging_station:output": "120.0 kW", "capacity": "2", "_source": "worldwide"}}, {"type": "node", "id": 1486712087, "lat": 51.375827, "lon": 21.168249, "tags": {"amenity": "charging_station", "brand": "GreenWay", "name": "Ladestation GreenWay", "addr:country": "PL", "capacity": "2", "_source": "worldwide"}}]}