{"id": "43--92", "latMin": 43, "lonMin": -92, "latMax": 44, "lonMax": -91, "generated": "2026-04-16T18:39:07.900Z", "count": 6, "pois": [{"type": "node", "id": 4434400595, "lat": 43.87901, "lon": -91.188471, "tags": {"amenity": "charging_station", "operator": "Tesla supercharger", "name": "Tesla supercharger", "_source": "worldwide"}}, {"type": "node", "id": 4551110444, "lat": 43.808467, "lon": -91.252665, "tags": {"amenity": "charging_station", "name": "EV Charging Station", "_source": "worldwide"}}, {"type": "node", "id": 4683645084, "lat": 43.876102, "lon": -91.263994, "tags": {"amenity": "charging_station", "brand": "ChargePoint", "operator": "ChargePoint", "name": "ChargePoint", "_source": "worldwide"}}, {"type": "node", "id": 5963505815, "lat": 43.808135, "lon": -91.253133, "tags": {"amenity": "charging_station", "name": "EV Charging Station", "_source": "worldwide"}}, {"type": "node", "id": 8549771356, "lat": 43.312998, "lon": -91.802419, "tags": {"amenity": "charging_station", "access": "permit", "brand": "ChargePoint", "operator": "ChargePoint", "name": "ChargePoint", "_source": "worldwide"}}, {"type": "node", "id": 12944743786, "lat": 43.0457, "lon": -91.1414, "tags": {"amenity": "charging_station", "fee": "yes", "access": "yes", "opening_hours": "24/7", "brand": "Tesla Supercharger", "network": "Supercharger", "operator": "Tesla, Inc.", "name": "Prairie Du Chien Supercharger", "addr:street": "South Marquette Road", "addr:housenumber": "525", "addr:postcode": "53821", "addr:city": "Prairie du Chien", "addr:country": "US", "capacity": "8", "_source": "worldwide"}}]}