{"id": "43-18", "latMin": 43, "lonMin": 18, "latMax": 44, "lonMax": 19, "generated": "2026-04-16T18:39:07.985Z", "count": 25, "pois": [{"type": "node", "id": 6167066542, "lat": 43.858399, "lon": 18.401795, "tags": {"amenity": "charging_station", "access": "customers", "operator": "ProCredit Bank", "name": "Ladestation ProCredit Bank", "addr:country": "IT", "socket:type2": "1", "socket:type2:output": "3.7 kW", "charging_station:output": "3.7 kW", "capacity": "1", "_source": "worldwide"}}, {"type": "node", "id": 6168211756, "lat": 43.858029, "lon": 18.400713, "tags": {"amenity": "charging_station", "access": "private", "addr:country": "IT", "capacity": "2", "_source": "worldwide"}}, {"type": "node", "id": 9911656136, "lat": 43.857529, "lon": 18.391792, "tags": {"amenity": "charging_station", "name": "AC Quattro", "addr:country": "IT", "_source": "worldwide"}}, {"type": "node", "id": 8880512881, "lat": 43.846523, "lon": 18.345902, "tags": {"amenity": "charging_station", "name": "Porsche VW Sarajevo", "addr:country": "IT", "_source": "worldwide"}}, {"type": "node", "id": 9790106364, "lat": 43.847224, "lon": 18.337266, "tags": {"amenity": "charging_station", "name": "Charging Station", "addr:country": "IT", "_source": "worldwide"}}, {"type": "node", "id": 8880535692, "lat": 43.900149, "lon": 18.343804, "tags": {"amenity": "charging_station", "name": "KSC Vogošća", "addr:country": "IT", "_source": "worldwide"}}, {"type": "node", "id": 8880536872, "lat": 43.858257, "lon": 18.43395, "tags": {"amenity": "charging_station", "name": "Javna podzemna garaža", "addr:country": "IT", "_source": "worldwide"}}, {"type": "node", "id": 8880537406, "lat": 43.822052, "lon": 18.363405, "tags": {"amenity": "charging_station", "name": "Javni parking", "addr:country": "IT", "_source": "worldwide"}}, {"type": "node", "id": 8880563263, "lat": 43.904074, "lon": 18.365552, "tags": {"amenity": "charging_station", "name": "Hager doo", "addr:country": "IT", "_source": "worldwide"}}, {"type": "node", "id": 8880564385, "lat": 43.855434, "lon": 18.408251, "tags": {"amenity": "charging_station", "name": "Sarajevo City Centre", "addr:country": "IT", "_source": "worldwide"}}, {"type": "node", "id": 8880564768, "lat": 43.849571, "lon": 18.371689, "tags": {"amenity": "charging_station", "name": "Energopetrol", "addr:country": "IT", "capacity": "2", "_source": "worldwide"}}, {"type": "node", "id": 8880565741, "lat": 43.844807, "lon": 18.334353, "tags": {"amenity": "charging_station", "name": "Renault Sarajevo Guma M", "addr:country": "IT", "_source": "worldwide"}}, {"type": "node", "id": 8880566782, "lat": 43.852013, "lon": 18.386541, "tags": {"amenity": "charging_station", "name": "EP BiH", "addr:country": "IT", "_source": "worldwide"}}, {"type": "node", "id": 9911643314, "lat": 43.857331, "lon": 18.384402, "tags": {"amenity": "charging_station", "name": "Mercator", "addr:country": "IT", "_source": "worldwide"}}, {"type": "node", "id": 8894423722, "lat": 43.669495, "lon": 18.972996, "tags": {"amenity": "charging_station", "name": "EP BiH", "addr:country": "IT", "_source": "worldwide"}}, {"type": "node", "id": 8898820416, "lat": 43.836052, "lon": 18.301783, "tags": {"amenity": "charging_station", "name": "Autoklinika", "addr:country": "IT", "_source": "worldwide"}}, {"type": "node", "id": 8898826882, "lat": 43.832375, "lon": 18.288891, "tags": {"amenity": "charging_station", "name": "BiHAMK", "addr:country": "IT", "_source": "worldwide"}}, {"type": "node", "id": 8898830755, "lat": 43.83184, "lon": 18.295116, "tags": {"amenity": "charging_station", "name": "SLT Lužansko polje", "addr:country": "IT", "_source": "worldwide"}}, {"type": "node", "id": 8898830972, "lat": 43.848167, "lon": 18.349396, "tags": {"amenity": "charging_station", "name": "Ibis Style", "addr:country": "IT", "_source": "worldwide"}}, {"type": "node", "id": 9911647156, "lat": 43.850269, "lon": 18.353779, "tags": {"amenity": "charging_station", "name": "Bingo City Center", "addr:country": "IT", "_source": "worldwide"}}, {"type": "node", "id": 10315685255, "lat": 43.850649, "lon": 18.353167, "tags": {"amenity": "charging_station", "operator": "Porsche Sarajevo", "name": "Bingo Garage", "addr:country": "IT", "_source": "worldwide"}}, {"type": "node", "id": 8898833593, "lat": 43.826428, "lon": 18.337133, "tags": {"amenity": "charging_station", "name": "Sarajevo International Airport", "addr:country": "IT", "capacity": "2", "_source": "worldwide"}}, {"type": "node", "id": 9911623895, "lat": 43.837738, "lon": 18.453404, "tags": {"amenity": "charging_station", "name": "Hotel Pino", "addr:country": "IT", "_source": "worldwide"}}, {"type": "node", "id": 9911655664, "lat": 43.85152, "lon": 18.383272, "tags": {"amenity": "charging_station", "name": "Općina Novo Sarajevo", "addr:country": "IT", "capacity": "1", "_source": "worldwide"}}, {"type": "node", "id": 1039693542, "lat": 43.841964, "lon": 18.125341, "tags": {"amenity": "charging_station", "name": "INA-EPBiH", "addr:country": "IT", "_source": "worldwide"}}]}