{"id": "52--1", "latMin": 52, "lonMin": -1, "latMax": 53, "lonMax": 0, "generated": "2026-04-16T18:39:08.550Z", "count": 354, "pois": [{"type": "node", "id": 912152845, "lat": 52.480639, "lon": -1.898661, "tags": {"amenity": "charging_station", "operator": "Birmingham City Council", "name": "Temple Row Electric Charge Point", "addr:country": "GB", "socket:type2": "2", "socket:type2:output": "22 kW", "charging_station:output": "22 kW", "capacity": "2", "_source": "worldwide"}}, {"type": "node", "id": 912152849, "lat": 52.477913, "lon": -1.891452, "tags": {"amenity": "charging_station", "operator": "E.ON", "name": "Moor Street Electric Charge Point", "addr:country": "GB", "_source": "worldwide"}}, {"type": "node", "id": 2667217305, "lat": 52.47627, "lon": -1.896696, "tags": {"amenity": "charging_station", "access": "yes", "operator": "Birmingham City Council", "name": "Dudley Street Electric Charge Point", "addr:country": "GB", "_source": "worldwide"}}, {"type": "node", "id": 1646066672, "lat": 52.406652, "lon": -1.516408, "tags": {"amenity": "charging_station", "access": "yes", "operator": "E.ON", "name": "Ladestation E.ON", "addr:country": "GB", "capacity": "3", "_source": "worldwide"}}, {"type": "node", "id": 2667256448, "lat": 52.407086, "lon": -1.516618, "tags": {"amenity": "charging_station", "addr:country": "GB", "_source": "worldwide"}}, {"type": "node", "id": 10112189324, "lat": 52.408661, "lon": -1.516587, "tags": {"amenity": "charging_station", "operator": "ESB Energy", "name": "ESB EV Charging", "addr:country": "GB", "_source": "worldwide"}}, {"type": "node", "id": 1995102967, "lat": 52.396752, "lon": -1.483234, "tags": {"amenity": "charging_station", "addr:country": "GB", "_source": "worldwide"}}, {"type": "node", "id": 2208599935, "lat": 52.561085, "lon": -1.825993, "tags": {"amenity": "charging_station", "access": "yes", "operator": "Birmingham City Council", "name": "Manor Road Electric Charging Point", "addr:country": "GB", "capacity": "2", "_source": "worldwide"}}, {"type": "node", "id": 2493828728, "lat": 52.207348, "lon": -1.730484, "tags": {"amenity": "charging_station", "addr:country": "GB", "_source": "worldwide"}}, {"type": "node", "id": 9689465188, "lat": 52.208309, "lon": -1.728745, "tags": {"amenity": "charging_station", "addr:country": "GB", "_source": "worldwide"}}, {"type": "node", "id": 2614808506, "lat": 52.394691, "lon": -1.985612, "tags": {"amenity": "charging_station", "access": "yes", "addr:country": "GB", "_source": "worldwide"}}, {"type": "node", "id": 2667174432, "lat": 52.397184, "lon": -1.985741, "tags": {"amenity": "charging_station", "access": "visitors", "operator": "St Modwen Properties", "name": "St Modwen Properties TP1", "addr:country": "GB", "_source": "worldwide"}}, {"type": "node", "id": 2642823766, "lat": 52.759628, "lon": -1.2453, "tags": {"amenity": "charging_station", "operator": "Cenex/Loughborough University", "name": "EV Charging Point", "addr:country": "GB", "capacity": "4", "_source": "worldwide"}}, {"type": "node", "id": 8617882186, "lat": 52.760707, "lon": -1.252419, "tags": {"amenity": "charging_station", "operator": "Access Group", "name": "Ladestation Access Group", "addr:country": "GB", "capacity": "10", "_source": "worldwide"}}, {"type": "node", "id": 2663641452, "lat": 52.445752, "lon": -1.888252, "tags": {"amenity": "charging_station", "access": "yes", "operator": "Birmingham City Council", "name": "Alcester Road Moseley Electric Charge Point", "addr:country": "GB", "capacity": "2", "_source": "worldwide"}}, {"type": "node", "id": 2663641458, "lat": 52.486109, "lon": -1.887717, "tags": {"amenity": "charging_station", "operator": "Birmingham City Council", "name": "Aston Street Electric Charge Point", "addr:country": "GB", "capacity": "1", "_source": "worldwide"}}, {"type": "node", "id": 2663641482, "lat": 52.483646, "lon": -1.885518, "tags": {"amenity": "charging_station", "access": "yes", "operator": "Birmingham City Council", "name": "Millennium Point Car Park Electric Charging Point", "addr:country": "GB", "capacity": "2", "_source": "worldwide"}}, {"type": "node", "id": 2663641464, "lat": 52.478018, "lon": -1.903546, "tags": {"amenity": "charging_station", "access": "yes", "operator": "Birmingham City Council", "name": "Brunel Street Car Park Electric Charge Point", "addr:country": "GB", "_source": "worldwide"}}, {"type": "node", "id": 9111299121, "lat": 52.477532, "lon": -1.903749, "tags": {"amenity": "charging_station", "access": "yes", "operator": "ESB Energy", "name": "Ladestation ESB Energy", "addr:country": "GB", "_source": "worldwide"}}, {"type": "node", "id": 9684873476, "lat": 52.436831, "lon": -1.892489, "tags": {"amenity": "charging_station", "access": "yes", "fee": "yes", "operator": "ESB", "name": "Ladestation ESB", "addr:country": "GB", "socket:type2": "1", "socket:type2:output": "22 kW", "socket:type2_combo": "1", "socket:type2_combo:output": "50 kW", "socket:chademo": "1", "socket:chademo:output": "50 kW", "charging_station:output": "50 kW", "_source": "worldwide"}}, {"type": "node", "id": 2663641476, "lat": 52.483248, "lon": -1.899288, "tags": {"amenity": "charging_station", "operator": "Birmingham City Council", "name": "Livery Street Car Park Electric Charge Point", "addr:country": "GB", "capacity": "2", "_source": "worldwide"}}, {"type": "node", "id": 2667106285, "lat": 52.486911, "lon": -1.899199, "tags": {"amenity": "charging_station", "operator": "West Midlands Combined Authority", "name": "16 Summer Lane Electric Charging Point", "addr:country": "GB", "_source": "worldwide"}}, {"type": "node", "id": 13092866762, "lat": 52.482425, "lon": -1.899244, "tags": {"amenity": "charging_station", "addr:country": "GB", "_source": "worldwide"}}, {"type": "node", "id": 2667106305, "lat": 52.50937, "lon": -1.819598, "tags": {"amenity": "charging_station", "access": "customers", "operator": "Toyota World Birmingham", "name": "Toyota World Fort Dunlop Electric Charging Point", "addr:country": "GB", "_source": "worldwide"}}, {"type": "node", "id": 2667122679, "lat": 52.514686, "lon": -1.822723, "tags": {"amenity": "charging_station", "name": "Robins & Day Peugeot Electric Charging Sation", "addr:country": "GB", "_source": "worldwide"}}, {"type": "node", "id": 2667122680, "lat": 52.562135, "lon": -1.821875, "tags": {"amenity": "charging_station", "access": "yes", "operator": "Birmingham City Council", "name": "Victoria Road Car Park Electric Charging Station", "addr:country": "GB", "_source": "worldwide"}}, {"type": "node", "id": 2667174427, "lat": 52.415522, "lon": -1.970483, "tags": {"amenity": "charging_station", "access": "yes", "operator": "Birmingham City Council", "name": "Bristol Road Northfield Electric Charge Point", "addr:country": "GB", "capacity": "2", "_source": "worldwide"}}, {"type": "node", "id": 2667174430, "lat": 52.488382, "lon": -1.912211, "tags": {"amenity": "charging_station", "access": "yes", "operator": "Birmingham City Council", "name": "Jewellery Quarter Car Park Electric Charge Point", "addr:street": "Vyse Street 103-104", "addr:postcode": "B18 6LP", "addr:city": "Birmingham", "_source": "worldwide"}}, {"type": "node", "id": 7055178870, "lat": 52.48732, "lon": -1.91278, "tags": {"amenity": "charging_station", "access": "private", "addr:country": "GB", "_source": "worldwide"}}, {"type": "node", "id": 2667174434, "lat": 52.57739, "lon": -1.883644, "tags": {"amenity": "charging_station", "access": "customers", "operator": "West Way Nissan", "name": "West Way Nissan Electric Charging Point", "addr:country": "GB", "_source": "worldwide"}}, {"type": "node", "id": 2667174435, "lat": 52.458659, "lon": -1.949522, "tags": {"amenity": "charging_station", "access": "yes", "operator": "Birmingham City Council", "name": "High Street Harborne Electric Charge Point", "addr:country": "GB", "_source": "worldwide"}}, {"type": "node", "id": 2667217308, "lat": 52.489625, "lon": -1.883149, "tags": {"amenity": "charging_station", "access": "customers", "operator": "Saren Engineering", "name": "Saren Engineering Electric Charge Point", "addr:country": "GB", "_source": "worldwide"}}, {"type": "node", "id": 4285690403, "lat": 52.487669, "lon": -1.888648, "tags": {"amenity": "charging_station", "addr:country": "GB", "_source": "worldwide"}}, {"type": "node", "id": 2667217309, "lat": 52.479456, "lon": -1.877688, "tags": {"amenity": "charging_station", "access": "customers", "name": "Smart/Mercedes Benz Birmingham Central 1 Electric Charge Point", "addr:country": "GB", "_source": "worldwide"}}, {"type": "node", "id": 2667217310, "lat": 52.415602, "lon": -1.789529, "tags": {"amenity": "charging_station", "operator": "Centro", "name": "Solihull Station Electric Charge Point", "addr:country": "GB", "_source": "worldwide"}}, {"type": "node", "id": 2667217311, "lat": 52.571995, "lon": -1.969373, "tags": {"amenity": "charging_station", "access": "staff", "operator": "Wolverhampton University", "name": "Wolverhampton University Walsall Campus Electric Charge Point", "addr:country": "GB", "_source": "worldwide"}}, {"type": "node", "id": 2667217312, "lat": 52.421604, "lon": -1.855365, "tags": {"amenity": "charging_station", "access": "yes", "operator": "Centro", "name": "Yardley Wood Station Electric Charge Point", "addr:country": "GB", "capacity": "2", "_source": "worldwide"}}, {"type": "node", "id": 2667256438, "lat": 52.386478, "lon": -1.587052, "tags": {"amenity": "charging_station", "access": "yes", "addr:country": "GB", "_source": "worldwide"}}, {"type": "node", "id": 2667256440, "lat": 52.392268, "lon": -1.528511, "tags": {"amenity": "charging_station", "access": "yes", "operator": "GeniePoint", "name": "Ladestation GeniePoint", "addr:country": "GB", "capacity": "2", "_source": "worldwide"}}, {"type": "node", "id": 2667256443, "lat": 52.394922, "lon": -1.595371, "tags": {"amenity": "charging_station", "access": "yes", "addr:country": "GB", "_source": "worldwide"}}, {"type": "node", "id": 2667256444, "lat": 52.402613, "lon": -1.504614, "tags": {"amenity": "charging_station", "brand": "BP Pulse", "operator": "BP Pulse", "name": "BP Pulse - BP Pulse", "addr:country": "GB", "capacity": "4", "_source": "worldwide"}}, {"type": "node", "id": 2667256445, "lat": 52.406337, "lon": -1.508591, "tags": {"amenity": "charging_station", "access": "yes", "operator": "GeniePoint", "name": "Little Park Street", "addr:country": "GB", "socket:type2": "2", "socket:type2:output": "7.0 kW", "charging_station:output": "7.0 kW", "capacity": "2", "_source": "worldwide"}}, {"type": "node", "id": 9757207731, "lat": 52.409949, "lon": -1.509261, "tags": {"amenity": "charging_station", "name": "EBS Energy", "addr:country": "GB", "capacity": "2", "_source": "worldwide"}}, {"type": "node", "id": 2667256449, "lat": 52.408452, "lon": -1.52851, "tags": {"amenity": "charging_station", "access": "yes", "addr:country": "GB", "_source": "worldwide"}}, {"type": "node", "id": 7288108640, "lat": 52.405139, "lon": -1.529487, "tags": {"amenity": "charging_station", "brand": "char.gy", "operator": "Chargy", "name": "Chargy - char.gy", "addr:country": "GB", "capacity": "1", "_source": "worldwide"}}, {"type": "node", "id": 2667256451, "lat": 52.414813, "lon": -1.502558, "tags": {"amenity": "charging_station", "addr:country": "GB", "_source": "worldwide"}}, {"type": "node", "id": 2667286821, "lat": 52.429876, "lon": -1.949374, "tags": {"amenity": "charging_station", "access": "customers", "operator": "Bournville Village Trust", "name": "Bournville Village Trust Electric Charge Point", "addr:country": "GB", "capacity": "2", "_source": "worldwide"}}, {"type": "node", "id": 3159519247, "lat": 52.513199, "lon": -1.827088, "tags": {"amenity": "charging_station", "fee": "yes", "operator": "Colliers (Honda)", "name": "Ladestation Colliers (Honda)", "addr:country": "GB", "_source": "worldwide"}}, {"type": "node", "id": 3274533413, "lat": 52.638816, "lon": -1.138672, "tags": {"amenity": "charging_station", "operator": "Highcross Shopping Centre", "name": "Highcross Electric Car Charging Station", "addr:country": "GB", "_source": "worldwide"}}, {"type": "node", "id": 3274533414, "lat": 52.631432, "lon": -1.134592, "tags": {"amenity": "charging_station", "operator": "Leicester City Council", "name": "Ladestation Leicester City Council", "addr:country": "GB", "_source": "worldwide"}}, {"type": "node", "id": 3687110025, "lat": 52.115968, "lon": -1.939153, "tags": {"amenity": "charging_station", "addr:country": "GB", "_source": "worldwide"}}, {"type": "node", "id": 3955758555, "lat": 52.447616, "lon": -1.717056, "tags": {"amenity": "charging_station", "access": "yes", "addr:country": "GB", "_source": "worldwide"}}, {"type": "node", "id": 3993518062, "lat": 52.363124, "lon": -1.945444, "tags": {"amenity": "charging_station", "access": "customers", "fee": "yes", "brand": "Tesla Supercharger", "opening_hours": "24/7", "operator": "Tesla", "name": "Hopwood Park Supercharger", "addr:street": "Redditch Road", "addr:postcode": "B48 7AU", "addr:city": "Birmingham", "addr:country": "GB", "socket:type2_combo": "16", "socket:type2_combo:output": "150.0 kW", "socket:tesla_supercharger": "16", "socket:tesla_supercharger:output": "150.0 kW", "charging_station:output": "150.0 kW", "capacity": "16", "_source": "worldwide"}}, {"type": "node", "id": 1391042954, "lat": 52.363601, "lon": -1.946321, "tags": {"amenity": "charging_station", "brand": "Gridserve", "opening_hours": "24/7", "operator": "Gridserve", "name": "Gridserve - Gridserve", "addr:postcode": "B48 7AU", "addr:city": "Birmingham", "socket:type2": "1", "socket:type2:output": "22.0 kW", "socket:type2_combo": "3", "socket:type2_combo:output": "50.0 kW", "socket:chademo": "1", "socket:chademo:output": "50.0 kW", "charging_station:output": "50.0 kW", "_source": "worldwide"}}, {"type": "node", "id": 4155484400, "lat": 52.412841, "lon": -1.829935, "tags": {"amenity": "charging_station", "addr:country": "GB", "_source": "worldwide"}}, {"type": "node", "id": 4415674163, "lat": 52.297383, "lon": -1.906643, "tags": {"amenity": "charging_station", "addr:country": "GB", "capacity": "5", "_source": "worldwide"}}, {"type": "node", "id": 4617360754, "lat": 52.284119, "lon": -1.539568, "tags": {"amenity": "charging_station", "fee": "yes", "brand": "Pod Point", "opening_hours": "24/7", "operator": "Pod Point", "name": "Pod Point - Pod Point", "addr:country": "GB", "capacity": "2", "_source": "worldwide"}}, {"type": "node", "id": 5054340571, "lat": 52.388882, "lon": -1.55483, "tags": {"amenity": "charging_station", "operator": "evolt", "name": "Ladestation evolt", "addr:country": "GB", "capacity": "2", "_source": "worldwide"}}, {"type": "node", "id": 5061878564, "lat": 52.382951, "lon": -1.560562, "tags": {"amenity": "charging_station", "operator": "pulse", "name": "Ladestation pulse", "addr:country": "GB", "capacity": "2", "_source": "worldwide"}}, {"type": "node", "id": 5061878565, "lat": 52.38406, "lon": -1.561788, "tags": {"amenity": "charging_station", "addr:country": "GB", "_source": "worldwide"}}, {"type": "node", "id": 5609509423, "lat": 52.449401, "lon": -1.82043, "tags": {"amenity": "charging_station", "operator": "BP Pulse", "name": "Ladestation BP Pulse", "addr:country": "GB", "capacity": "1", "_source": "worldwide"}}, {"type": "node", "id": 5691769173, "lat": 52.800196, "lon": -1.634704, "tags": {"amenity": "charging_station", "addr:country": "GB", "capacity": "3", "_source": "worldwide"}}, {"type": "node", "id": 7964435609, "lat": 52.79641, "lon": -1.634859, "tags": {"amenity": "charging_station", "addr:country": "GB", "_source": "worldwide"}}, {"type": "node", "id": 5934725344, "lat": 52.310645, "lon": -1.947658, "tags": {"amenity": "charging_station", "name": "EVCharge.online", "addr:country": "GB", "_source": "worldwide"}}, {"type": "node", "id": 5998092897, "lat": 52.922787, "lon": -1.47395, "tags": {"amenity": "charging_station", "access": "private", "name": "Co Wheels car club", "addr:country": "GB", "capacity": "6", "_source": "worldwide"}}, {"type": "node", "id": 6074248425, "lat": 52.41169, "lon": -1.779515, "tags": {"amenity": "charging_station", "brand": "Tesla Supercharger", "operator": "Tesla", "name": "Tesla Supercharger", "addr:country": "GB", "socket:tesla_supercharger": "4", "socket:tesla_supercharger:output": "150 kW", "charging_station:output": "150 kW", "_source": "worldwide"}}, {"type": "node", "id": 9288293312, "lat": 52.411144, "lon": -1.777674, "tags": {"amenity": "charging_station", "addr:country": "GB", "capacity": "2", "_source": "worldwide"}}, {"type": "node", "id": 6271609793, "lat": 52.318338, "lon": -1.941969, "tags": {"amenity": "charging_station", "fee": "yes", "brand": "ChargePoint", "operator": "ChargePoint", "name": "ChargePoint", "addr:country": "GB", "_source": "worldwide"}}, {"type": "node", "id": 6276626219, "lat": 52.951577, "lon": -1.185817, "tags": {"amenity": "charging_station", "opening_hours": "Mo-Su 08:00-20:00", "operator": "Rolec EV", "name": "Ladestation Rolec EV", "addr:country": "GB", "capacity": "2", "_source": "worldwide"}}, {"type": "node", "id": 6893552045, "lat": 52.952599, "lon": -1.182713, "tags": {"amenity": "charging_station", "access": "permissive", "fee": "no", "network": "POLAR plus", "operator": "University of Nottingham", "name": "University of Nottingham - POLAR plus", "addr:country": "GB", "socket:type2": "3", "socket:type2:output": "7.0 kW", "charging_station:output": "7.0 kW", "capacity": "6", "_source": "worldwide"}}, {"type": "node", "id": 11543804845, "lat": 52.950459, "lon": -1.183356, "tags": {"amenity": "charging_station", "access": "delivery", "addr:country": "GB", "_source": "worldwide"}}, {"type": "node", "id": 6416064604, "lat": 52.474208, "lon": -1.92187, "tags": {"amenity": "charging_station", "fee": "no", "operator": "Pod Point", "name": "Ladestation Pod Point", "addr:country": "GB", "capacity": "2", "_source": "worldwide"}}, {"type": "node", "id": 9685293847, "lat": 52.472709, "lon": -1.911825, "tags": {"amenity": "charging_station", "fee": "yes", "operator": "Shell Recharge", "name": "Ladestation Shell Recharge", "addr:country": "GB", "socket:type2": "1", "socket:type2:output": "22 kW", "socket:chademo": "1", "socket:chademo:output": "50 kW", "socket:type1": "1", "socket:type1:output": "7.2 kW", "charging_station:output": "50 kW", "capacity": "1", "_source": "worldwide"}}, {"type": "node", "id": 12629269977, "lat": 52.470769, "lon": -1.921488, "tags": {"amenity": "charging_station", "access": "yes", "fee": "yes", "brand": "Source London Charging Station", "operator": "Source London Charging Station", "name": "Source London Charging Station - Source London Charging Station", "addr:country": "GB", "capacity": "2", "_source": "worldwide"}}, {"type": "node", "id": 6761724900, "lat": 52.916678, "lon": -1.47716, "tags": {"amenity": "charging_station", "fee": "yes", "brand": "bp pulse", "network": "Polar", "operator": "bp pulse", "name": "bp pulse - bp pulse", "addr:country": "GB", "capacity": "2", "_source": "worldwide"}}, {"type": "node", "id": 7002689945, "lat": 52.918364, "lon": -1.479457, "tags": {"amenity": "charging_station", "brand": "bp pulse", "operator": "bp pulse", "name": "bp pulse - bp pulse", "addr:country": "GB", "capacity": "4", "_source": "worldwide"}}, {"type": "node", "id": 9926488972, "lat": 52.918517, "lon": -1.472403, "tags": {"amenity": "charging_station", "access": "yes", "fee": "yes", "brand": "Tesla Supercharger", "opening_hours": "24/7", "operator": "Tesla", "name": "Derby Supercharger", "addr:postcode": "DE1 2PL", "addr:city": "Derby", "addr:country": "GB", "socket:type2_combo": "12", "socket:type2_combo:output": "150.0 kW", "socket:tesla_supercharger": "12", "socket:tesla_supercharger:output": "150.0 kW", "charging_station:output": "150.0 kW", "capacity": "12", "_source": "worldwide"}}, {"type": "node", "id": 6778137955, "lat": 52.957723, "lon": -1.143349, "tags": {"amenity": "charging_station", "brand": "BP Pulse", "operator": "BP Pulse", "name": "24395", "addr:country": "GB", "socket:type2": "1", "socket:type2:output": "43.0 kW", "socket:type2_combo": "1", "socket:type2_combo:output": "50.0 kW", "socket:chademo": "1", "socket:chademo:output": "50.0 kW", "charging_station:output": "50.0 kW", "capacity": "1", "_source": "worldwide"}}, {"type": "node", "id": 9931602908, "lat": 52.956128, "lon": -1.146419, "tags": {"amenity": "charging_station", "access": "yes", "fee": "yes", "brand": "Tesla Supercharger", "opening_hours": "24/7", "operator": "Tesla", "name": "Nottingham City Centre Supercharger", "addr:street": "Glasshouse Street", "addr:postcode": "NG1 3QB", "addr:city": "Nottingham", "addr:country": "GB", "socket:type2_combo": "12", "socket:type2_combo:output": "250.0 kW", "socket:tesla_supercharger": "12", "socket:tesla_supercharger:output": "150.0 kW", "charging_station:output": "250.0 kW", "capacity": "12", "_source": "worldwide"}}, {"type": "node", "id": 11583951778, "lat": 52.959439, "lon": -1.149111, "tags": {"amenity": "charging_station", "brand": "revolt", "name": "Ladestation revolt", "addr:country": "GB", "capacity": "1", "_source": "worldwide"}}, {"type": "node", "id": 6799597273, "lat": 52.619533, "lon": -1.205509, "tags": {"amenity": "charging_station", "operator": "Gridserve", "name": "Ladestation Gridserve", "addr:country": "GB", "capacity": "4", "_source": "worldwide"}}, {"type": "node", "id": 6813051181, "lat": 52.748358, "lon": -1.472238, "tags": {"amenity": "charging_station", "operator": "Pod Point", "name": "Pod Point - pod point", "addr:country": "GB", "capacity": "4", "_source": "worldwide"}}, {"type": "node", "id": 6856991374, "lat": 52.793303, "lon": -1.668508, "tags": {"amenity": "charging_station", "fee": "yes", "operator": "Instavolt", "name": "Ladestation Instavolt", "addr:country": "GB", "capacity": "3", "_source": "worldwide"}}, {"type": "node", "id": 6894997560, "lat": 52.955221, "lon": -1.136672, "tags": {"amenity": "charging_station", "addr:country": "GB", "capacity": "2", "_source": "worldwide"}}, {"type": "node", "id": 7156589215, "lat": 52.939769, "lon": -1.630045, "tags": {"amenity": "charging_station", "brand": "Alfa Power", "name": "Ladestation Alfa Power", "addr:country": "GB", "_source": "worldwide"}}, {"type": "node", "id": 7272510684, "lat": 52.443782, "lon": -1.938634, "tags": {"amenity": "charging_station", "fee": "no", "operator": "No operator at present - inoperable", "name": "Ladestation No operator at present - inoperable", "addr:country": "GB", "capacity": "2", "_source": "worldwide"}}, {"type": "node", "id": 7533797797, "lat": 52.986514, "lon": -1.229678, "tags": {"amenity": "charging_station", "addr:country": "GB", "_source": "worldwide"}}, {"type": "node", "id": 7538751226, "lat": 52.998398, "lon": -1.255708, "tags": {"amenity": "charging_station", "addr:country": "GB", "_source": "worldwide"}}, {"type": "node", "id": 7603444738, "lat": 52.981222, "lon": -1.235948, "tags": {"amenity": "charging_station", "fee": "yes", "operator": "Polar Plus", "name": "Ladestation Polar Plus", "addr:country": "GB", "socket:type2": "1", "socket:type2:output": "22 kW", "socket:type2_combo": "1", "socket:type2_combo:output": "50 kW", "socket:chademo": "1", "socket:chademo:output": "50 kW", "charging_station:output": "50 kW", "capacity": "3", "_source": "worldwide"}}, {"type": "node", "id": 7673475925, "lat": 52.076922, "lon": -1.317256, "tags": {"amenity": "charging_station", "addr:country": "GB", "_source": "worldwide"}}, {"type": "node", "id": 7698458737, "lat": 52.409362, "lon": -1.553405, "tags": {"amenity": "charging_station", "operator": "Rolec", "name": "Ladestation Rolec", "addr:country": "GB", "capacity": "2", "_source": "worldwide"}}, {"type": "node", "id": 7698458740, "lat": 52.409356, "lon": -1.552565, "tags": {"amenity": "charging_station", "operator": "Rolec", "name": "Ladestation Rolec", "addr:country": "GB", "capacity": "2", "_source": "worldwide"}}, {"type": "node", "id": 8646419847, "lat": 52.407987, "lon": -1.55183, "tags": {"amenity": "charging_station", "brand": "char.gy", "operator": "Char.gy", "name": "Char.gy - char.gy", "addr:country": "GB", "capacity": "1", "_source": "worldwide"}}, {"type": "node", "id": 8646419848, "lat": 52.40868, "lon": -1.55191, "tags": {"amenity": "charging_station", "brand": "char.gy", "operator": "Char.gy", "name": "Char.gy - char.gy", "addr:country": "GB", "capacity": "1", "_source": "worldwide"}}, {"type": "node", "id": 8646419849, "lat": 52.40832, "lon": -1.555364, "tags": {"amenity": "charging_station", "brand": "char.gy", "operator": "Char.gy", "name": "Char.gy - char.gy", "addr:country": "GB", "capacity": "1", "_source": "worldwide"}}, {"type": "node", "id": 7735132801, "lat": 52.928956, "lon": -1.273349, "tags": {"amenity": "charging_station", "fee": "yes", "brand": "BP Pulse", "network": "D2N2", "operator": "BP Pulse", "name": "BP Pulse - BP Pulse", "addr:country": "GB", "capacity": "4", "_source": "worldwide"}}, {"type": "node", "id": 7772523966, "lat": 52.394903, "lon": -1.55574, "tags": {"amenity": "charging_station", "operator": "Pod Point", "name": "Ladestation Pod Point", "addr:country": "GB", "capacity": "2", "_source": "worldwide"}}, {"type": "node", "id": 7781654142, "lat": 52.917711, "lon": -1.263917, "tags": {"amenity": "charging_station", "fee": "yes", "brand": "BP Pulse", "network": "D2N2", "operator": "BP Pulse", "name": "BP Pulse - BP Pulse", "addr:country": "GB", "capacity": "11", "_source": "worldwide"}}, {"type": "node", "id": 7800468453, "lat": 52.452369, "lon": -1.785616, "tags": {"amenity": "charging_station", "operator": "InstaVolt", "name": "Ladestation InstaVolt", "addr:country": "GB", "_source": "worldwide"}}, {"type": "node", "id": 11071488970, "lat": 52.45279, "lon": -1.790375, "tags": {"amenity": "charging_station", "operator": "Pod Point", "name": "Ladestation Pod Point", "addr:country": "GB", "capacity": "2", "_source": "worldwide"}}, {"type": "node", "id": 8048745247, "lat": 52.960915, "lon": -1.192449, "tags": {"amenity": "charging_station", "fee": "yes", "network": "Pod Point", "operator": "Pod Point", "name": "Ladestation Pod Point", "addr:country": "GB", "socket:type2": "1", "socket:type2:output": "22.0 kW", "socket:type2_combo": "1", "socket:type2_combo:output": "50.0 kW", "socket:chademo": "1", "socket:chademo:output": "50.0 kW", "charging_station:output": "50.0 kW", "_source": "worldwide"}}, {"type": "node", "id": 8243775635, "lat": 52.039682, "lon": -1.139407, "tags": {"amenity": "charging_station", "addr:country": "GB", "_source": "worldwide"}}, {"type": "node", "id": 9991471032, "lat": 52.041105, "lon": -1.13716, "tags": {"amenity": "charging_station", "fee": "yes", "operator": "Osprey", "name": "Ladestation Osprey", "addr:country": "GB", "socket:type2": "1", "socket:type2:output": "22 kW", "socket:type2_combo": "1", "socket:type2_combo:output": "50 kW", "socket:chademo": "1", "socket:chademo:output": "50 kW", "charging_station:output": "50 kW", "_source": "worldwide"}}, {"type": "node", "id": 8305231553, "lat": 52.37696, "lon": -1.237133, "tags": {"amenity": "charging_station", "access": "yes", "addr:country": "GB", "capacity": "2", "_source": "worldwide"}}, {"type": "node", "id": 8418028455, "lat": 52.549039, "lon": -1.858028, "tags": {"amenity": "charging_station", "opening_hours": "24/7", "operator": "Pod Point", "name": "Ladestation Pod Point", "addr:country": "GB", "capacity": "2", "_source": "worldwide"}}, {"type": "node", "id": 10683655271, "lat": 52.549045, "lon": -1.861175, "tags": {"amenity": "charging_station", "access": "customers", "fee": "no", "operator": "Pod Point", "name": "Ladestation Pod Point", "addr:country": "GB", "_source": "worldwide"}}, {"type": "node", "id": 8541164077, "lat": 52.293222, "lon": -1.534401, "tags": {"amenity": "charging_station", "access": "yes", "fee": "yes", "brand": "bp pulse", "opening_hours": "24/7", "operator": "bp pulse", "name": "bp pulse - bp pulse", "addr:country": "GB", "socket:type2": "2", "socket:type2:output": "22 kW", "charging_station:output": "22 kW", "capacity": "2", "_source": "worldwide"}}, {"type": "node", "id": 8600016883, "lat": 52.491245, "lon": -1.957841, "tags": {"amenity": "charging_station", "addr:country": "GB", "_source": "worldwide"}}, {"type": "node", "id": 8606292747, "lat": 52.399691, "lon": -1.937167, "tags": {"amenity": "charging_station", "addr:country": "GB", "capacity": "2", "_source": "worldwide"}}, {"type": "node", "id": 8646419852, "lat": 52.411195, "lon": -1.55354, "tags": {"amenity": "charging_station", "brand": "char.gy", "operator": "Char.gy", "name": "Char.gy - char.gy", "addr:country": "GB", "capacity": "1", "_source": "worldwide"}}, {"type": "node", "id": 8646419853, "lat": 52.414784, "lon": -1.550338, "tags": {"amenity": "charging_station", "brand": "char.gy", "operator": "Char.gy", "name": "Char.gy - char.gy", "addr:country": "GB", "capacity": "1", "_source": "worldwide"}}, {"type": "node", "id": 8646419856, "lat": 52.415318, "lon": -1.550594, "tags": {"amenity": "charging_station", "brand": "char.gy", "operator": "Char.gy", "name": "Char.gy - char.gy", "addr:country": "GB", "capacity": "1", "_source": "worldwide"}}, {"type": "node", "id": 8646419857, "lat": 52.415867, "lon": -1.550816, "tags": {"amenity": "charging_station", "brand": "char.gy", "operator": "Char.gy", "name": "Char.gy - char.gy", "addr:country": "GB", "capacity": "1", "_source": "worldwide"}}, {"type": "node", "id": 8646419859, "lat": 52.416303, "lon": -1.551043, "tags": {"amenity": "charging_station", "brand": "char.gy", "operator": "Char.gy", "name": "Char.gy - char.gy", "addr:country": "GB", "capacity": "1", "_source": "worldwide"}}, {"type": "node", "id": 8646419861, "lat": 52.410355, "lon": -1.543772, "tags": {"amenity": "charging_station", "brand": "char.gy", "operator": "Char.gy", "name": "Char.gy - char.gy", "addr:country": "GB", "capacity": "1", "_source": "worldwide"}}, {"type": "node", "id": 8646419862, "lat": 52.410224, "lon": -1.543824, "tags": {"amenity": "charging_station", "brand": "char.gy", "operator": "Char.gy", "name": "Char.gy - char.gy", "addr:country": "GB", "capacity": "1", "_source": "worldwide"}}, {"type": "node", "id": 8646419866, "lat": 52.410115, "lon": -1.54301, "tags": {"amenity": "charging_station", "brand": "char.gy", "operator": "Char.gy", "name": "Char.gy - char.gy", "addr:country": "GB", "capacity": "1", "_source": "worldwide"}}, {"type": "node", "id": 8646419873, "lat": 52.409696, "lon": -1.54227, "tags": {"amenity": "charging_station", "brand": "char.gy", "operator": "Char.gy", "name": "Char.gy - char.gy", "addr:country": "GB", "capacity": "1", "_source": "worldwide"}}, {"type": "node", "id": 8646419874, "lat": 52.408183, "lon": -1.540294, "tags": {"amenity": "charging_station", "brand": "char.gy", "operator": "Char.gy", "name": "Char.gy - char.gy", "addr:country": "GB", "capacity": "1", "_source": "worldwide"}}, {"type": "node", "id": 8656578267, "lat": 52.405167, "lon": -1.822857, "tags": {"amenity": "charging_station", "addr:country": "GB", "capacity": "1", "_source": "worldwide"}}, {"type": "node", "id": 8663583409, "lat": 52.754211, "lon": -1.582658, "tags": {"amenity": "charging_station", "access": "yes", "addr:country": "GB", "capacity": "8", "_source": "worldwide"}}, {"type": "node", "id": 8731121781, "lat": 52.343989, "lon": -1.580727, "tags": {"amenity": "charging_station", "addr:country": "GB", "_source": "worldwide"}}, {"type": "node", "id": 8734911835, "lat": 52.762513, "lon": -1.248789, "tags": {"amenity": "charging_station", "brand": "BP Pulse", "operator": "BP Pulse", "name": "Wheatsheaf Loughborough", "addr:country": "GB", "capacity": "2", "_source": "worldwide"}}, {"type": "node", "id": 8742624098, "lat": 52.414012, "lon": -1.884147, "tags": {"amenity": "charging_station", "access": "yes", "opening_hours": "24/7", "operator": "Pod Point", "name": "Lidl - Warstock Road", "addr:country": "GB", "capacity": "2", "_source": "worldwide"}}, {"type": "node", "id": 8760596097, "lat": 52.896857, "lon": -1.862793, "tags": {"amenity": "charging_station", "access": "yes", "brand": "BP Pulse", "operator": "BP Pulse", "name": "Trinity Square Car Park", "addr:country": "GB", "capacity": "1", "_source": "worldwide"}}, {"type": "node", "id": 10781892738, "lat": 52.897226, "lon": -1.859873, "tags": {"amenity": "charging_station", "access": "unknown", "brand": "Pod Point", "name": "Ladestation Pod Point", "addr:country": "GB", "capacity": "3", "_source": "worldwide"}}, {"type": "node", "id": 8791649136, "lat": 52.928095, "lon": -1.212004, "tags": {"amenity": "charging_station", "addr:country": "GB", "socket:type2": "2", "socket:type2:output": "7.0 kW", "charging_station:output": "7.0 kW", "capacity": "2", "_source": "worldwide"}}, {"type": "node", "id": 11830392489, "lat": 52.926656, "lon": -1.213414, "tags": {"amenity": "charging_station", "access": "yes", "brand": "Pod Point", "name": "Ladestation Pod Point", "addr:country": "GB", "_source": "worldwide"}}, {"type": "node", "id": 8853134073, "lat": 52.446233, "lon": -1.819584, "tags": {"amenity": "charging_station", "operator": "GeniePoint", "name": "Ladestation GeniePoint", "addr:country": "GB", "capacity": "2", "_source": "worldwide"}}, {"type": "node", "id": 8887927240, "lat": 52.461484, "lon": -1.840694, "tags": {"amenity": "charging_station", "access": "private", "addr:country": "GB", "capacity": "2", "_source": "worldwide"}}, {"type": "node", "id": 8899127048, "lat": 52.936125, "lon": -1.134347, "tags": {"amenity": "charging_station", "access": "yes", "fee": "yes", "brand": "Tesla Supercharger", "opening_hours": "24/7", "operator": "Tesla", "name": "Nottingham-Loughborough Road Supercharger", "addr:street": "Loughborough Road 5-27", "addr:postcode": "NG2 7LJ", "addr:city": "Nottingham", "addr:country": "GB", "socket:type2_combo": "8", "socket:type2_combo:output": "250.0 kW", "charging_station:output": "250.0 kW", "capacity": "8", "_source": "worldwide"}}, {"type": "node", "id": 8950591811, "lat": 52.580844, "lon": -1.127308, "tags": {"amenity": "charging_station", "operator": "Pod Point", "name": "Vera-Bret", "addr:country": "GB", "capacity": "5", "_source": "worldwide"}}, {"type": "node", "id": 8999740530, "lat": 52.919031, "lon": -1.507264, "tags": {"amenity": "charging_station", "brand": "Osprey", "operator": "Osprey", "name": "Osprey - Osprey", "addr:country": "GB", "_source": "worldwide"}}, {"type": "node", "id": 9022762834, "lat": 52.902295, "lon": -1.120683, "tags": {"amenity": "charging_station", "addr:country": "GB", "_source": "worldwide"}}, {"type": "node", "id": 9847786688, "lat": 52.902666, "lon": -1.123169, "tags": {"amenity": "charging_station", "access": "yes", "brand": "Rolec EV", "name": "Ladestation Rolec EV", "addr:country": "GB", "capacity": "4", "_source": "worldwide"}}, {"type": "node", "id": 9031947362, "lat": 52.897073, "lon": -1.474058, "tags": {"amenity": "charging_station", "access": "yes", "operator": "InstaVolt", "name": "Ladestation InstaVolt", "addr:country": "GB", "capacity": "2", "_source": "worldwide"}}, {"type": "node", "id": 11240823095, "lat": 52.896259, "lon": -1.477339, "tags": {"amenity": "charging_station", "addr:country": "GB", "_source": "worldwide"}}, {"type": "node", "id": 9034358037, "lat": 52.28361, "lon": -1.545245, "tags": {"amenity": "charging_station", "fee": "yes", "brand": "GeniePoint", "operator": "GeniePoint", "name": "GeniePoint - GeniePoint", "addr:country": "GB", "socket:type2": "2", "socket:type2:output": "22 kW", "charging_station:output": "22 kW", "capacity": "2", "_source": "worldwide"}}, {"type": "node", "id": 10159447556, "lat": 52.280299, "lon": -1.545705, "tags": {"amenity": "charging_station", "operator": "Aldi", "name": "Ladestation Aldi", "addr:country": "GB", "capacity": "2", "_source": "worldwide"}}, {"type": "node", "id": 13081717475, "lat": 52.279155, "lon": -1.548425, "tags": {"amenity": "charging_station", "fee": "yes", "brand": "Shell Recharge", "operator": "Shell Recharge", "name": "Shell Recharge - Shell Recharge", "addr:country": "GB", "capacity": "6", "_source": "worldwide"}}, {"type": "node", "id": 1436098234, "lat": 52.279611, "lon": -1.548744, "tags": {"amenity": "charging_station", "access": "yes", "operator": "Rawrapid", "name": "Ladestation Rawrapid", "addr:country": "GB", "_source": "worldwide"}}, {"type": "node", "id": 9146526458, "lat": 52.587798, "lon": -1.826938, "tags": {"amenity": "charging_station", "fee": "yes", "brand": "Pod Point", "operator": "EVBox", "name": "PodPoint Lidl", "addr:country": "GB", "_source": "worldwide"}}, {"type": "node", "id": 9156377968, "lat": 52.189816, "lon": -1.697716, "tags": {"amenity": "charging_station", "access": "yes", "operator": "Allego", "name": "Allego Charging Station", "addr:country": "GB", "capacity": "2", "_source": "worldwide"}}, {"type": "node", "id": 9211994187, "lat": 52.456923, "lon": -1.795945, "tags": {"amenity": "charging_station", "addr:country": "GB", "_source": "worldwide"}}, {"type": "node", "id": 9212345321, "lat": 52.402245, "lon": -1.82222, "tags": {"amenity": "charging_station", "addr:country": "GB", "capacity": "2", "_source": "worldwide"}}, {"type": "node", "id": 9216521472, "lat": 52.403482, "lon": -1.821633, "tags": {"amenity": "charging_station", "addr:country": "GB", "capacity": "2", "_source": "worldwide"}}, {"type": "node", "id": 10280669056, "lat": 52.400286, "lon": -1.815523, "tags": {"amenity": "charging_station", "addr:country": "GB", "capacity": "2", "_source": "worldwide"}}, {"type": "node", "id": 12941398901, "lat": 52.400349, "lon": -1.817992, "tags": {"amenity": "charging_station", "access": "yes", "fee": "yes", "brand": "Tesla Supercharger", "opening_hours": "24/7", "operator": "Tesla", "name": "Solihull Supercharger", "addr:country": "GB", "socket:type2_combo": "12", "socket:type2_combo:output": "250.0 kW", "charging_station:output": "250.0 kW", "capacity": "12", "_source": "worldwide"}}, {"type": "node", "id": 9212345330, "lat": 52.404562, "lon": -1.843481, "tags": {"amenity": "charging_station", "addr:country": "GB", "capacity": "2", "_source": "worldwide"}}, {"type": "node", "id": 9250149203, "lat": 52.41586, "lon": -1.828749, "tags": {"amenity": "charging_station", "addr:country": "GB", "capacity": "2", "_source": "worldwide"}}, {"type": "node", "id": 9288767776, "lat": 52.41915, "lon": -1.831941, "tags": {"amenity": "charging_station", "operator": "Pod Point", "name": "Ladestation Pod Point", "addr:country": "GB", "capacity": "2", "_source": "worldwide"}}, {"type": "node", "id": 9250149204, "lat": 52.399116, "lon": -1.820603, "tags": {"amenity": "charging_station", "addr:country": "GB", "capacity": "2", "_source": "worldwide"}}, {"type": "node", "id": 9253401968, "lat": 52.376248, "lon": -1.795194, "tags": {"amenity": "charging_station", "addr:country": "GB", "_source": "worldwide"}}, {"type": "node", "id": 9254234237, "lat": 52.394359, "lon": -1.778508, "tags": {"amenity": "charging_station", "fee": "yes", "opening_hours": "24/7", "operator": "InstaVolt", "name": "Ladestation InstaVolt", "addr:country": "GB", "capacity": "2", "_source": "worldwide"}}, {"type": "node", "id": 9269886014, "lat": 52.282354, "lon": -1.590764, "tags": {"amenity": "charging_station", "brand": "BP Pulse", "opening_hours": "24/7", "operator": "BP Pulse", "name": "BP Pulse - BP Pulse", "addr:country": "GB", "capacity": "2", "_source": "worldwide"}}, {"type": "node", "id": 9352993684, "lat": 52.440134, "lon": -1.806619, "tags": {"amenity": "charging_station", "addr:country": "GB", "capacity": "2", "_source": "worldwide"}}, {"type": "node", "id": 9352993685, "lat": 52.441309, "lon": -1.811331, "tags": {"amenity": "charging_station", "operator": "Instavolt", "name": "Ladestation Instavolt", "addr:country": "GB", "capacity": "2", "_source": "worldwide"}}, {"type": "node", "id": 9866094373, "lat": 52.441964, "lon": -1.811878, "tags": {"amenity": "charging_station", "fee": "yes", "addr:country": "GB", "capacity": "1", "_source": "worldwide"}}, {"type": "node", "id": 9394252449, "lat": 52.432286, "lon": -1.816589, "tags": {"amenity": "charging_station", "addr:country": "GB", "capacity": "2", "_source": "worldwide"}}, {"type": "node", "id": 9394252466, "lat": 52.45371, "lon": -1.83046, "tags": {"amenity": "charging_station", "addr:country": "GB", "capacity": "2", "_source": "worldwide"}}, {"type": "node", "id": 9413377126, "lat": 52.286423, "lon": -1.61201, "tags": {"amenity": "charging_station", "addr:country": "GB", "_source": "worldwide"}}, {"type": "node", "id": 9420151030, "lat": 52.388314, "lon": -1.73642, "tags": {"amenity": "charging_station", "addr:country": "GB", "capacity": "2", "_source": "worldwide"}}, {"type": "node", "id": 9420151032, "lat": 52.373148, "lon": -1.75176, "tags": {"amenity": "charging_station", "addr:country": "GB", "capacity": "2", "_source": "worldwide"}}, {"type": "node", "id": 9451346711, "lat": 52.171577, "lon": -1.543193, "tags": {"amenity": "charging_station", "opening_hours": "Tu-Su 10:00-17:00", "name": "Compton Verney EV", "addr:street": "Compton Hill", "addr:postcode": "CV35 9HZ", "capacity": "2", "_source": "worldwide"}}, {"type": "node", "id": 9452463065, "lat": 52.397371, "lon": -1.807834, "tags": {"amenity": "charging_station", "addr:country": "GB", "capacity": "2", "_source": "worldwide"}}, {"type": "node", "id": 9554639863, "lat": 52.296293, "lon": -1.535164, "tags": {"amenity": "charging_station", "access": "yes", "fee": "yes", "brand": "bp pulse", "opening_hours": "24/7", "operator": "bp pulse", "name": "bp pulse - bp pulse", "addr:country": "GB", "capacity": "2", "_source": "worldwide"}}, {"type": "node", "id": 9606342931, "lat": 52.290898, "lon": -1.546623, "tags": {"amenity": "charging_station", "brand": "bp pulse", "operator": "bp pulse", "name": "bp pulse - bp pulse", "addr:country": "GB", "capacity": "2", "_source": "worldwide"}}, {"type": "node", "id": 9611235332, "lat": 52.460649, "lon": -1.945993, "tags": {"amenity": "charging_station", "operator": "BP Pulse", "name": "Ladestation BP Pulse", "addr:country": "GB", "capacity": "2", "_source": "worldwide"}}, {"type": "node", "id": 9627146990, "lat": 52.29344, "lon": -1.779506, "tags": {"amenity": "charging_station", "addr:country": "GB", "capacity": "2", "_source": "worldwide"}}, {"type": "node", "id": 9674429189, "lat": 52.926064, "lon": -1.153289, "tags": {"amenity": "charging_station", "access": "yes", "brand": "BP Pulse", "name": "Ladestation BP Pulse", "addr:country": "GB", "capacity": "6", "_source": "worldwide"}}, {"type": "node", "id": 9690559899, "lat": 52.407355, "lon": -1.460088, "tags": {"amenity": "charging_station", "brand": "char.gy", "operator": "Chargy", "name": "Chargy - char.gy", "addr:country": "GB", "capacity": "1", "_source": "worldwide"}}, {"type": "node", "id": 9878504924, "lat": 52.409699, "lon": -1.455026, "tags": {"amenity": "charging_station", "brand": "char.gy", "operator": "Chargy", "name": "Chargy - char.gy", "addr:country": "GB", "capacity": "1", "_source": "worldwide"}}, {"type": "node", "id": 9726106381, "lat": 52.968071, "lon": -1.184014, "tags": {"amenity": "charging_station", "access": "yes", "addr:country": "GB", "capacity": "2", "_source": "worldwide"}}, {"type": "node", "id": 9742020413, "lat": 52.955516, "lon": -1.154689, "tags": {"amenity": "charging_station", "brand": "bp pulse", "operator": "bp pulse", "name": "bp pulse - bp pulse", "addr:country": "GB", "socket:type2": "1", "socket:type2:output": "43.0 kW", "socket:chademo": "1", "socket:chademo:output": "50.0 kW", "charging_station:output": "50.0 kW", "_source": "worldwide"}}, {"type": "node", "id": 9756533278, "lat": 52.219092, "lon": -1.501292, "tags": {"amenity": "charging_station", "access": "customers", "fee": "yes", "brand": "Tesla Supercharger", "opening_hours": "24/7", "operator": "Tesla", "name": "Warwick - Southbound Supercharger", "addr:city": "Ashorne", "addr:country": "GB", "socket:type2_combo": "8", "socket:type2_combo:output": "150.0 kW", "socket:tesla_supercharger": "8", "socket:tesla_supercharger:output": "150.0 kW", "charging_station:output": "150.0 kW", "capacity": "8", "_source": "worldwide"}}, {"type": "node", "id": 1392854691, "lat": 52.21912, "lon": -1.502959, "tags": {"amenity": "charging_station", "brand": "Gridserve", "opening_hours": "24/7", "operator": "Gridserve", "name": "Gridserve", "addr:postcode": "CV35 0AA", "addr:city": "Warwick", "socket:type2": "2", "socket:type2:output": "22.0 kW", "socket:type2_combo": "2", "socket:type2_combo:output": "45.0 kW", "socket:chademo": "2", "socket:chademo:output": "50.0 kW", "charging_station:output": "50.0 kW", "_source": "worldwide"}}, {"type": "node", "id": 9757127015, "lat": 52.410536, "lon": -1.510025, "tags": {"amenity": "charging_station", "name": "PitPoint", "addr:country": "GB", "_source": "worldwide"}}, {"type": "node", "id": 9796312326, "lat": 52.441911, "lon": -1.771551, "tags": {"amenity": "charging_station", "operator": "SWARCO e-connect", "name": "Ladestation SWARCO e-connect", "addr:country": "GB", "capacity": "2", "_source": "worldwide"}}, {"type": "node", "id": 9798409075, "lat": 52.988741, "lon": -1.20763, "tags": {"amenity": "charging_station", "access": "yes", "brand": "BP Pulse", "operator": "BP Pulse", "name": "BP Pulse - BP Pulse", "addr:country": "GB", "capacity": "6", "_source": "worldwide"}}, {"type": "node", "id": 9817044806, "lat": 52.988378, "lon": -1.205476, "tags": {"amenity": "charging_station", "access": "private", "addr:country": "GB", "capacity": "2", "_source": "worldwide"}}, {"type": "node", "id": 9825603408, "lat": 52.260201, "lon": -1.610587, "tags": {"amenity": "charging_station", "fee": "yes", "operator": "InstaVolt", "name": "Ladestation InstaVolt", "addr:country": "GB", "socket:chademo": "1", "socket:chademo:output": "50 kW", "charging_station:output": "50 kW", "capacity": "1", "_source": "worldwide"}}, {"type": "node", "id": 9825644806, "lat": 52.28521, "lon": -1.571643, "tags": {"amenity": "charging_station", "operator": "Pod Point", "name": "Ladestation Pod Point", "addr:country": "GB", "socket:type2": "1", "socket:type2:output": "43.0 kW", "socket:chademo": "1", "socket:chademo:output": "50.0 kW", "charging_station:output": "50.0 kW", "capacity": "2", "authentication:none": "", "_source": "worldwide"}}, {"type": "node", "id": 9858218656, "lat": 52.059255, "lon": -1.332149, "tags": {"amenity": "charging_station", "fee": "yes", "operator": "Park & Charge Oxfordshire", "name": "Ladestation Park & Charge Oxfordshire", "addr:country": "GB", "capacity": "10", "_source": "worldwide"}}, {"type": "node", "id": 1074762769, "lat": 52.059486, "lon": -1.339102, "tags": {"amenity": "charging_station", "fee": "yes", "operator": "Park & Charge Oxfordshire", "name": "Ladestation Park & Charge Oxfordshire", "addr:country": "GB", "capacity": "12", "_source": "worldwide"}}, {"type": "node", "id": 9876418707, "lat": 52.411114, "lon": -1.457474, "tags": {"amenity": "charging_station", "brand": "char.gy", "name": "Chargy", "addr:country": "GB", "capacity": "1", "_source": "worldwide"}}, {"type": "node", "id": 9876418715, "lat": 52.41383, "lon": -1.452925, "tags": {"amenity": "charging_station", "brand": "char.gy", "operator": "chargy", "name": "chargy - char.gy", "addr:country": "GB", "capacity": "1", "_source": "worldwide"}}, {"type": "node", "id": 9926429295, "lat": 52.07293, "lon": -1.34176, "tags": {"amenity": "charging_station", "access": "yes", "fee": "yes", "brand": "Tesla Supercharger", "opening_hours": "24/7", "operator": "Tesla", "name": "Banbury Supercharger", "addr:street": "Lockheed Close", "addr:postcode": "OX16 1LX", "addr:city": "Banbury", "addr:country": "GB", "socket:type2_combo": "12", "socket:type2_combo:output": "250.0 kW", "charging_station:output": "250.0 kW", "capacity": "12", "_source": "worldwide"}}, {"type": "node", "id": 1378883850, "lat": 52.071092, "lon": -1.3453, "tags": {"amenity": "charging_station", "access": "yes", "fee": "yes", "operator": "Aldi", "name": "Aldi Banbury EV Chargers", "addr:country": "GB", "capacity": "4", "_source": "worldwide"}}, {"type": "node", "id": 9926450982, "lat": 52.471279, "lon": -1.874217, "tags": {"amenity": "charging_station", "fee": "yes", "brand": "Tesla, Inc.", "opening_hours": "24/7", "operator": "Tesla", "name": "Birmingham-St Andrews Supercharger", "addr:street": "Small Heath Highway 110", "addr:postcode": "B10 0BW", "addr:city": "Birmingham", "addr:country": "GB", "capacity": "16", "_source": "worldwide"}}, {"type": "node", "id": 9931218105, "lat": 52.59463, "lon": -1.180596, "tags": {"amenity": "charging_station", "access": "customers", "fee": "yes", "brand": "Tesla Supercharger", "opening_hours": "24/7", "operator": "Tesla", "name": "Leicester Supercharger", "addr:postcode": "LE19 1HY", "addr:city": "Leicester", "addr:country": "GB", "socket:type2_combo": "8", "socket:type2_combo:output": "250.0 kW", "charging_station:output": "250.0 kW", "capacity": "8", "_source": "worldwide"}}, {"type": "node", "id": 9931780497, "lat": 52.216254, "lon": -1.504079, "tags": {"amenity": "charging_station", "access": "customers", "fee": "yes", "brand": "Tesla Supercharger", "opening_hours": "24/7", "operator": "Tesla", "name": "Warwick - Northbound Supercharger", "addr:city": "Ashorne", "addr:country": "GB", "socket:type2_combo": "8", "socket:type2_combo:output": "150.0 kW", "socket:tesla_supercharger": "8", "socket:tesla_supercharger:output": "150.0 kW", "charging_station:output": "150.0 kW", "capacity": "8", "_source": "worldwide"}}, {"type": "node", "id": 1392858048, "lat": 52.216476, "lon": -1.504801, "tags": {"amenity": "charging_station", "brand": "Gridserve", "opening_hours": "24/7", "operator": "Gridserve", "name": "Gridserve - Gridserve", "addr:postcode": "CV35 0AA", "addr:city": "Warwick", "socket:type2": "1", "socket:type2:output": "22.0 kW", "socket:type2_combo": "3", "socket:type2_combo:output": "50.0 kW", "socket:chademo": "1", "socket:chademo:output": "50.0 kW", "charging_station:output": "50.0 kW", "_source": "worldwide"}}, {"type": "node", "id": 9966342322, "lat": 52.944921, "lon": -1.162039, "tags": {"amenity": "charging_station", "access": "yes", "brand": "Instavolt", "operator": "InstaVolt", "name": "InstaVolt - Instavolt", "addr:country": "GB", "_source": "worldwide"}}, {"type": "node", "id": 9967096324, "lat": 52.914588, "lon": -1.444581, "tags": {"amenity": "charging_station", "access": "yes", "brand": "BP Pulse", "operator": "BP Pulse", "name": "BP Pulse - BP Pulse", "addr:country": "GB", "capacity": "10", "_source": "worldwide"}}, {"type": "node", "id": 9981598757, "lat": 52.145774, "lon": -1.086017, "tags": {"amenity": "charging_station", "operator": "Pod Point", "name": "Ladestation Pod Point", "addr:country": "GB", "socket:type2": "2", "socket:type2:output": "22 kW", "charging_station:output": "22 kW", "capacity": "2", "_source": "worldwide"}}, {"type": "node", "id": 9985992685, "lat": 52.367238, "lon": -1.260411, "tags": {"amenity": "charging_station", "fee": "yes", "operator": "Bp Pulse", "name": "Ladestation Bp Pulse", "addr:country": "GB", "capacity": "2", "_source": "worldwide"}}, {"type": "node", "id": 9986169325, "lat": 52.217435, "lon": -1.25975, "tags": {"amenity": "charging_station", "operator": "Pod Point", "name": "Ladestation Pod Point", "addr:country": "GB", "socket:type2": "2", "socket:type2:output": "22 kW", "charging_station:output": "22 kW", "capacity": "2", "_source": "worldwide"}}, {"type": "node", "id": 10049256201, "lat": 52.451379, "lon": -1.198394, "tags": {"amenity": "charging_station", "operator": "Osprey", "name": "Osprey Charging Station", "addr:country": "GB", "_source": "worldwide"}}, {"type": "node", "id": 10101456736, "lat": 52.419367, "lon": -1.476067, "tags": {"amenity": "charging_station", "access": "yes", "name": "EV - Recharging point", "addr:country": "GB", "capacity": "2", "_source": "worldwide"}}, {"type": "node", "id": 10207422960, "lat": 52.416489, "lon": -1.480558, "tags": {"amenity": "charging_station", "brand": "char.gy", "operator": "Chargy", "name": "Chargy", "addr:country": "GB", "capacity": "1", "_source": "worldwide"}}, {"type": "node", "id": 10106471586, "lat": 52.426361, "lon": -1.459815, "tags": {"amenity": "charging_station", "addr:country": "GB", "_source": "worldwide"}}, {"type": "node", "id": 10107051416, "lat": 52.386669, "lon": -1.496433, "tags": {"amenity": "charging_station", "access": "yes", "fee": "yes", "addr:country": "GB", "_source": "worldwide"}}, {"type": "node", "id": 10124851215, "lat": 52.77418, "lon": -1.55853, "tags": {"amenity": "charging_station", "brand": "BP Pulse", "network": "Polar", "operator": "BP Pulse", "name": "BP Pulse - BP Pulse", "addr:country": "GB", "capacity": "2", "_source": "worldwide"}}, {"type": "node", "id": 10142992884, "lat": 52.905815, "lon": -1.187937, "tags": {"amenity": "charging_station", "fee": "yes", "network": "Instavolt", "opening_hours": "24/7", "operator": "InstaVolt", "name": "InstaVolt Clifton Ln, Clifton", "addr:country": "GB", "socket:type2_combo": "2", "socket:type2_combo:output": "125.0 kW", "socket:chademo": "2", "socket:chademo:output": "125.0 kW", "charging_station:output": "125.0 kW", "capacity": "2", "authentication:none": "", "_source": "worldwide"}}, {"type": "node", "id": 10180684836, "lat": 52.41452, "lon": -1.486379, "tags": {"amenity": "charging_station", "operator": "chargy http://char.gy/00328", "name": "Ladestation chargy http://char.gy/00328", "addr:country": "GB", "capacity": "1", "_source": "worldwide"}}, {"type": "node", "id": 10207422959, "lat": 52.414429, "lon": -1.48372, "tags": {"amenity": "charging_station", "access": "yes", "brand": "char.gy", "operator": "Chargy", "name": "Chargy", "addr:country": "GB", "_source": "worldwide"}}, {"type": "node", "id": 10207422956, "lat": 52.41168, "lon": -1.482253, "tags": {"amenity": "charging_station", "access": "yes", "operator": "ESB Energy", "name": "Esb-evolutions.co.uk", "addr:country": "GB", "capacity": "3", "_source": "worldwide"}}, {"type": "node", "id": 10282777401, "lat": 52.947004, "lon": -1.17111, "tags": {"amenity": "charging_station", "brand": "BP Pulse", "operator": "BP Pulse", "name": "BP Pulse - BP Pulse", "addr:country": "GB", "capacity": "2", "_source": "worldwide"}}, {"type": "node", "id": 10572539912, "lat": 52.95429, "lon": -1.479789, "tags": {"amenity": "charging_station", "addr:country": "GB", "capacity": "4", "_source": "worldwide"}}, {"type": "node", "id": 10573372431, "lat": 52.91306, "lon": -1.183592, "tags": {"amenity": "charging_station", "addr:country": "GB", "_source": "worldwide"}}, {"type": "node", "id": 10582587487, "lat": 52.2535, "lon": -1.386426, "tags": {"amenity": "charging_station", "access": "yes", "fee": "yes", "brand": "BP Pulse", "operator": "BP Pulse", "name": "BP Pulse - BP Pulse", "addr:country": "GB", "socket:type2": "2", "socket:type2:output": "22 kW", "charging_station:output": "22 kW", "capacity": "2", "_source": "worldwide"}}, {"type": "node", "id": 10605054905, "lat": 52.903594, "lon": -1.181582, "tags": {"amenity": "charging_station", "addr:country": "GB", "_source": "worldwide"}}, {"type": "node", "id": 10605055005, "lat": 52.904638, "lon": -1.175673, "tags": {"amenity": "charging_station", "addr:country": "GB", "_source": "worldwide"}}, {"type": "node", "id": 10606153601, "lat": 52.947789, "lon": -1.183071, "tags": {"amenity": "charging_station", "access": "customers", "fee": "yes", "brand": "Evyve", "operator": "evyve", "name": "evyve - Evyve", "addr:country": "GB", "socket:type2_combo": "2", "socket:type2_combo:output": "75.0 kW", "charging_station:output": "75.0 kW", "capacity": "2", "_source": "worldwide"}}, {"type": "node", "id": 10683492140, "lat": 52.536561, "lon": -1.905261, "tags": {"amenity": "charging_station", "access": "yes", "fee": "yes", "brand": "ChargePoint", "operator": "ChargePoint", "name": "ChargePoint", "addr:country": "GB", "capacity": "2", "_source": "worldwide"}}, {"type": "node", "id": 12230518098, "lat": 52.531679, "lon": -1.903808, "tags": {"amenity": "charging_station", "fee": "yes", "brand": "EVOpenCharge", "network": "VendElectric", "operator": "VendElectric", "name": "VendElectric - EVOpenCharge", "addr:country": "GB", "capacity": "2", "_source": "worldwide"}}, {"type": "node", "id": 10683570014, "lat": 52.535708, "lon": -1.890299, "tags": {"amenity": "charging_station", "fee": "yes", "brand": "Osprey", "operator": "Osprey", "name": "Osprey - Osprey", "addr:country": "GB", "_source": "worldwide"}}, {"type": "node", "id": 10683629189, "lat": 52.550675, "lon": -1.936386, "tags": {"amenity": "charging_station", "fee": "yes", "operator": "GeniePoint", "name": "Ladestation GeniePoint", "addr:country": "GB", "capacity": "3", "_source": "worldwide"}}, {"type": "node", "id": 10707808288, "lat": 52.526945, "lon": -1.899394, "tags": {"amenity": "charging_station", "addr:country": "GB", "_source": "worldwide"}}, {"type": "node", "id": 10748510884, "lat": 52.696173, "lon": -1.074883, "tags": {"amenity": "charging_station", "fee": "yes", "brand": "Shell Recharge", "operator": "Shell Recharge", "name": "Shell Recharge CP 4 Aldi Syston", "addr:country": "GB", "socket:type2": "4", "socket:type2:output": "11.0 kW", "charging_station:output": "11.0 kW", "capacity": "4", "_source": "worldwide"}}, {"type": "node", "id": 10751320933, "lat": 52.377874, "lon": -1.261578, "tags": {"amenity": "charging_station", "operator": "BP Pulse", "name": "Ladestation BP Pulse", "addr:country": "GB", "capacity": "2", "_source": "worldwide"}}, {"type": "node", "id": 10757789620, "lat": 52.519765, "lon": -1.901377, "tags": {"amenity": "charging_station", "operator": "Pod Point", "name": "Ladestation Pod Point", "addr:country": "GB", "capacity": "2", "_source": "worldwide"}}, {"type": "node", "id": 10789918720, "lat": 52.883766, "lon": -1.145898, "tags": {"amenity": "charging_station", "access": "yes", "operator": "BP Pulse", "name": "Ladestation BP Pulse", "addr:country": "GB", "capacity": "4", "_source": "worldwide"}}, {"type": "node", "id": 10856003144, "lat": 52.270063, "lon": -1.539747, "tags": {"amenity": "charging_station", "access": "private", "addr:country": "GB", "capacity": "2", "_source": "worldwide"}}, {"type": "node", "id": 10881892224, "lat": 52.929014, "lon": -1.506251, "tags": {"amenity": "charging_station", "access": "yes", "brand": "Instavolt", "operator": "InstaVolt", "name": "Instavolt McDonalds Markeaton", "addr:country": "GB", "socket:type2_combo": "4", "socket:type2_combo:output": "120.0 kW", "socket:chademo": "4", "socket:chademo:output": "60.0 kW", "charging_station:output": "120.0 kW", "capacity": "4", "_source": "worldwide"}}, {"type": "node", "id": 10920054005, "lat": 52.930883, "lon": -1.505275, "tags": {"amenity": "charging_station", "brand": "bp pulse", "operator": "bp pulse", "name": "bp pulse - bp pulse", "addr:country": "GB", "capacity": "3", "_source": "worldwide"}}, {"type": "node", "id": 10916005105, "lat": 52.926184, "lon": -1.492672, "tags": {"amenity": "charging_station", "brand": "bp pulse", "operator": "bp pulse", "name": "bp pulse - bp pulse", "addr:country": "GB", "capacity": "2", "_source": "worldwide"}}, {"type": "node", "id": 10944469224, "lat": 52.292907, "lon": -1.576901, "tags": {"amenity": "charging_station", "brand": "BP Pulse", "operator": "BP Pulse", "name": "BP Pulse - BP Pulse", "addr:country": "GB", "capacity": "2", "_source": "worldwide"}}, {"type": "node", "id": 10975037339, "lat": 52.256658, "lon": -1.16157, "tags": {"amenity": "charging_station", "operator": "Osprey", "name": "Ladestation Osprey", "addr:country": "GB", "socket:type2_combo": "1", "socket:type2_combo:output": "50 kW", "socket:chademo": "1", "socket:chademo:output": "50 kW", "charging_station:output": "50 kW", "_source": "worldwide"}}, {"type": "node", "id": 10992819252, "lat": 52.351842, "lon": -1.148978, "tags": {"amenity": "charging_station", "operator": "BP-Pulse (POLAR)", "name": "Ladestation BP-Pulse (POLAR)", "addr:country": "GB", "socket:chademo": "2", "socket:chademo:output": "50 kW", "charging_station:output": "50 kW", "_source": "worldwide"}}, {"type": "node", "id": 11008016107, "lat": 52.938457, "lon": -1.138134, "tags": {"amenity": "charging_station", "access": "yes", "brand": "bp pulse", "operator": "bp pulse", "name": "bp pulse - bp pulse", "addr:country": "GB", "capacity": "2", "_source": "worldwide"}}, {"type": "node", "id": 11008128885, "lat": 52.155154, "lon": -1.501911, "tags": {"amenity": "charging_station", "access": "customers", "operator": "Podpoint", "name": "Jean-Lena", "addr:country": "GB", "capacity": "2", "_source": "worldwide"}}, {"type": "node", "id": 11012393169, "lat": 52.422182, "lon": -1.929104, "tags": {"amenity": "charging_station", "access": "yes", "operator": "ESB Energy", "name": "Ladestation ESB Energy", "addr:country": "GB", "capacity": "2", "_source": "worldwide"}}, {"type": "node", "id": 11070985973, "lat": 52.187116, "lon": -1.481059, "tags": {"amenity": "charging_station", "access": "customers", "brand": "Newmotion", "operator": "Shell", "name": "Shell - Newmotion", "addr:country": "GB", "capacity": "37", "_source": "worldwide"}}, {"type": "node", "id": 11070985975, "lat": 52.188777, "lon": -1.481117, "tags": {"amenity": "charging_station", "access": "yes", "brand": "Newmotion", "operator": "Shell", "name": "Shell - Newmotion", "addr:country": "GB", "capacity": "2", "_source": "worldwide"}}, {"type": "node", "id": 11510454594, "lat": 52.189857, "lon": -1.478947, "tags": {"amenity": "charging_station", "access": "yes", "brand": "Newmotion", "operator": "Shell", "name": "Shell - Newmotion", "addr:country": "GB", "capacity": "10", "_source": "worldwide"}}, {"type": "node", "id": 11070985976, "lat": 52.189558, "lon": -1.488408, "tags": {"amenity": "charging_station", "access": "private", "brand": "Newmotion", "operator": "Shell", "name": "Shell - Newmotion", "addr:country": "GB", "capacity": "73", "_source": "worldwide"}}, {"type": "node", "id": 1434218510, "lat": 52.188209, "lon": -1.487181, "tags": {"amenity": "charging_station", "access": "private", "operator": "Jaguar Land Rover", "name": "FM&L Charging Hub", "addr:country": "GB", "capacity": "70", "_source": "worldwide"}}, {"type": "node", "id": 11159448775, "lat": 52.401683, "lon": -1.511628, "tags": {"amenity": "charging_station", "operator": "ESB EV Solutions", "name": "Ladestation ESB EV Solutions", "addr:country": "GB", "capacity": "3", "_source": "worldwide"}}, {"type": "node", "id": 11161247605, "lat": 52.276688, "lon": -1.545133, "tags": {"amenity": "charging_station", "brand": "E.ON Drive", "operator": "E.ON", "name": "E.ON - E.ON Drive", "addr:country": "GB", "capacity": "2", "_source": "worldwide"}}, {"type": "node", "id": 13081717469, "lat": 52.274413, "lon": -1.548251, "tags": {"amenity": "charging_station", "access": "customers", "fee": "yes", "addr:country": "GB", "capacity": "2", "_source": "worldwide"}}, {"type": "node", "id": 13081717474, "lat": 52.276109, "lon": -1.541547, "tags": {"amenity": "charging_station", "access": "customers", "fee": "yes", "addr:country": "GB", "capacity": "2", "_source": "worldwide"}}, {"type": "node", "id": 11174714080, "lat": 52.923988, "lon": -1.099533, "tags": {"amenity": "charging_station", "operator": "BP Pulse", "name": "Ladestation BP Pulse", "addr:country": "GB", "capacity": "1", "_source": "worldwide"}}, {"type": "node", "id": 11180657821, "lat": 52.946344, "lon": -1.123145, "tags": {"amenity": "charging_station", "operator": "Ultracharge", "name": "Ladestation Ultracharge", "addr:country": "GB", "capacity": "2", "_source": "worldwide"}}, {"type": "node", "id": 11212530025, "lat": 52.510675, "lon": -1.967573, "tags": {"amenity": "charging_station", "access": "yes", "fee": "yes", "brand": "Ionity", "network": "Ionity", "opening_hours": "24/7", "operator": "IONITY", "name": "Ionity West Bromwich", "addr:country": "GB", "socket:type2_combo": "6", "socket:type2_combo:output": "350.0 kW", "charging_station:output": "350.0 kW", "capacity": "6", "_source": "worldwide"}}, {"type": "node", "id": 11263378634, "lat": 52.390369, "lon": -1.546043, "tags": {"amenity": "charging_station", "access": "yes", "fee": "yes", "brand": "evpoint", "name": "Ladestation evpoint", "addr:country": "GB", "capacity": "8", "_source": "worldwide"}}, {"type": "node", "id": 11271414896, "lat": 52.398747, "lon": -1.521708, "tags": {"amenity": "charging_station", "access": "yes", "brand": "char.gy", "name": "Ladestation char.gy", "addr:country": "GB", "capacity": "1", "_source": "worldwide"}}, {"type": "node", "id": 11273245257, "lat": 52.45081, "lon": -1.715017, "tags": {"amenity": "charging_station", "access": "yes", "fee": "0-15 mins free, 15 mins-3 hours £10, 3-8 hours £15, >8-24 hours £22 (or for Hilton guests 12 / day).", "opening_hours": "24/7", "name": "Hilton Birmingham Metropole", "addr:country": "GB", "_source": "worldwide"}}, {"type": "node", "id": 1216648199, "lat": 52.452148, "lon": -1.716897, "tags": {"amenity": "charging_station", "fee": "no", "name": "NEC Express Parking 1", "addr:country": "GB", "socket:type2": "8", "socket:type2:output": "7.0 kW", "charging_station:output": "7.0 kW", "capacity": "8", "_source": "worldwide"}}, {"type": "node", "id": 11305666536, "lat": 52.393491, "lon": -1.504545, "tags": {"amenity": "charging_station", "addr:country": "GB", "capacity": "3", "_source": "worldwide"}}, {"type": "node", "id": 11373303985, "lat": 52.93091, "lon": -1.150222, "tags": {"amenity": "charging_station", "access": "yes", "brand": "BP Pulse", "name": "Ladestation BP Pulse", "addr:country": "GB", "capacity": "3", "_source": "worldwide"}}, {"type": "node", "id": 11377407374, "lat": 52.920448, "lon": -1.483391, "tags": {"amenity": "charging_station", "brand": "bp pulse", "operator": "bp pulse", "name": "bp pulse - bp pulse", "addr:country": "GB", "capacity": "4", "_source": "worldwide"}}, {"type": "node", "id": 13597628709, "lat": 52.920713, "lon": -1.48721, "tags": {"amenity": "charging_station", "addr:country": "GB", "_source": "worldwide"}}, {"type": "node", "id": 11377458201, "lat": 52.942568, "lon": -1.161672, "tags": {"amenity": "charging_station", "addr:country": "GB", "_source": "worldwide"}}, {"type": "node", "id": 11407024597, "lat": 52.778585, "lon": -1.196059, "tags": {"amenity": "charging_station", "addr:country": "GB", "_source": "worldwide"}}, {"type": "node", "id": 11407080350, "lat": 52.387136, "lon": -1.256433, "tags": {"amenity": "charging_station", "operator": "Pod Point", "name": "Ladestation Pod Point", "addr:country": "GB", "capacity": "4", "_source": "worldwide"}}, {"type": "node", "id": 11407106845, "lat": 52.374394, "lon": -1.263698, "tags": {"amenity": "charging_station", "operator": "InstaVolt", "name": "Ladestation InstaVolt", "addr:country": "GB", "capacity": "2", "_source": "worldwide"}}, {"type": "node", "id": 11619204054, "lat": 52.532914, "lon": -1.766031, "tags": {"amenity": "charging_station", "brand": "RolecEV", "name": "Ladestation RolecEV", "addr:country": "GB", "capacity": "1", "_source": "worldwide"}}, {"type": "node", "id": 11665055775, "lat": 52.926448, "lon": -1.154898, "tags": {"amenity": "charging_station", "addr:country": "GB", "_source": "worldwide"}}, {"type": "node", "id": 11681539023, "lat": 52.261372, "lon": -1.177012, "tags": {"amenity": "charging_station", "access": "customers", "network": "Pod-Point", "opening_hours": "24/7", "operator": "Pod-Point", "name": "Cummins Engines", "addr:country": "GB", "capacity": "16", "_source": "worldwide"}}, {"type": "node", "id": 11681539024, "lat": 52.261173, "lon": -1.179759, "tags": {"amenity": "charging_station", "access": "customers", "network": "Pod-Point", "opening_hours": "24/7", "operator": "Pod-Point", "name": "Cummins Engines", "addr:country": "GB", "capacity": "4", "_source": "worldwide"}}, {"type": "node", "id": 11708669300, "lat": 52.934376, "lon": -1.530944, "tags": {"amenity": "charging_station", "access": "customers", "brand": "Osprey", "operator": "Osprey", "name": "Osprey - Osprey", "addr:country": "GB", "socket:type2_combo": "1", "socket:type2_combo:output": "50 kW", "socket:chademo": "1", "socket:chademo:output": "50 kW", "charging_station:output": "50 kW", "capacity": "2", "_source": "worldwide"}}, {"type": "node", "id": 11711507357, "lat": 52.607851, "lon": -1.672999, "tags": {"amenity": "charging_station", "brand": "Pod Point", "operator": "Pod Point", "name": "Pod Point - Pod Point", "addr:country": "GB", "_source": "worldwide"}}, {"type": "node", "id": 11711619248, "lat": 52.786322, "lon": -1.66437, "tags": {"amenity": "charging_station", "network": "Evyve", "operator": "Evyve", "name": "Ladestation Evyve", "addr:country": "GB", "capacity": "2", "_source": "worldwide"}}, {"type": "node", "id": 11761211305, "lat": 52.907558, "lon": -1.856187, "tags": {"amenity": "charging_station", "access": "yes", "fee": "yes", "brand": "EV Point", "operator": "Tesla", "name": "Tesla - EV Point", "addr:country": "GB", "socket:type2_combo": "8", "socket:type2_combo:output": "250.0 kW", "charging_station:output": "250.0 kW", "capacity": "8", "_source": "worldwide"}}, {"type": "node", "id": 11761211306, "lat": 52.907075, "lon": -1.854834, "tags": {"amenity": "charging_station", "fee": "yes", "brand": "Geniepoint", "operator": "GeniePoint", "name": "GeniePoint - Geniepoint", "addr:country": "GB", "capacity": "1", "_source": "worldwide"}}, {"type": "node", "id": 11770790273, "lat": 52.374321, "lon": -1.260898, "tags": {"amenity": "charging_station", "fee": "yes", "addr:country": "GB", "_source": "worldwide"}}, {"type": "node", "id": 11819523882, "lat": 52.985272, "lon": -1.87395, "tags": {"amenity": "charging_station", "addr:country": "GB", "_source": "worldwide"}}, {"type": "node", "id": 11878990302, "lat": 52.451246, "lon": -1.712578, "tags": {"amenity": "charging_station", "brand": "bp pulse", "operator": "bp pulse", "name": "bp pulse - bp pulse", "addr:country": "GB", "_source": "worldwide"}}, {"type": "node", "id": 1216648198, "lat": 52.451884, "lon": -1.711487, "tags": {"amenity": "charging_station", "fee": "yes", "operator": "SWARCO e-connect", "name": "NEC East 1 Car Park", "addr:country": "GB", "socket:type2": "6", "socket:type2:output": "7.0 kW", "charging_station:output": "7.0 kW", "capacity": "6", "_source": "worldwide"}}, {"type": "node", "id": 11881685109, "lat": 52.771844, "lon": -1.558354, "tags": {"amenity": "charging_station", "access": "yes", "fee": "yes", "brand": "BP Pulse", "operator": "BP Pulse", "name": "BP Pulse - BP Pulse", "addr:country": "GB", "capacity": "8", "_source": "worldwide"}}, {"type": "node", "id": 11897220542, "lat": 52.898649, "lon": -1.150579, "tags": {"amenity": "charging_station", "access": "private", "addr:country": "GB", "capacity": "1", "_source": "worldwide"}}, {"type": "node", "id": 11966148912, "lat": 52.937376, "lon": -1.186953, "tags": {"amenity": "charging_station", "access": "yes", "addr:country": "GB", "_source": "worldwide"}}, {"type": "node", "id": 12573548049, "lat": 52.936081, "lon": -1.188317, "tags": {"amenity": "charging_station", "brand": "RolecEV", "name": "Ladestation RolecEV", "addr:country": "GB", "capacity": "2", "_source": "worldwide"}}, {"type": "node", "id": 12066137288, "lat": 52.973104, "lon": -1.178254, "tags": {"amenity": "charging_station", "addr:country": "GB", "_source": "worldwide"}}, {"type": "node", "id": 12075098142, "lat": 52.214315, "lon": -1.433357, "tags": {"amenity": "charging_station", "access": "yes", "fee": "yes", "brand": "Monta", "operator": "Heart of England Co-operative Society", "name": "Heart of England Co-operative Society - Monta", "addr:country": "GB", "socket:type2": "2", "socket:type2:output": "22.0 kW", "charging_station:output": "22.0 kW", "capacity": "2", "authentication:none": "yes", "_source": "worldwide"}}, {"type": "node", "id": 12088975693, "lat": 52.308773, "lon": -1.905136, "tags": {"amenity": "charging_station", "addr:country": "GB", "capacity": "10", "_source": "worldwide"}}, {"type": "node", "id": 12097244318, "lat": 52.996708, "lon": -1.179592, "tags": {"amenity": "charging_station", "addr:country": "GB", "_source": "worldwide"}}, {"type": "node", "id": 12176546283, "lat": 52.895539, "lon": -1.19283, "tags": {"amenity": "charging_station", "addr:country": "GB", "_source": "worldwide"}}, {"type": "node", "id": 12176633125, "lat": 52.897076, "lon": -1.193696, "tags": {"amenity": "charging_station", "addr:country": "GB", "_source": "worldwide"}}, {"type": "node", "id": 12242072213, "lat": 52.730607, "lon": -1.110057, "tags": {"amenity": "charging_station", "brand": "Blink", "operator": "Blink", "name": "Blink", "addr:country": "GB", "capacity": "6", "_source": "worldwide"}}, {"type": "node", "id": 12408062917, "lat": 52.576521, "lon": -1.547616, "tags": {"amenity": "charging_station", "fee": "yes", "brand": "bp pulse", "operator": "bp pulse", "name": "bp pulse - bp pulse", "addr:country": "GB", "capacity": "2", "_source": "worldwide"}}, {"type": "node", "id": 12496561936, "lat": 52.892168, "lon": -1.452626, "tags": {"amenity": "charging_station", "operator": "evpoint", "name": "Ladestation evpoint", "addr:country": "GB", "capacity": "2", "_source": "worldwide"}}, {"type": "node", "id": 12565503433, "lat": 52.470304, "lon": -1.922787, "tags": {"amenity": "charging_station", "access": "yes", "fee": "yes", "brand": "Source London Charging Station", "operator": "Source London Charging Station", "name": "Source London Charging Station - Source London Charging Station", "addr:country": "GB", "capacity": "2", "_source": "worldwide"}}, {"type": "node", "id": 12600282780, "lat": 52.382252, "lon": -1.265206, "tags": {"amenity": "charging_station", "fee": "yes", "brand": "Gridserve", "opening_hours": "24/7", "operator": "Gridserve", "name": "Gridserve - Gridserve", "addr:postcode": "CV21 1DH", "addr:city": "Rugby", "socket:type2_combo": "6", "socket:type2_combo:output": "350.0 kW", "socket:chademo": "2", "socket:chademo:output": "100.0 kW", "charging_station:output": "350.0 kW", "capacity": "6", "_source": "worldwide"}}, {"type": "node", "id": 12645054432, "lat": 52.602331, "lon": -1.188342, "tags": {"amenity": "charging_station", "access": "yes", "fee": "yes", "operator": "InstaVolt", "name": "Ladestation InstaVolt", "addr:postcode": "LE19 1WZ", "addr:city": "Leicester", "socket:type2": "4", "socket:type2:output": "160.0 kW", "socket:chademo": "4", "socket:chademo:output": "60.0 kW", "charging_station:output": "160.0 kW", "capacity": "4", "_source": "worldwide"}}, {"type": "node", "id": 12650366599, "lat": 52.405922, "lon": -1.46498, "tags": {"amenity": "charging_station", "addr:country": "GB", "_source": "worldwide"}}, {"type": "node", "id": 12655617520, "lat": 52.674059, "lon": -1.841642, "tags": {"amenity": "charging_station", "access": "yes", "fee": "yes", "operator": "Osprey", "name": "Ladestation Osprey", "addr:country": "GB", "socket:type2_combo": "3", "socket:type2_combo:output": "75.0 kW", "socket:chademo": "3", "socket:chademo:output": "50.0 kW", "charging_station:output": "75.0 kW", "capacity": "3", "_source": "worldwide"}}, {"type": "node", "id": 12677097597, "lat": 52.394334, "lon": -1.505774, "tags": {"amenity": "charging_station", "addr:country": "GB", "_source": "worldwide"}}, {"type": "node", "id": 12703319561, "lat": 52.971823, "lon": -1.31103, "tags": {"amenity": "charging_station", "access": "yes", "fee": "yes", "brand": "BP Pulse", "operator": "BP Pulse", "name": "BP Pulse - BP Pulse", "addr:country": "GB", "_source": "worldwide"}}, {"type": "node", "id": 12732778191, "lat": 52.402618, "lon": -1.557807, "tags": {"amenity": "charging_station", "access": "yes", "fee": "yes", "operator": "InstaVolt", "name": "Coventry Hub", "addr:country": "GB", "capacity": "1", "_source": "worldwide"}}, {"type": "node", "id": 12768817722, "lat": 52.938606, "lon": -1.121518, "tags": {"amenity": "charging_station", "operator": "Evyve", "name": "Ladestation Evyve", "addr:country": "GB", "capacity": "2", "_source": "worldwide"}}, {"type": "node", "id": 12772902004, "lat": 52.94452, "lon": -1.502753, "tags": {"amenity": "charging_station", "brand": "bp pulse", "operator": "bp pulse", "name": "bp pulse - bp pulse", "addr:country": "GB", "capacity": "2", "_source": "worldwide"}}, {"type": "node", "id": 12818906307, "lat": 52.955377, "lon": -1.229081, "tags": {"amenity": "charging_station", "addr:country": "GB", "_source": "worldwide"}}, {"type": "node", "id": 12881055558, "lat": 52.667574, "lon": -1.167562, "tags": {"amenity": "charging_station", "access": "yes", "fee": "yes", "brand": "Tesla Supercharger", "opening_hours": "24/7", "operator": "Tesla", "name": "Leicester Supercharger", "addr:country": "GB", "socket:type2_combo": "12", "socket:type2_combo:output": "250.0 kW", "charging_station:output": "250.0 kW", "capacity": "12", "_source": "worldwide"}}, {"type": "node", "id": 12902690261, "lat": 52.44975, "lon": -1.848212, "tags": {"amenity": "charging_station", "access": "yes", "fee": "yes", "brand": "EV On The Move", "operator": "Tesla", "name": "Tesla - EV On The Move", "addr:country": "GB", "socket:type2_combo": "8", "socket:type2_combo:output": "250.0 kW", "charging_station:output": "250.0 kW", "capacity": "8", "_source": "worldwide"}}, {"type": "node", "id": 12921820446, "lat": 52.47275, "lon": -1.547689, "tags": {"amenity": "charging_station", "operator": "InstaVolt", "name": "Ladestation InstaVolt", "addr:country": "GB", "_source": "worldwide"}}, {"type": "node", "id": 1392846359, "lat": 52.472012, "lon": -1.547624, "tags": {"amenity": "charging_station", "brand": "Gridserve", "opening_hours": "24/7", "operator": "Gridserve", "name": "Gridserve", "addr:postcode": "CV7 8NR", "addr:city": "Warwickshire", "socket:type2": "1", "socket:type2:output": "22.0 kW", "socket:type2_combo": "2", "socket:type2_combo:output": "45.0 kW", "socket:chademo": "2", "socket:chademo:output": "50.0 kW", "charging_station:output": "50.0 kW", "capacity": "4", "_source": "worldwide"}}, {"type": "node", "id": 12943163184, "lat": 52.074056, "lon": -1.33839, "tags": {"amenity": "charging_station", "access": "yes", "fee": "yes", "operator": "Pod Point", "name": "Ladestation Pod Point", "addr:country": "GB", "capacity": "6", "_source": "worldwide"}}, {"type": "node", "id": 13011258117, "lat": 52.272173, "lon": -1.535, "tags": {"amenity": "charging_station", "addr:country": "GB", "capacity": "2", "_source": "worldwide"}}, {"type": "node", "id": 13013479723, "lat": 52.069283, "lon": -1.339821, "tags": {"amenity": "charging_station", "brand": "Shell Recharge", "name": "Ladestation Shell Recharge", "addr:country": "GB", "socket:type2_combo": "2", "socket:type2_combo:output": "50 kW", "charging_station:output": "50 kW", "capacity": "2", "_source": "worldwide"}}, {"type": "node", "id": 13084906323, "lat": 52.068143, "lon": -1.339762, "tags": {"amenity": "charging_station", "operator": "EVBox", "name": "Ladestation EVBox", "addr:country": "GB", "socket:type2": "2", "socket:type2:output": "22 kW", "charging_station:output": "22 kW", "capacity": "2", "_source": "worldwide"}}, {"type": "node", "id": 13027008001, "lat": 52.906958, "lon": -1.236112, "tags": {"amenity": "charging_station", "name": "Evyee", "addr:country": "GB", "_source": "worldwide"}}, {"type": "node", "id": 13118843635, "lat": 52.931312, "lon": -1.103456, "tags": {"amenity": "charging_station", "operator": "Osprey", "name": "Ladestation Osprey", "addr:country": "GB", "capacity": "1", "_source": "worldwide"}}, {"type": "node", "id": 13186526172, "lat": 52.891684, "lon": -1.202141, "tags": {"amenity": "charging_station", "addr:country": "GB", "_source": "worldwide"}}, {"type": "node", "id": 13186526173, "lat": 52.890448, "lon": -1.204469, "tags": {"amenity": "charging_station", "addr:country": "GB", "_source": "worldwide"}}, {"type": "node", "id": 13186526174, "lat": 52.889562, "lon": -1.205699, "tags": {"amenity": "charging_station", "addr:country": "GB", "_source": "worldwide"}}, {"type": "node", "id": 13186526175, "lat": 52.889346, "lon": -1.206357, "tags": {"amenity": "charging_station", "addr:country": "GB", "_source": "worldwide"}}, {"type": "node", "id": 13186526176, "lat": 52.893174, "lon": -1.200239, "tags": {"amenity": "charging_station", "addr:country": "GB", "_source": "worldwide"}}, {"type": "node", "id": 13186526177, "lat": 52.893478, "lon": -1.199685, "tags": {"amenity": "charging_station", "addr:country": "GB", "_source": "worldwide"}}, {"type": "node", "id": 1442200244, "lat": 52.892582, "lon": -1.200435, "tags": {"amenity": "charging_station", "addr:country": "GB", "capacity": "7", "_source": "worldwide"}}, {"type": "node", "id": 1442200276, "lat": 52.892032, "lon": -1.200756, "tags": {"amenity": "charging_station", "addr:country": "GB", "capacity": "10", "_source": "worldwide"}}, {"type": "node", "id": 13288060559, "lat": 52.920522, "lon": -1.504725, "tags": {"amenity": "charging_station", "brand": "Gridserve", "opening_hours": "24/7", "operator": "Gridserve", "name": "Gridserve", "addr:postcode": "DE22 3FA", "addr:city": "Derby", "socket:type2_combo": "10", "socket:type2_combo:output": "180.0 kW", "socket:chademo": "2", "socket:chademo:output": "80.0 kW", "charging_station:output": "180.0 kW", "_source": "worldwide"}}, {"type": "node", "id": 13307454252, "lat": 52.553803, "lon": -1.733859, "tags": {"amenity": "charging_station", "operator": "Pod Point", "name": "Ladestation Pod Point", "addr:country": "GB", "_source": "worldwide"}}, {"type": "node", "id": 13531672619, "lat": 52.389465, "lon": -1.572277, "tags": {"amenity": "charging_station", "operator": "Rolec", "name": "Ladestation Rolec", "addr:country": "GB", "_source": "worldwide"}}, {"type": "node", "id": 13555567183, "lat": 52.553162, "lon": -1.886125, "tags": {"amenity": "charging_station", "fee": "yes", "addr:country": "GB", "capacity": "2", "_source": "worldwide"}}, {"type": "node", "id": 13585085096, "lat": 52.924724, "lon": -1.110795, "tags": {"amenity": "charging_station", "operator": "Polar", "name": "Ladestation Polar", "addr:country": "GB", "capacity": "2", "_source": "worldwide"}}, {"type": "node", "id": 13617501990, "lat": 52.913427, "lon": -1.476279, "tags": {"amenity": "charging_station", "brand": "bp pulse", "operator": "bp pulse", "name": "bp pulse - bp pulse", "addr:country": "GB", "_source": "worldwide"}}, {"type": "node", "id": 1226464994, "lat": 52.914606, "lon": -1.478024, "tags": {"amenity": "charging_station", "brand": "Power & Go", "name": "Ladestation Power & Go", "addr:country": "GB", "capacity": "4", "_source": "worldwide"}}, {"type": "node", "id": 1226464996, "lat": 52.915605, "lon": -1.47885, "tags": {"amenity": "charging_station", "operator": "InstaVolt", "name": "Ladestation InstaVolt", "addr:country": "GB", "capacity": "8", "_source": "worldwide"}}, {"type": "node", "id": 13625801379, "lat": 52.336351, "lon": -1.585592, "tags": {"amenity": "charging_station", "addr:country": "GB", "_source": "worldwide"}}, {"type": "node", "id": 13645978284, "lat": 52.5347, "lon": -1.919031, "tags": {"amenity": "charging_station", "fee": "yes", "opening_hours": "24/7", "addr:country": "GB", "capacity": "2", "_source": "worldwide"}}, {"type": "node", "id": 13648060477, "lat": 52.640026, "lon": -1.835161, "tags": {"amenity": "charging_station", "addr:country": "GB", "_source": "worldwide"}}, {"type": "node", "id": 13662462310, "lat": 52.579684, "lon": -1.048435, "tags": {"amenity": "charging_station", "brand": "ChargePoint", "operator": "ChargePoint", "name": "ChargePoint", "addr:country": "GB", "_source": "worldwide"}}, {"type": "node", "id": 13683534821, "lat": 52.750638, "lon": -1.368225, "tags": {"amenity": "charging_station", "brand": "Pod Point", "operator": "Pod Point", "name": "Pod Point - Pod Point", "addr:country": "GB", "_source": "worldwide"}}, {"type": "node", "id": 13724806468, "lat": 52.190137, "lon": -1.712127, "tags": {"amenity": "charging_station", "addr:country": "GB", "_source": "worldwide"}}, {"type": "node", "id": 13724953772, "lat": 52.194463, "lon": -1.717532, "tags": {"amenity": "charging_station", "operator": "EV Power", "name": "Ladestation EV Power", "addr:country": "GB", "_source": "worldwide"}}, {"type": "node", "id": 941020190, "lat": 52.080832, "lon": -1.332903, "tags": {"amenity": "charging_station", "access": "private", "brand": "EO Charging", "operator": "Amazon", "name": "Amazon Prime EV Network", "addr:country": "GB", "capacity": "20", "_source": "worldwide"}}, {"type": "node", "id": 990566686, "lat": 52.616313, "lon": -1.952201, "tags": {"amenity": "charging_station", "operator": "Instavolt", "name": "Ladestation Instavolt", "addr:country": "GB", "capacity": "2", "_source": "worldwide"}}, {"type": "node", "id": 1060236841, "lat": 52.071116, "lon": -1.316434, "tags": {"amenity": "charging_station", "opening_hours": "24/7", "operator": "InstaVolt", "name": "InstaVolt", "addr:country": "GB", "socket:chademo": "16", "socket:chademo:output": "50 kW", "socket:type1_combo": "16", "socket:type1_combo:output": "50 kW", "charging_station:output": "50 kW", "capacity": "32", "_source": "worldwide"}}, {"type": "node", "id": 1216648195, "lat": 52.446134, "lon": -1.713208, "tags": {"amenity": "charging_station", "fee": "yes", "opening_hours": "24/7", "operator": "SWARCO e-connect", "name": "NEC South 7 Car PArk", "addr:country": "GB", "socket:type2": "6", "socket:type2:output": "22 kW", "charging_station:output": "22 kW", "capacity": "6", "_source": "worldwide"}}, {"type": "node", "id": 1216648196, "lat": 52.457692, "lon": -1.715588, "tags": {"amenity": "charging_station", "fee": "yes", "operator": "SWARCO e-connect", "name": "NEC North 2 Car Park", "addr:country": "GB", "socket:type2": "2", "socket:type2:output": "7.0 kW", "charging_station:output": "7.0 kW", "capacity": "2", "_source": "worldwide"}}, {"type": "node", "id": 1216648197, "lat": 52.455934, "lon": -1.714836, "tags": {"amenity": "charging_station", "access": "staff", "fee": "yes", "operator": "SWARCO e-connect", "name": "Ladestation SWARCO e-connect", "addr:country": "GB", "socket:type2": "4", "socket:type2:output": "22.0 kW", "charging_station:output": "22.0 kW", "capacity": "4", "_source": "worldwide"}}, {"type": "node", "id": 1216648201, "lat": 52.455511, "lon": -1.715435, "tags": {"amenity": "charging_station", "access": "staff", "addr:country": "GB", "socket:type2": "6", "socket:type2:output": "7.0 kW", "charging_station:output": "7.0 kW", "capacity": "6", "_source": "worldwide"}}, {"type": "node", "id": 1239428641, "lat": 52.245456, "lon": -1.390246, "tags": {"amenity": "charging_station", "access": "yes", "fee": "yes", "brand": "Shell", "operator": "Shell", "name": "Shell - Shell", "addr:country": "GB", "capacity": "5", "_source": "worldwide"}}, {"type": "node", "id": 1290324445, "lat": 52.764803, "lon": -1.228479, "tags": {"amenity": "charging_station", "addr:country": "GB", "_source": "worldwide"}}, {"type": "node", "id": 1302359868, "lat": 52.602477, "lon": -1.105766, "tags": {"amenity": "charging_station", "addr:country": "GB", "wheelchair": "yes", "_source": "worldwide"}}, {"type": "node", "id": 1328657839, "lat": 52.191654, "lon": -1.484778, "tags": {"amenity": "charging_station", "access": "private", "fee": "no", "operator": "Jaguar Land Rover", "name": "Triangle Charging Hub", "addr:country": "GB", "capacity": "80", "_source": "worldwide"}}, {"type": "node", "id": 1328657840, "lat": 52.192827, "lon": -1.483019, "tags": {"amenity": "charging_station", "access": "private", "fee": "no", "operator": "Jaguar Land Rover", "name": "B555 Charging Hub", "addr:country": "GB", "capacity": "60", "_source": "worldwide"}}, {"type": "node", "id": 1378388698, "lat": 52.403989, "lon": -1.564485, "tags": {"amenity": "charging_station", "access": "yes", "addr:country": "GB", "capacity": "3", "_source": "worldwide"}}, {"type": "node", "id": 1388838068, "lat": 52.988027, "lon": -1.212133, "tags": {"amenity": "charging_station", "brand": "Gridserve", "opening_hours": "24/7", "operator": "Gridserve", "name": "Gridserve - Gridserve", "addr:postcode": "NG16 1AE", "addr:city": "Nottingham", "socket:type2_combo": "6", "socket:type2_combo:output": "360.0 kW", "charging_station:output": "360.0 kW", "_source": "worldwide"}}, {"type": "node", "id": 1388839396, "lat": 52.9621, "lon": -1.266746, "tags": {"amenity": "charging_station", "brand": "Gridserve", "opening_hours": "24/7", "operator": "Gridserve", "name": "Gridserve - Gridserve", "addr:postcode": "NG9 3PL", "addr:city": "Nottingham", "socket:type2": "2", "socket:type2:output": "11.0 kW", "socket:chademo": "1", "socket:chademo:output": "50.0 kW", "charging_station:output": "50.0 kW", "_source": "worldwide"}}, {"type": "node", "id": 1388840149, "lat": 52.961827, "lon": -1.26925, "tags": {"amenity": "charging_station", "brand": "Gridserve", "opening_hours": "24/7", "operator": "Gridserve", "name": "Gridserve - Gridserve", "addr:postcode": "NG9 3PL", "addr:city": "Nottingham", "socket:type2": "2", "socket:type2:output": "11.0 kW", "socket:type2_combo": "3", "socket:type2_combo:output": "50.0 kW", "socket:chademo": "1", "socket:chademo:output": "50.0 kW", "charging_station:output": "50.0 kW", "capacity": "4", "_source": "worldwide"}}, {"type": "node", "id": 1388854119, "lat": 52.867856, "lon": -1.366559, "tags": {"amenity": "charging_station", "brand": "Gridserve", "opening_hours": "24/7", "operator": "Gridserve", "name": "Gridserve - Gridserve", "addr:postcode": "DE72 2WA", "addr:city": "Derby", "socket:type2": "1", "socket:type2:output": "22.0 kW", "socket:type2_combo": "1", "socket:type2_combo:output": "50.0 kW", "socket:chademo": "1", "socket:chademo:output": "50.0 kW", "charging_station:output": "50.0 kW", "_source": "worldwide"}}, {"type": "node", "id": 1388854342, "lat": 52.8683, "lon": -1.371549, "tags": {"amenity": "charging_station", "brand": "Gridserve", "opening_hours": "24/7", "operator": "Gridserve", "name": "Gridserve - Gridserve", "addr:postcode": "DE72 2WW", "addr:city": "Derby", "socket:type2": "1", "socket:type2:output": "22.0 kW", "socket:type2_combo": "1", "socket:type2_combo:output": "50.0 kW", "socket:chademo": "1", "socket:chademo:output": "50.0 kW", "charging_station:output": "50.0 kW", "_source": "worldwide"}}, {"type": "node", "id": 1390767033, "lat": 52.71931, "lon": -1.125191, "tags": {"amenity": "charging_station", "brand": "Gridserve", "opening_hours": "Mo-Fr 06:00-21:00; Sa 07:00-18:00; Su 10:30-16:30", "operator": "Gridserve", "name": "Gridserve - Gridserve", "addr:postcode": "LE7 7NL", "addr:city": "Leicester", "socket:type2": "2", "socket:type2:output": "22.0 kW", "socket:chademo": "2", "socket:chademo:output": "80.0 kW", "charging_station:output": "80.0 kW", "_source": "worldwide"}}, {"type": "node", "id": 1390768969, "lat": 52.657721, "lon": -1.083399, "tags": {"amenity": "charging_station", "brand": "Gridserve", "opening_hours": "24/7", "operator": "Gridserve", "name": "Gridserve - Gridserve", "addr:postcode": "LE4 9LP", "addr:city": "Leicester", "socket:type2_combo": "6", "socket:type2_combo:output": "360.0 kW", "charging_station:output": "360.0 kW", "_source": "worldwide"}}, {"type": "node", "id": 1390769986, "lat": 52.664767, "lon": -1.96659, "tags": {"amenity": "charging_station", "brand": "Gridserve", "opening_hours": "24/7", "operator": "Gridserve", "name": "Gridserve - Gridserve", "addr:postcode": "WS11 9UX", "addr:city": "Cannock", "socket:type2": "2", "socket:type2:output": "11.0 kW", "socket:type2_combo": "3", "socket:type2_combo:output": "45.0 kW", "socket:chademo": "1", "socket:chademo:output": "50.0 kW", "charging_station:output": "50.0 kW", "capacity": "6", "_source": "worldwide"}}, {"type": "node", "id": 1391056057, "lat": 52.60783, "lon": -1.641316, "tags": {"amenity": "charging_station", "brand": "Gridserve", "opening_hours": "24/7", "operator": "Gridserve", "name": "Gridserve", "addr:postcode": "B77 5PS", "addr:city": "Freasley", "socket:type2": "2", "socket:type2:output": "11.0 kW", "socket:type2_combo": "1", "socket:type2_combo:output": "50.0 kW", "socket:chademo": "1", "socket:chademo:output": "50.0 kW", "charging_station:output": "50.0 kW", "_source": "worldwide"}}, {"type": "node", "id": 1392403982, "lat": 52.452333, "lon": -1.731163, "tags": {"amenity": "charging_station", "opening_hours": "24/7", "addr:postcode": "B26 3QJ", "addr:city": "Birmingham", "socket:type2": "1", "socket:type2:output": "22.0 kW", "socket:type2_combo": "3", "socket:type2_combo:output": "35.0 kW", "socket:chademo": "1", "socket:chademo:output": "60.0 kW", "charging_station:output": "60.0 kW", "_source": "worldwide"}}, {"type": "node", "id": 1392846718, "lat": 52.470578, "lon": -1.54602, "tags": {"amenity": "charging_station", "brand": "Gridserve", "opening_hours": "24/7", "operator": "Gridserve", "name": "Gridserve", "addr:postcode": "CV7 8NR", "addr:city": "Warwickshire", "socket:type2": "1", "socket:type2:output": "22.0 kW", "socket:chademo": "1", "socket:chademo:output": "40.0 kW", "charging_station:output": "40.0 kW", "_source": "worldwide"}}, {"type": "node", "id": 1395180531, "lat": 52.230463, "lon": -1.019674, "tags": {"amenity": "charging_station", "access": "yes", "fee": "yes", "brand": "EV Point", "name": "Ladestation EV Point", "addr:country": "GB", "capacity": "8", "_source": "worldwide"}}, {"type": "node", "id": 1425586197, "lat": 52.822401, "lon": -1.429643, "tags": {"amenity": "charging_station", "access": "yes", "brand": "BP", "name": "Ladestation BP", "addr:country": "GB", "socket:type2": "8", "socket:type2:output": "22 kW", "charging_station:output": "22 kW", "_source": "worldwide"}}, {"type": "node", "id": 1494140365, "lat": 52.556677, "lon": -1.97505, "tags": {"amenity": "charging_station", "access": "yes", "fee": "yes", "brand": "Lidl", "name": "Lidl Charging Station", "addr:country": "GB", "capacity": "5", "_source": "worldwide"}}]}