{"id": "22-120", "latMin": 22, "lonMin": 120, "latMax": 23, "lonMax": 121, "generated": "2026-04-16T18:39:07.242Z", "count": 37, "pois": [{"type": "node", "id": 1728838539, "lat": 22.982847, "lon": 120.211556, "tags": {"amenity": "charging_station", "opening_hours": "24/7", "brand": "台塑石油", "name": "Gogoro 換電站 台亞大同路加油站", "addr:city": "臺南市", "_source": "worldwide"}}, {"type": "node", "id": 4471526466, "lat": 22.970179, "lon": 120.252021, "tags": {"amenity": "charging_station", "name": "EV Charging Station", "_source": "worldwide"}}, {"type": "node", "id": 4748808798, "lat": 22.975016, "lon": 120.194785, "tags": {"amenity": "charging_station", "name": "gogoro換電站", "_source": "worldwide"}}, {"type": "node", "id": 4748808799, "lat": 22.988294, "lon": 120.18711, "tags": {"amenity": "charging_station", "name": "gogoro換電站", "_source": "worldwide"}}, {"type": "node", "id": 4891402226, "lat": 22.9811, "lon": 120.202, "tags": {"amenity": "charging_station", "name": "EV Charging Station", "_source": "worldwide"}}, {"type": "node", "id": 5659688025, "lat": 22.59517, "lon": 120.608293, "tags": {"amenity": "charging_station", "operator": "萬金停車場", "name": "萬金停車場", "_source": "worldwide"}}, {"type": "node", "id": 6297010606, "lat": 22.659224, "lon": 120.558425, "tags": {"amenity": "charging_station", "fee": "no", "name": "手機充電站", "_source": "worldwide"}}, {"type": "node", "id": 6564155289, "lat": 22.977618, "lon": 120.186424, "tags": {"amenity": "charging_station", "name": "EV Charging Station", "_source": "worldwide"}}, {"type": "node", "id": 6564155293, "lat": 22.984292, "lon": 120.194509, "tags": {"amenity": "charging_station", "name": "EV Charging Station", "_source": "worldwide"}}, {"type": "node", "id": 7362267899, "lat": 22.199167, "lon": 120.689724, "tags": {"amenity": "charging_station", "brand": "Gogoro 電池交換站", "operator": "Gogoro 電池交換站", "name": "Gogoro 電池交換站", "addr:street": "舊庄路", "addr:housenumber": "53", "addr:city": "屏東縣", "addr:country": "TW", "_source": "worldwide"}}, {"type": "node", "id": 7362267900, "lat": 22.382767, "lon": 120.595769, "tags": {"amenity": "charging_station", "brand": "Gogoro Network", "operator": "英屬開曼群島商睿能新動力股份有限公司台灣分公司", "name": "Gogoro 電池交換站", "addr:street": "中山路二段", "addr:housenumber": "143", "addr:city": "屏東縣", "addr:country": "TW", "_source": "worldwide"}}, {"type": "node", "id": 7362267901, "lat": 22.291616, "lon": 120.88115, "tags": {"amenity": "charging_station", "brand": "Gogoro 電池交換站", "operator": "Gogoro 電池交換站", "name": "Gogoro 電池交換站", "addr:street": "森永", "addr:housenumber": "216", "addr:city": "臺東縣", "addr:country": "TW", "_source": "worldwide"}}, {"type": "node", "id": 7362267902, "lat": 22.341632, "lon": 120.89485, "tags": {"amenity": "charging_station", "brand": "Gogoro 電池交換站", "operator": "Gogoro 電池交換站", "name": "Gogoro 電池交換站", "addr:street": "尚武路", "addr:housenumber": "8", "addr:city": "臺東縣", "addr:country": "TW", "_source": "worldwide"}}, {"type": "node", "id": 10222712389, "lat": 22.990233, "lon": 120.246338, "tags": {"amenity": "charging_station", "brand": "Gogoro 電池交換站", "operator": "Gogoro 電池交換站", "name": "Gogoro 電池交換站", "_source": "worldwide"}}, {"type": "node", "id": 10274571942, "lat": 22.992058, "lon": 120.190815, "tags": {"amenity": "charging_station", "brand": "Gogoro 電池交換站", "operator": "Gogoro 電池交換站", "name": "Gogoro 電池交換站", "_source": "worldwide"}}, {"type": "node", "id": 10274571943, "lat": 22.992132, "lon": 120.188843, "tags": {"amenity": "charging_station", "brand": "Gogoro 電池交換站", "operator": "Gogoro 電池交換站", "name": "Gogoro 電池交換站", "_source": "worldwide"}}, {"type": "node", "id": 10649144664, "lat": 22.990205, "lon": 120.244592, "tags": {"amenity": "charging_station", "fee": "yes", "access": "yes", "brand": "U-Power", "operator": "U-Power", "name": "U-Power 台南裕農站", "_source": "worldwide"}}, {"type": "node", "id": 10708679892, "lat": 22.88367, "lon": 120.247793, "tags": {"amenity": "charging_station", "brand": "Gogoro 電池交換站", "operator": "Gogoro 電池交換站", "name": "Gogoro 電池交換站", "_source": "worldwide"}}, {"type": "node", "id": 10811773670, "lat": 22.995598, "lon": 120.216595, "tags": {"amenity": "charging_station", "brand": "Gogoro 電池交換站", "operator": "Gogoro 電池交換站", "name": "Gogoro 電池交換站", "_source": "worldwide"}}, {"type": "node", "id": 11449027347, "lat": 22.999765, "lon": 120.22924, "tags": {"amenity": "charging_station", "access": "yes", "brand": "Gogoro 電池交換站", "operator": "Gogoro 電池交換站", "name": "Gogoro 電池交換站", "_source": "worldwide"}}, {"type": "node", "id": 11928231180, "lat": 22.597763, "lon": 120.307719, "tags": {"amenity": "charging_station", "brand": "Gogoro 電池交換站", "operator": "Gogoro 電池交換站", "name": "Gogoro 電池交換站", "_source": "worldwide"}}, {"type": "node", "id": 12065736474, "lat": 22.995939, "lon": 120.171494, "tags": {"amenity": "charging_station", "brand": "Gogoro 電池交換站", "operator": "Gogoro 電池交換站", "name": "Gogoro 電池交換站", "_source": "worldwide"}}, {"type": "node", "id": 12091773063, "lat": 22.987597, "lon": 120.231333, "tags": {"amenity": "charging_station", "brand": "Gogoro 電池交換站", "operator": "Gogoro 電池交換站", "name": "Gogoro 電池交換站", "_source": "worldwide"}}, {"type": "node", "id": 12373004228, "lat": 22.623439, "lon": 120.294183, "tags": {"amenity": "charging_station", "access": "yes", "brand": "Ionex光陽電動車", "operator": "光陽機車", "name": "iONEX電池交換站", "_source": "worldwide"}}, {"type": "node", "id": 12617537009, "lat": 22.984192, "lon": 120.220219, "tags": {"amenity": "charging_station", "brand": "Gogoro 電池交換站", "operator": "Gogoro 電池交換站", "name": "Gogoro 電池交換站", "_source": "worldwide"}}, {"type": "node", "id": 12633322549, "lat": 22.982468, "lon": 120.208894, "tags": {"amenity": "charging_station", "brand": "Gogoro 電池交換站", "operator": "Gogoro 電池交換站", "name": "Gogoro 電池交換站", "_source": "worldwide"}}, {"type": "node", "id": 12750043254, "lat": 22.999036, "lon": 120.208779, "tags": {"amenity": "charging_station", "brand": "Gogoro 電池交換站", "operator": "Gogoro 電池交換站", "name": "Gogoro 電池交換站", "_source": "worldwide"}}, {"type": "node", "id": 12808907170, "lat": 22.99312, "lon": 120.192159, "tags": {"amenity": "charging_station", "brand": "Gogoro 電池交換站", "operator": "Gogoro 電池交換站", "name": "Gogoro 電池交換站", "_source": "worldwide"}}, {"type": "node", "id": 12841027045, "lat": 22.046216, "lon": 120.696984, "tags": {"amenity": "charging_station", "name": "EV Charging Station", "_source": "worldwide"}}, {"type": "node", "id": 12854631905, "lat": 22.624126, "lon": 120.269497, "tags": {"amenity": "charging_station", "name": "EV Charging Station", "_source": "worldwide"}}, {"type": "node", "id": 13032175169, "lat": 22.66386, "lon": 120.315089, "tags": {"amenity": "charging_station", "brand": "星洲快充充電站", "name": "星洲快充充電站", "capacity": "4", "_source": "worldwide"}}, {"type": "node", "id": 13032230744, "lat": 22.662762, "lon": 120.313108, "tags": {"amenity": "charging_station", "brand": "City Charging", "name": "City Charging", "capacity": "2", "_source": "worldwide"}}, {"type": "node", "id": 13051506407, "lat": 22.991054, "lon": 120.23397, "tags": {"amenity": "charging_station", "brand": "Gogoro 電池交換站", "operator": "Gogoro 電池交換站", "name": "Gogoro 電池交換站", "_source": "worldwide"}}, {"type": "node", "id": 13357507837, "lat": 22.991156, "lon": 120.210566, "tags": {"amenity": "charging_station", "brand": "Gogoro 電池交換站", "operator": "Gogoro 電池交換站", "name": "Gogoro 電池交換站", "_source": "worldwide"}}, {"type": "node", "id": 13357598541, "lat": 22.882552, "lon": 120.495241, "tags": {"amenity": "charging_station", "brand": "Gogoro 電池交換站", "operator": "Gogoro 電池交換站", "name": "Gogoro 電池交換站", "_source": "worldwide"}}, {"type": "node", "id": 13416806247, "lat": 22.611946, "lon": 120.267936, "tags": {"amenity": "charging_station", "brand": "Gogoro 電池交換站", "operator": "Gogoro 電池交換站", "name": "Gogoro 電池交換站", "_source": "worldwide"}}, {"type": "node", "id": 13637295502, "lat": 22.996648, "lon": 120.218015, "tags": {"amenity": "charging_station", "name": "EV Charging Station", "_source": "worldwide"}}]}