{"id": "57--4", "latMin": 57, "lonMin": -4, "latMax": 58, "lonMax": -3, "generated": "2026-04-16T18:39:08.764Z", "count": 43, "pois": [{"type": "node", "id": 3396242774, "lat": 57.335191, "lon": -4.481066, "tags": {"amenity": "charging_station", "fee": "no", "operator": "evolt", "name": "Ladestation evolt", "addr:country": "GB", "socket:type2": "1", "socket:type2:output": "22 kW", "socket:type2_combo": "1", "socket:type2_combo:output": "50 kW", "socket:chademo": "1", "socket:chademo:output": "50 kW", "charging_station:output": "50 kW", "capacity": "2", "_source": "worldwide"}}, {"type": "node", "id": 4203285042, "lat": 57.473854, "lon": -4.229157, "tags": {"amenity": "charging_station", "brand": "EVolt", "operator": "ChargePlace Scotland", "name": "ChargePlace Scotland - EVolt", "addr:country": "GB", "capacity": "2", "_source": "worldwide"}}, {"type": "node", "id": 4523969233, "lat": 57.811242, "lon": -4.055688, "tags": {"amenity": "charging_station", "addr:country": "GB", "_source": "worldwide"}}, {"type": "node", "id": 4618853635, "lat": 57.48066, "lon": -4.224787, "tags": {"amenity": "charging_station", "operator": "evolt", "name": "Ladestation evolt", "addr:country": "GB", "capacity": "1", "_source": "worldwide"}}, {"type": "node", "id": 9931178339, "lat": 57.481714, "lon": -4.225473, "tags": {"amenity": "charging_station", "access": "yes", "fee": "yes", "brand": "Tesla Supercharger", "opening_hours": "24/7", "operator": "Tesla", "name": "Inverness Supercharger", "addr:street": "Rose Street 24", "addr:postcode": "IV1 1NQ", "addr:city": "Inverness", "addr:country": "GB", "socket:type2_combo": "6", "socket:type2_combo:output": "250.0 kW", "charging_station:output": "250.0 kW", "capacity": "6", "_source": "worldwide"}}, {"type": "node", "id": 10937242376, "lat": 57.480838, "lon": -4.225653, "tags": {"amenity": "charging_station", "access": "no", "brand": "evolt", "operator": "evolt", "name": "Evolt EV Quick Charger", "addr:country": "GB", "socket:type2_combo": "1", "socket:type2_combo:output": "50.0 kW", "socket:chademo": "1", "socket:chademo:output": "50.0 kW", "charging_station:output": "50.0 kW", "capacity": "1", "_source": "worldwide"}}, {"type": "node", "id": 12177023682, "lat": 57.484423, "lon": -4.220938, "tags": {"amenity": "charging_station", "fee": "yes", "network": "bp pulse", "operator": "bp pulse", "name": "Ladestation bp pulse", "addr:country": "GB", "socket:type2_combo": "1", "socket:type2_combo:output": "300.0 kW", "socket:chademo": "1", "socket:chademo:output": "120.0 kW", "charging_station:output": "300.0 kW", "capacity": "2", "_source": "worldwide"}}, {"type": "node", "id": 4630871043, "lat": 57.594341, "lon": -4.428255, "tags": {"amenity": "charging_station", "name": "Inchvannie Court Car Park", "addr:country": "GB", "capacity": "2", "_source": "worldwide"}}, {"type": "node", "id": 5921468410, "lat": 57.000478, "lon": -4.317058, "tags": {"amenity": "charging_station", "addr:country": "GB", "capacity": "2", "_source": "worldwide"}}, {"type": "node", "id": 6652236167, "lat": 57.620407, "lon": -4.399341, "tags": {"amenity": "charging_station", "operator": "evolt", "name": "Ladestation evolt", "addr:country": "GB", "_source": "worldwide"}}, {"type": "node", "id": 6790696529, "lat": 57.96048, "lon": -4.408167, "tags": {"amenity": "charging_station", "access": "customers", "fee": "yes", "network": "ChargePlace Scotland", "operator": "ChargePlace Scotland", "name": "Ladestation ChargePlace Scotland", "addr:country": "GB", "socket:type2": "1", "socket:type2:output": "22.0 kW", "socket:type2_combo": "1", "socket:type2_combo:output": "22.0 kW", "socket:chademo": "1", "socket:chademo:output": "22.0 kW", "charging_station:output": "22.0 kW", "capacity": "3", "_source": "worldwide"}}, {"type": "node", "id": 7222704750, "lat": 57.080669, "lon": -4.054895, "tags": {"amenity": "charging_station", "operator": "ChargePlace Scotland", "name": "Gynack Road Car Park Charging Station", "addr:country": "GB", "capacity": "6", "_source": "worldwide"}}, {"type": "node", "id": 9759990974, "lat": 57.08101, "lon": -4.054276, "tags": {"amenity": "charging_station", "operator": "Electric A9", "name": "Ladestation Electric A9", "addr:country": "GB", "capacity": "2", "_source": "worldwide"}}, {"type": "node", "id": 7680007396, "lat": 57.473425, "lon": -4.180794, "tags": {"amenity": "charging_station", "network": "Journey Charger", "operator": "Journey Charger", "name": "Ladestation Journey Charger", "addr:country": "GB", "capacity": "8", "_source": "worldwide"}}, {"type": "node", "id": 8001539604, "lat": 57.482069, "lon": -4.464038, "tags": {"amenity": "charging_station", "network": "ChargePlace Scotland", "operator": "ChargePlace Scotland", "name": "Ladestation ChargePlace Scotland", "addr:country": "GB", "socket:type2": "2", "socket:type2:output": "7.0 kW", "charging_station:output": "7.0 kW", "capacity": "2", "_source": "worldwide"}}, {"type": "node", "id": 8506257039, "lat": 57.58833, "lon": -4.540227, "tags": {"amenity": "charging_station", "access": "yes", "operator": "Charge Place Scotland", "name": "Crystal House, Strathpeffer", "addr:country": "GB", "capacity": "3", "_source": "worldwide"}}, {"type": "node", "id": 9156356227, "lat": 57.587978, "lon": -4.538793, "tags": {"amenity": "charging_station", "network": "ChargePlace Scotland", "operator": "Evolt", "name": "Evolt - ChargePlace Scotland", "addr:country": "GB", "capacity": "2", "_source": "worldwide"}}, {"type": "node", "id": 8506257050, "lat": 57.600525, "lon": -4.448316, "tags": {"amenity": "charging_station", "name": "SNH Dingwall, Dingwall", "addr:country": "GB", "_source": "worldwide"}}, {"type": "node", "id": 8506257051, "lat": 57.601492, "lon": -4.448979, "tags": {"amenity": "charging_station", "name": "SEPA Dingwall", "addr:country": "GB", "_source": "worldwide"}}, {"type": "node", "id": 8506257081, "lat": 57.596412, "lon": -4.432453, "tags": {"amenity": "charging_station", "name": "Dingwall County Buildings", "addr:country": "GB", "_source": "worldwide"}}, {"type": "node", "id": 9917712908, "lat": 57.596159, "lon": -4.429507, "tags": {"amenity": "charging_station", "operator": "Rolec EV", "name": "Ladestation Rolec EV", "addr:country": "GB", "_source": "worldwide"}}, {"type": "node", "id": 9210883524, "lat": 57.21494, "lon": -4.617689, "tags": {"amenity": "charging_station", "operator": "ChargePlace Scotland", "name": "Ladestation ChargePlace Scotland", "addr:country": "GB", "capacity": "2", "_source": "worldwide"}}, {"type": "node", "id": 9537715932, "lat": 57.881771, "lon": -4.363373, "tags": {"amenity": "charging_station", "access": "yes", "fee": "yes", "operator": "eVolt", "name": "Ladestation eVolt", "addr:country": "GB", "socket:type2": "1", "socket:type2:output": "43.0 kW", "socket:type2_combo": "1", "socket:type2_combo:output": "50.0 kW", "socket:chademo": "1", "socket:chademo:output": "50.0 kW", "charging_station:output": "50.0 kW", "capacity": "2", "_source": "worldwide"}}, {"type": "node", "id": 10589853827, "lat": 57.466205, "lon": -4.272791, "tags": {"amenity": "charging_station", "access": "yes", "fee": "no", "operator": "ChargePlace Scotland", "name": "ChargePlace Great Glen House", "addr:country": "GB", "socket:type2": "2", "socket:type2:output": "22.0 kW", "charging_station:output": "22.0 kW", "capacity": "2", "_source": "worldwide"}}, {"type": "node", "id": 10607931343, "lat": 57.533828, "lon": -4.055864, "tags": {"amenity": "charging_station", "access": "yes", "brand": "BP Pulse", "operator": "ChargeMaster", "name": "ChargeMaster - BP Pulse", "addr:country": "GB", "capacity": "2", "_source": "worldwide"}}, {"type": "node", "id": 10650534713, "lat": 57.477009, "lon": -4.192451, "tags": {"amenity": "charging_station", "access": "yes", "addr:country": "GB", "capacity": "2", "_source": "worldwide"}}, {"type": "node", "id": 10650545642, "lat": 57.477516, "lon": -4.186839, "tags": {"amenity": "charging_station", "access": "yes", "addr:country": "GB", "capacity": "2", "_source": "worldwide"}}, {"type": "node", "id": 10650545643, "lat": 57.478411, "lon": -4.186635, "tags": {"amenity": "charging_station", "access": "yes", "addr:country": "GB", "capacity": "2", "_source": "worldwide"}}, {"type": "node", "id": 10692630865, "lat": 57.06582, "lon": -4.12045, "tags": {"amenity": "charging_station", "operator": "Charge Place Scotland", "name": "Ladestation Charge Place Scotland", "addr:country": "GB", "capacity": "2", "_source": "worldwide"}}, {"type": "node", "id": 11068857712, "lat": 57.477299, "lon": -4.091417, "tags": {"amenity": "charging_station", "access": "permissive", "brand": "ChargePoint", "operator": "ChargePlace Scotland", "name": "Culloden Moor", "addr:country": "GB", "socket:type2": "2", "socket:type2:output": "22.0 kW", "charging_station:output": "22.0 kW", "capacity": "2", "_source": "worldwide"}}, {"type": "node", "id": 11079943399, "lat": 57.477776, "lon": -4.181061, "tags": {"amenity": "charging_station", "fee": "yes", "operator": "ChargePlace Scotland", "name": "Ladestation ChargePlace Scotland", "addr:country": "GB", "socket:type2": "2", "socket:type2:output": "22.0 kW", "charging_station:output": "22.0 kW", "capacity": "2", "_source": "worldwide"}}, {"type": "node", "id": 11772600211, "lat": 57.478437, "lon": -4.182853, "tags": {"amenity": "charging_station", "addr:country": "GB", "_source": "worldwide"}}, {"type": "node", "id": 11079962403, "lat": 57.340094, "lon": -4.009713, "tags": {"amenity": "charging_station", "operator": "ChargePlace Scotland", "name": "Ladestation ChargePlace Scotland", "addr:country": "GB", "_source": "worldwide"}}, {"type": "node", "id": 11681335052, "lat": 57.472792, "lon": -4.193526, "tags": {"amenity": "charging_station", "access": "private", "network": "evolt", "operator": "ChargePlace Scotland", "name": "ChargePlace Scotland - evolt", "addr:country": "GB", "capacity": "2", "_source": "worldwide"}}, {"type": "node", "id": 11968771813, "lat": 57.878264, "lon": -4.028915, "tags": {"amenity": "charging_station", "addr:country": "GB", "capacity": "4", "_source": "worldwide"}}, {"type": "node", "id": 12175518160, "lat": 57.486884, "lon": -4.249428, "tags": {"amenity": "charging_station", "fee": "yes", "network": "VendElectric", "operator": "Scottish Canals", "name": "Scottish Canals - VendElectric", "addr:country": "GB", "_source": "worldwide"}}, {"type": "node", "id": 12329280906, "lat": 57.678858, "lon": -4.299108, "tags": {"amenity": "charging_station", "addr:country": "GB", "capacity": "6", "_source": "worldwide"}}, {"type": "node", "id": 12644144062, "lat": 57.482498, "lon": -4.18724, "tags": {"amenity": "charging_station", "brand": "Gridserve", "opening_hours": "24/7", "operator": "Gridserve", "name": "Gridserve", "addr:postcode": "IV2 7PA", "addr:city": "Inverness", "socket:type2_combo": "6", "socket:type2_combo:output": "360.0 kW", "charging_station:output": "360.0 kW", "_source": "worldwide"}}, {"type": "node", "id": 12801555620, "lat": 57.476924, "lon": -4.231061, "tags": {"amenity": "charging_station", "fee": "yes", "network": "Pod Point", "operator": "Pod Point", "name": "Ladestation Pod Point", "addr:country": "GB", "socket:type2": "2", "socket:type2:output": "7.0 kW", "charging_station:output": "7.0 kW", "capacity": "2", "_source": "worldwide"}}, {"type": "node", "id": 13056400197, "lat": 57.462975, "lon": -4.237368, "tags": {"amenity": "charging_station", "fee": "yes", "addr:country": "GB", "capacity": "2", "_source": "worldwide"}}, {"type": "node", "id": 13153798947, "lat": 57.336023, "lon": -4.449154, "tags": {"amenity": "charging_station", "fee": "yes", "addr:country": "GB", "socket:cee_blue": "4", "socket:cee_blue:output": "3.7 kW", "charging_station:output": "3.7 kW", "capacity": "4", "_source": "worldwide"}}, {"type": "node", "id": 13153798949, "lat": 57.336154, "lon": -4.449714, "tags": {"amenity": "charging_station", "fee": "yes", "addr:country": "GB", "socket:cee_blue": "4", "socket:cee_blue:output": "3.7 kW", "charging_station:output": "3.7 kW", "capacity": "4", "_source": "worldwide"}}, {"type": "node", "id": 1329695379, "lat": 57.146654, "lon": -4.682043, "tags": {"amenity": "charging_station", "access": "yes", "fee": "yes", "operator": "ChargePlace Scotland", "name": "Ladestation ChargePlace Scotland", "addr:country": "GB", "capacity": "6", "_source": "worldwide"}}]}