{"id": "44-24", "latMin": 44, "lonMin": 24, "latMax": 45, "lonMax": 25, "generated": "2026-04-16T18:39:08.050Z", "count": 23, "pois": [{"type": "node", "id": 8977307974, "lat": 44.823811, "lon": 24.909505, "tags": {"amenity": "charging_station", "access": "customers", "fee": "yes", "brand": "Tesla Supercharger", "opening_hours": "24/7", "operator": "Tesla", "name": "Pitești Supercharger", "socket:type2_combo": "6", "socket:type2_combo:output": "250.0 kW", "charging_station:output": "250.0 kW", "capacity": "6", "_source": "worldwide"}}, {"type": "node", "id": 9240777481, "lat": 44.12162, "lon": 24.984245, "tags": {"amenity": "charging_station", "operator": "Enel", "name": "Ladestation Enel", "_source": "worldwide"}}, {"type": "node", "id": 9946556885, "lat": 44.945143, "lon": 24.70067, "tags": {"amenity": "charging_station", "access": "yes", "brand": "ELMotion", "name": "Ladestation ELMotion", "capacity": "1", "_source": "worldwide"}}, {"type": "node", "id": 10971833905, "lat": 44.431387, "lon": 24.365682, "tags": {"amenity": "charging_station", "opening_hours": "24/7", "name": "Statie incarcare autovehicule electrice", "addr:street": "Strada Victoriei", "_source": "worldwide"}}, {"type": "node", "id": 10971834005, "lat": 44.431571, "lon": 24.360399, "tags": {"amenity": "charging_station", "fee": "no", "brand": "Polyfazer", "network": "Axionet", "opening_hours": "24/7", "operator": "Altex", "name": "Statie incarcare autovehicule electrice", "capacity": "2", "_source": "worldwide"}}, {"type": "node", "id": 11083409798, "lat": 44.431556, "lon": 24.358566, "tags": {"amenity": "charging_station", "operator": "Kaufland", "name": "Ladestation Kaufland", "_source": "worldwide"}}, {"type": "node", "id": 10971833906, "lat": 44.427642, "lon": 24.382534, "tags": {"amenity": "charging_station", "opening_hours": "24/7", "name": "Statie incarcare autovehicule electrice", "addr:street": "Bulevardul Alexandru Ioan Cuza", "_source": "worldwide"}}, {"type": "node", "id": 10971834105, "lat": 44.64515, "lon": 24.268695, "tags": {"amenity": "charging_station", "opening_hours": "24/7", "operator": "Annabella", "name": "Statie incarcare autovehicule electrice", "addr:street": "Strada Tudor Vladimirescu", "_source": "worldwide"}}, {"type": "node", "id": 11029743727, "lat": 44.435848, "lon": 24.3793, "tags": {"amenity": "charging_station", "_source": "worldwide"}}, {"type": "node", "id": 11032485478, "lat": 44.422093, "lon": 24.385597, "tags": {"amenity": "charging_station", "access": "yes", "fee": "no", "brand": "Lidl", "network": "Lidl", "operator": "Lidl", "name": "Stație încărcat Lidl", "capacity": "2", "_source": "worldwide"}}, {"type": "node", "id": 11141424730, "lat": 44.421297, "lon": 24.384508, "tags": {"amenity": "charging_station", "_source": "worldwide"}}, {"type": "node", "id": 12118686196, "lat": 44.422226, "lon": 24.383237, "tags": {"amenity": "charging_station", "_source": "worldwide"}}, {"type": "node", "id": 13230082443, "lat": 44.42283, "lon": 24.385898, "tags": {"amenity": "charging_station", "brand": "ELDrive", "operator": "ELDrive", "name": "ELDrive - ELDrive", "_source": "worldwide"}}, {"type": "node", "id": 11241040632, "lat": 44.878513, "lon": 24.842048, "tags": {"amenity": "charging_station", "_source": "worldwide"}}, {"type": "node", "id": 11375946436, "lat": 44.428681, "lon": 24.36455, "tags": {"amenity": "charging_station", "_source": "worldwide"}}, {"type": "node", "id": 12259272806, "lat": 44.425887, "lon": 24.37611, "tags": {"amenity": "charging_station", "fee": "yes", "capacity": "2", "_source": "worldwide"}}, {"type": "node", "id": 12605234056, "lat": 44.884944, "lon": 24.834117, "tags": {"amenity": "charging_station", "_source": "worldwide"}}, {"type": "node", "id": 12770216083, "lat": 44.243936, "lon": 24.280747, "tags": {"amenity": "charging_station", "fee": "no", "opening_hours": "24/7", "name": "Stație Încărcare autovehicule electrice", "capacity": "2", "_source": "worldwide"}}, {"type": "node", "id": 13031511562, "lat": 44.866569, "lon": 24.884688, "tags": {"amenity": "charging_station", "fee": "yes", "opening_hours": "24/7", "capacity": "3", "_source": "worldwide"}}, {"type": "node", "id": 13272367165, "lat": 44.345397, "lon": 24.859236, "tags": {"amenity": "charging_station", "_source": "worldwide"}}, {"type": "node", "id": 13337765514, "lat": 44.836599, "lon": 24.88298, "tags": {"amenity": "charging_station", "brand": "ElectricUP", "name": "Ladestation ElectricUP", "_source": "worldwide"}}, {"type": "node", "id": 13354865306, "lat": 44.818091, "lon": 24.93978, "tags": {"amenity": "charging_station", "access": "yes", "fee": "yes", "brand": "Eldrive", "opening_hours": "24/7", "name": "Eldrive - Supernova Pitești", "socket:type2": "1", "socket:type2:output": "22.0 kW", "socket:type2_combo": "13", "socket:type2_combo:output": "600.0 kW", "charging_station:output": "600.0 kW", "capacity": "14", "authentication:none": "", "_source": "worldwide"}}, {"type": "node", "id": 13359894855, "lat": 44.88163, "lon": 24.835963, "tags": {"amenity": "charging_station", "capacity": "150", "_source": "worldwide"}}]}