{"id": "65--21", "latMin": 65, "lonMin": -21, "latMax": 66, "lonMax": -20, "generated": "2026-04-16T18:39:08.807Z", "count": 8, "pois": [{"type": "node", "id": 6723103507, "lat": 65.108284, "lon": -21.762758, "tags": {"amenity": "charging_station", "access": "yes", "fee": "yes", "brand": "ON", "operator": "Orka náttúrunnar", "name": "Búðardalur (Samkaup)", "socket:type2_combo": "2", "socket:type2_combo:output": "100.0 kW", "socket:chademo": "1", "socket:chademo:output": "63.0 kW", "charging_station:output": "100.0 kW", "capacity": "3", "_source": "worldwide"}}, {"type": "node", "id": 9891087124, "lat": 65.144789, "lon": -21.084971, "tags": {"amenity": "charging_station", "access": "customers", "fee": "yes", "brand": "Tesla Supercharger", "opening_hours": "24/7", "operator": "Tesla", "name": "Staðarskáli Supercharger", "addr:street": "Norðurlandsveg", "addr:postcode": "500", "addr:city": "Staður", "socket:type2_combo": "8", "socket:type2_combo:output": "250.0 kW", "charging_station:output": "250.0 kW", "capacity": "8", "_source": "worldwide"}}, {"type": "node", "id": 10825591589, "lat": 65.144174, "lon": -21.084206, "tags": {"amenity": "charging_station", "access": "yes", "fee": "yes", "brand": "N1", "operator": "N1", "name": "N1 Staðarskáli", "socket:type2_combo": "8", "socket:type2_combo:output": "150.0 kW", "charging_station:output": "150.0 kW", "capacity": "8", "_source": "worldwide"}}, {"type": "node", "id": 11929383590, "lat": 65.701182, "lon": -21.68615, "tags": {"amenity": "charging_station", "fee": "yes", "socket:type2": "1", "socket:type2:output": "22 kW", "socket:type2_combo": "1", "socket:type2_combo:output": "50.0 kW", "socket:chademo": "1", "socket:chademo:output": "50.0 kW", "charging_station:output": "50.0 kW", "capacity": "2", "_source": "worldwide"}}, {"type": "node", "id": 11929357506, "lat": 65.780406, "lon": -21.519175, "tags": {"amenity": "charging_station", "operator": "Orkubú Vestfjarða", "name": "Ladestation Orkubú Vestfjarða", "socket:type2": "4", "socket:type2:output": "22.0 kW", "charging_station:output": "22.0 kW", "capacity": "4", "_source": "worldwide"}}, {"type": "node", "id": 12827177194, "lat": 65.688682, "lon": -21.447151, "tags": {"amenity": "charging_station", "access": "yes", "fee": "yes", "operator": "Orkubú Vestfjarða", "name": "Ladestation Orkubú Vestfjarða", "socket:type2": "1", "socket:type2:output": "22.0 kW", "charging_station:output": "22.0 kW", "capacity": "1", "_source": "worldwide"}}, {"type": "node", "id": 12827177200, "lat": 65.944628, "lon": -21.55911, "tags": {"amenity": "charging_station", "access": "yes", "fee": "yes", "operator": "Orkubú Vestfjarða", "name": "Ladestation Orkubú Vestfjarða", "socket:type2": "1", "socket:type2:output": "22.0 kW", "charging_station:output": "22.0 kW", "capacity": "1", "_source": "worldwide"}}, {"type": "node", "id": 12858552350, "lat": 65.706457, "lon": -21.665883, "tags": {"amenity": "charging_station", "operator": "Kempower", "name": "Ladestation Kempower", "socket:type2_combo": "4", "socket:type2_combo:output": "50 kW", "charging_station:output": "50 kW", "capacity": "4", "_source": "worldwide"}}]}