{"id": "18-73", "latMin": 18, "lonMin": 73, "latMax": 19, "lonMax": 74, "generated": "2026-04-16T18:39:07.231Z", "count": 30, "pois": [{"type": "node", "id": 763446417, "lat": 18.496101, "lon": 73.808859, "tags": {"amenity": "charging_station", "name": "EV Charging Station", "_source": "worldwide"}}, {"type": "node", "id": 6116153836, "lat": 18.567214, "lon": 73.771986, "tags": {"amenity": "charging_station", "brand": "PowerUP", "name": "PowerUP", "_source": "worldwide"}}, {"type": "node", "id": 9411828530, "lat": 18.507194, "lon": 73.803773, "tags": {"amenity": "charging_station", "fee": "yes", "access": "yes", "brand": "Ather Energy", "operator": "Ather Energy", "name": "Ather Energy", "_source": "worldwide"}}, {"type": "node", "id": 10013758817, "lat": 18.611154, "lon": 73.783155, "tags": {"amenity": "charging_station", "fee": "yes", "brand": "Tata power", "operator": "Tata power", "name": "Tata power", "addr:street": "Kalewadi Phata-Auto Cluster BRTS Road", "_source": "worldwide"}}, {"type": "node", "id": 10055287289, "lat": 18.991387, "lon": 73.942776, "tags": {"amenity": "charging_station", "fee": "yes", "access": "yes", "brand": "Tata Power", "operator": "Shridha", "name": "Tata Power", "_source": "worldwide"}}, {"type": "node", "id": 10097434142, "lat": 18.509563, "lon": 73.814701, "tags": {"amenity": "charging_station", "brand": "Bolt", "operator": "Bolt", "name": "Bolt", "_source": "worldwide"}}, {"type": "node", "id": 10097434143, "lat": 18.510568, "lon": 73.781902, "tags": {"amenity": "charging_station", "brand": "Ather Energy", "operator": "Ather Energy", "name": "Ather Energy", "_source": "worldwide"}}, {"type": "node", "id": 10097434144, "lat": 18.484496, "lon": 73.849675, "tags": {"amenity": "charging_station", "fee": "yes", "brand": "Ather Energy", "operator": "Ather Energy", "name": "Ather Energy", "_source": "worldwide"}}, {"type": "node", "id": 10097460085, "lat": 18.518977, "lon": 73.830464, "tags": {"amenity": "charging_station", "brand": "Ather Energy", "operator": "Ather Energy", "name": "Ather Energy", "_source": "worldwide"}}, {"type": "node", "id": 10250046452, "lat": 18.553634, "lon": 73.806562, "tags": {"amenity": "charging_station", "access": "yes", "operator": "Tata", "name": "Tata", "_source": "worldwide"}}, {"type": "node", "id": 10285393622, "lat": 18.956177, "lon": 73.162788, "tags": {"amenity": "charging_station", "access": "yes", "brand": "Tata Power", "operator": "Tata Power", "name": "Tata Power", "_source": "worldwide"}}, {"type": "node", "id": 10290789663, "lat": 18.578879, "lon": 73.762489, "tags": {"amenity": "charging_station", "brand": "Go Ego", "name": "Go Ego", "_source": "worldwide"}}, {"type": "node", "id": 10615755147, "lat": 18.511435, "lon": 73.777034, "tags": {"amenity": "charging_station", "access": "yes", "brand": "Bolt", "operator": "Trimurti Motors", "name": "Bolt", "_source": "worldwide"}}, {"type": "node", "id": 10671202586, "lat": 18.585728, "lon": 73.781752, "tags": {"amenity": "charging_station", "fee": "yes", "access": "yes", "brand": "Shell", "operator": "Shell", "name": "Shell", "_source": "worldwide"}}, {"type": "node", "id": 10719100420, "lat": 18.617076, "lon": 73.76731, "tags": {"amenity": "charging_station", "brand": "goEgo Charging Station", "name": "goEgo Charging Station", "_source": "worldwide"}}, {"type": "node", "id": 10797010207, "lat": 18.599869, "lon": 73.754867, "tags": {"amenity": "charging_station", "brand": "Tata power", "operator": "Tata power", "name": "Tata power", "capacity": "1", "_source": "worldwide"}}, {"type": "node", "id": 10797010208, "lat": 18.599598, "lon": 73.754874, "tags": {"amenity": "charging_station", "brand": "Tata power", "operator": "Tata power", "name": "Tata power", "capacity": "1", "_source": "worldwide"}}, {"type": "node", "id": 10841782157, "lat": 18.588764, "lon": 73.78273, "tags": {"amenity": "charging_station", "fee": "yes", "access": "yes", "brand": "Ather Energy", "operator": "Ather Energy", "name": "Ather Energy", "_source": "worldwide"}}, {"type": "node", "id": 10844985580, "lat": 18.577831, "lon": 73.907349, "tags": {"amenity": "charging_station", "fee": "yes", "access": "yes", "name": "EV Charging Station", "_source": "worldwide"}}, {"type": "node", "id": 10870849607, "lat": 18.590664, "lon": 73.745789, "tags": {"amenity": "charging_station", "fee": "yes", "brand": "GoEgo", "name": "GoEgo", "_source": "worldwide"}}, {"type": "node", "id": 11005778506, "lat": 18.563807, "lon": 73.806857, "tags": {"amenity": "charging_station", "fee": "yes", "access": "yes", "brand": "Jio pulse", "name": "Jio pulse", "_source": "worldwide"}}, {"type": "node", "id": 11033745938, "lat": 18.589756, "lon": 73.738172, "tags": {"amenity": "charging_station", "fee": "yes", "brand": "Tata Power", "name": "Tata Power", "_source": "worldwide"}}, {"type": "node", "id": 11217502924, "lat": 18.562331, "lon": 73.806935, "tags": {"amenity": "charging_station", "access": "yes", "brand": "goEgo Charging Station", "operator": "Westend Mall", "name": "goEgo Charging Station", "_source": "worldwide"}}, {"type": "node", "id": 11452082417, "lat": 18.634795, "lon": 73.799051, "tags": {"amenity": "charging_station", "name": "EV Charging Station", "_source": "worldwide"}}, {"type": "node", "id": 11578223404, "lat": 18.460072, "lon": 73.786174, "tags": {"amenity": "charging_station", "operator": "Zeal Energy Services", "name": "Zeal Energy Services", "_source": "worldwide"}}, {"type": "node", "id": 12334310661, "lat": 18.497962, "lon": 73.794178, "tags": {"amenity": "charging_station", "brand": "kazam", "name": "kazam", "_source": "worldwide"}}, {"type": "node", "id": 12350373268, "lat": 18.585792, "lon": 73.734433, "tags": {"amenity": "charging_station", "fee": "yes", "access": "customers", "brand": "EV Dock charging station", "operator": "EV Dock", "name": "EV Dock charging station", "_source": "worldwide"}}, {"type": "node", "id": 12350440058, "lat": 18.59076, "lon": 73.741035, "tags": {"amenity": "charging_station", "fee": "yes", "access": "customers", "brand": "shell", "operator": "shell", "name": "shell", "_source": "worldwide"}}, {"type": "node", "id": 12350467611, "lat": 18.578172, "lon": 73.736892, "tags": {"amenity": "charging_station", "fee": "yes", "access": "customers", "brand": "Bijlify", "operator": "Bijlify", "name": "Bijlify", "_source": "worldwide"}}, {"type": "node", "id": 12473454969, "lat": 18.522819, "lon": 73.841053, "tags": {"amenity": "charging_station", "fee": "yes", "access": "yes", "brand": "Bijlify", "name": "Bijlify", "_source": "worldwide"}}]}