{"id": "35--90", "latMin": 35, "lonMin": -90, "latMax": 36, "lonMax": -89, "generated": "2026-04-16T18:39:07.314Z", "count": 8, "pois": [{"type": "node", "id": 3792958181, "lat": 35.181223, "lon": -89.896003, "tags": {"amenity": "charging_station", "name": "EV Charging Station", "socket:chademo": "1", "socket:type1": "4", "capacity": "5", "_source": "worldwide"}}, {"type": "node", "id": 3792975701, "lat": 35.113679, "lon": -89.8942, "tags": {"amenity": "charging_station", "fee": "no", "access": "yes", "brand": "ChargePoint", "operator": "ChargePoint", "name": "ChargePoint", "socket:type1": "1", "capacity": "1", "_source": "worldwide"}}, {"type": "node", "id": 6346256234, "lat": 35.0978, "lon": -89.85896, "tags": {"amenity": "charging_station", "fee": "yes", "access": "yes", "opening_hours": "24/7", "brand": "Tesla Supercharger", "network": "Supercharger", "operator": "Tesla, Inc.", "name": "Memphis Supercharger", "addr:street": "Park Avenue", "addr:housenumber": "6073", "addr:postcode": "38119", "addr:city": "Memphis", "addr:country": "US", "capacity": "8", "_source": "worldwide"}}, {"type": "node", "id": 6555563585, "lat": 35.062104, "lon": -89.992549, "tags": {"amenity": "charging_station", "operator": "Greyhound", "name": "Greyhound", "_source": "worldwide"}}, {"type": "node", "id": 6636452945, "lat": 35.138937, "lon": -89.832062, "tags": {"amenity": "charging_station", "fee": "no", "access": "yes", "name": "EV Charging Station", "_source": "worldwide"}}, {"type": "node", "id": 11772839191, "lat": 35.540239, "lon": -89.246425, "tags": {"amenity": "charging_station", "fee": "yes", "access": "yes", "brand": "ChargePoint", "operator": "ChargePoint", "name": "ChargePoint", "_source": "worldwide"}}, {"type": "node", "id": 12944743958, "lat": 35.202319, "lon": -89.794543, "tags": {"amenity": "charging_station", "fee": "yes", "access": "yes", "opening_hours": "24/7", "brand": "Tesla Supercharger", "network": "Supercharger", "operator": "Tesla, Inc.", "name": "Memphis Supercharger", "addr:street": "Wolf Creek Parkway", "addr:housenumber": "2751", "addr:postcode": "38133", "addr:city": "Memphis", "addr:country": "US", "capacity": "12", "_source": "worldwide"}}, {"type": "node", "id": 13667930002, "lat": 35.130427, "lon": -89.945567, "tags": {"amenity": "charging_station", "fee": "yes", "access": "yes", "opening_hours": "24/7", "brand": "Tesla Supercharger", "network": "Supercharger", "operator": "Tesla", "name": "Memphis Supercharger", "_source": "worldwide"}}]}