{"id": "37--85", "latMin": 37, "lonMin": -85, "latMax": 38, "lonMax": -84, "generated": "2026-04-16T18:39:07.476Z", "count": 5, "pois": [{"type": "node", "id": 3645393299, "lat": 37.14916, "lon": -84.11385, "tags": {"amenity": "charging_station", "fee": "yes", "access": "customers", "opening_hours": "24/7", "brand": "Tesla Supercharger", "network": "Supercharger", "operator": "Tesla, Inc.", "name": "London Supercharger", "addr:street": "Faith Assembly Church Road", "addr:housenumber": "140", "addr:postcode": "40741", "addr:city": "London", "addr:country": "US", "capacity": "6", "_source": "worldwide"}}, {"type": "node", "id": 3645489306, "lat": 37.107542, "lon": -84.080636, "tags": {"amenity": "charging_station", "opening_hours": "24/7", "name": "EV Charging Station", "socket:type1": "1", "capacity": "1", "_source": "worldwide"}}, {"type": "node", "id": 11654004688, "lat": 37.67173, "lon": -84.30836, "tags": {"amenity": "charging_station", "fee": "yes", "access": "yes", "opening_hours": "24/7", "brand": "Tesla Supercharger", "network": "Supercharger", "operator": "Tesla, Inc.", "name": "Tesla Supercharger", "addr:street": "Buc-ee's Boulevard", "addr:housenumber": "1013", "addr:postcode": "40475", "addr:city": "Richmond", "addr:country": "US", "capacity": "12", "_source": "worldwide"}}, {"type": "node", "id": 12674083686, "lat": 37.674494, "lon": -84.307562, "tags": {"amenity": "charging_station", "name": "EV Charging Station", "_source": "worldwide"}}, {"type": "node", "id": 12944743956, "lat": 37.99555, "lon": -84.53268, "tags": {"amenity": "charging_station", "fee": "yes", "access": "yes", "opening_hours": "24/7", "brand": "Tesla Supercharger", "network": "Supercharger", "operator": "Tesla, Inc.", "name": "Tesla Supercharger", "addr:street": "Meijer Way", "addr:housenumber": "351", "addr:postcode": "40503", "addr:city": "Lexington", "addr:country": "US", "capacity": "12", "_source": "worldwide"}}]}