{"id": "41--82", "latMin": 41, "lonMin": -82, "latMax": 42, "lonMax": -81, "generated": "2026-04-16T18:39:07.824Z", "count": 40, "pois": [{"type": "node", "id": 37097, "lat": 41.503373, "lon": -81.639054, "tags": {"amenity": "charging_station", "access": "public", "fee": "yes", "opening_hours": "24 hours daily", "status": "E", "operator": "P", "name": "Baker Electric Building", "addr:street": "7100 Euclid Ave", "addr:postcode": "44103", "addr:city": "Cleveland", "addr:country": "US", "socket:type1": "1", "socket:type1:output": "7.2 kW", "charging_station:output": "7.2 kW", "capacity": "1", "_source": "worldwide"}}, {"type": "node", "id": 2409141458, "lat": 41.147017, "lon": -81.335397, "tags": {"amenity": "charging_station", "operator": "Kent State University", "name": "Kent State University", "_source": "worldwide"}}, {"type": "node", "id": 2484125071, "lat": 41.145669, "lon": -81.334778, "tags": {"amenity": "charging_station", "name": "EV Charging Station", "_source": "worldwide"}}, {"type": "node", "id": 4214228998, "lat": 41.150839, "lon": -81.352244, "tags": {"amenity": "charging_station", "operator": "Kent State University", "name": "Kent State University", "_source": "worldwide"}}, {"type": "node", "id": 4437603592, "lat": 41.31366, "lon": -81.51702, "tags": {"amenity": "charging_station", "fee": "yes", "access": "customers", "opening_hours": "24/7", "brand": "Tesla Supercharger", "network": "Supercharger", "operator": "Tesla, Inc.", "name": "Macedonia Supercharger", "addr:street": "Macedonia Commons Boulevard", "addr:housenumber": "8210", "addr:postcode": "44056", "addr:city": "Macedonia", "addr:country": "US", "capacity": "6", "_source": "worldwide"}}, {"type": "node", "id": 5161362735, "lat": 41.147223, "lon": -81.344747, "tags": {"amenity": "charging_station", "operator": "Kent State University", "name": "Kent State University", "_source": "worldwide"}}, {"type": "node", "id": 5774809970, "lat": 41.110842, "lon": -81.570779, "tags": {"amenity": "charging_station", "fee": "no", "access": "customers", "name": "EV Charging Station", "_source": "worldwide"}}, {"type": "node", "id": 5837277555, "lat": 41.096617, "lon": -81.544372, "tags": {"amenity": "charging_station", "name": "EV Charging Station", "_source": "worldwide"}}, {"type": "node", "id": 6754093349, "lat": 41.34336, "lon": -81.82492, "tags": {"amenity": "charging_station", "fee": "yes", "access": "customers", "opening_hours": "24/7", "brand": "Tesla Supercharger", "network": "Supercharger", "operator": "Tesla, Inc.", "name": "Strongsville Supercharger", "addr:street": "Pearl Road", "addr:housenumber": "9037", "addr:postcode": "44136", "addr:city": "Strongsville", "addr:country": "US", "capacity": "8", "_source": "worldwide"}}, {"type": "node", "id": 7998362419, "lat": 41.080302, "lon": -81.526895, "tags": {"amenity": "charging_station", "name": "EV Charging Station", "_source": "worldwide"}}, {"type": "node", "id": 8272512924, "lat": 41.418262, "lon": -81.515886, "tags": {"amenity": "charging_station", "fee": "no", "opening_hours": "24/7", "operator": "ChargePoint", "name": "South-East Harley Davidson", "socket:type1_combo": "1", "capacity": "1", "_source": "worldwide"}}, {"type": "node", "id": 9250949707, "lat": 41.165221, "lon": -81.479122, "tags": {"amenity": "charging_station", "name": "EV Charging Station", "_source": "worldwide"}}, {"type": "node", "id": 9250949708, "lat": 41.1654, "lon": -81.479074, "tags": {"amenity": "charging_station", "name": "EV Charging Station", "_source": "worldwide"}}, {"type": "node", "id": 9688894029, "lat": 41.523802, "lon": -81.438184, "tags": {"amenity": "charging_station", "brand": "eVgo", "operator": "eVgo", "name": "eVgo", "_source": "worldwide"}}, {"type": "node", "id": 9795540661, "lat": 41.570011, "lon": -81.583737, "tags": {"amenity": "charging_station", "name": "EV Charging Station", "_source": "worldwide"}}, {"type": "node", "id": 10933383163, "lat": 41.249091, "lon": -81.36596, "tags": {"amenity": "charging_station", "fee": "no", "name": "EV Charging Station", "capacity": "2", "_source": "worldwide"}}, {"type": "node", "id": 10951862486, "lat": 41.31173, "lon": -81.44953, "tags": {"amenity": "charging_station", "fee": "yes", "access": "yes", "opening_hours": "24/7", "brand": "Tesla Supercharger", "network": "Supercharger", "operator": "Tesla, Inc.", "name": "Twinsburg Supercharger", "addr:street": "East Aurora Road", "addr:housenumber": "2495", "addr:postcode": "44087", "addr:city": "Twinsburg", "addr:country": "US", "capacity": "7", "_source": "worldwide"}}, {"type": "node", "id": 11022925413, "lat": 41.540127, "lon": -81.446454, "tags": {"amenity": "charging_station", "fee": "no", "brand": "Tesla, Inc.", "name": "Tesla Destination Charger", "capacity": "2", "_source": "worldwide"}}, {"type": "node", "id": 11905286792, "lat": 41.470517, "lon": -81.155495, "tags": {"amenity": "charging_station", "brand": "ChargePoint", "operator": "ChargePoint", "name": "Preston Kia", "_source": "worldwide"}}, {"type": "node", "id": 11976418618, "lat": 41.43802, "lon": -81.80028, "tags": {"amenity": "charging_station", "fee": "yes", "access": "yes", "opening_hours": "24/7", "brand": "Tesla Supercharger", "network": "Supercharger", "operator": "Tesla, Inc.", "name": "Cleveland Supercharger", "addr:street": "West 150th Street", "addr:housenumber": "4277", "addr:postcode": "44135", "addr:city": "Cleveland", "addr:country": "US", "capacity": "12", "_source": "worldwide"}}, {"type": "node", "id": 11986501538, "lat": 41.182852, "lon": -81.480008, "tags": {"amenity": "charging_station", "operator": "blink", "name": "blink", "_source": "worldwide"}}, {"type": "node", "id": 11990771052, "lat": 41.337404, "lon": -81.563556, "tags": {"amenity": "charging_station", "name": "EV Charging Station", "_source": "worldwide"}}, {"type": "node", "id": 12193570024, "lat": 41.480707, "lon": -81.8284, "tags": {"amenity": "charging_station", "operator": "ChargePoint", "name": "ChargePoint", "_source": "worldwide"}}, {"type": "node", "id": 12634691872, "lat": 41.343972, "lon": -81.823967, "tags": {"amenity": "charging_station", "brand": "Rivian Adventure Network", "name": "Rivian Adventure Network", "_source": "worldwide"}}, {"type": "node", "id": 12687851198, "lat": 41.537891, "lon": -81.533423, "tags": {"amenity": "charging_station", "fee": "yes", "access": "yes", "brand": "ChargePoint", "operator": "ChargePoint", "name": "ChargePoint", "_source": "worldwide"}}, {"type": "node", "id": 12896993298, "lat": 41.538069, "lon": -81.440597, "tags": {"amenity": "charging_station", "opening_hours": "24/7", "network": "FLO", "name": "FLO", "addr:street": "Wilson Mills Road", "addr:housenumber": "6622", "addr:postcode": "44143", "addr:city": "Mayfield", "addr:country": "US", "socket:type1_combo": "1", "capacity": "1", "_source": "worldwide"}}, {"type": "node", "id": 12897005222, "lat": 41.103636, "lon": -81.579565, "tags": {"amenity": "charging_station", "opening_hours": "24/7", "brand": "FirstEnergy", "network": "ChargePoint", "name": "First Energy", "addr:street": "White Pond Drive", "addr:housenumber": "341", "addr:postcode": "44320", "addr:city": "Akron", "addr:country": "US", "socket:type1_combo": "4", "capacity": "4", "_source": "worldwide"}}, {"type": "node", "id": 12919632884, "lat": 41.522608, "lon": -81.521759, "tags": {"amenity": "charging_station", "access": "yes", "brand": "ChargePoint", "operator": "ChargePoint", "name": "ChargePoint", "_source": "worldwide"}}, {"type": "node", "id": 12944721964, "lat": 41.03569, "lon": -81.86513, "tags": {"amenity": "charging_station", "fee": "yes", "access": "customers", "opening_hours": "24/7", "brand": "Tesla Supercharger", "network": "Supercharger", "operator": "Tesla, Inc.", "name": "Seville Supercharger", "addr:street": "Wooster Pike", "addr:housenumber": "8700", "addr:postcode": "44273", "addr:city": "Seville", "addr:country": "US", "capacity": "12", "_source": "worldwide"}}, {"type": "node", "id": 12944743326, "lat": 41.291775, "lon": -81.67085, "tags": {"amenity": "charging_station", "fee": "yes", "access": "customers", "opening_hours": "24/7", "brand": "Tesla Supercharger", "network": "Supercharger", "operator": "Tesla", "name": "Tesla Supercharger", "addr:postcode": "44147", "addr:city": "Broadview Heights", "addr:country": "US", "capacity": "8", "_source": "worldwide"}}, {"type": "node", "id": 12944743327, "lat": 41.292262, "lon": -81.676224, "tags": {"amenity": "charging_station", "fee": "yes", "access": "customers", "opening_hours": "24/7", "brand": "Tesla Supercharger", "network": "Supercharger", "operator": "Tesla", "name": "Broadview Heights Supercharger", "addr:postcode": "44147", "addr:city": "Broadview Heights", "addr:country": "US", "capacity": "8", "_source": "worldwide"}}, {"type": "node", "id": 12944743355, "lat": 41.465967, "lon": -81.538701, "tags": {"amenity": "charging_station", "fee": "yes", "access": "yes", "opening_hours": "24/7", "brand": "Tesla Supercharger", "network": "Supercharger", "operator": "Tesla", "name": "Shaker Heights Supercharger", "addr:postcode": "44122", "addr:city": "Shaker Heights", "addr:country": "US", "capacity": "12", "_source": "worldwide"}}, {"type": "node", "id": 12944743370, "lat": 41.42253, "lon": -81.75849, "tags": {"amenity": "charging_station", "fee": "yes", "access": "yes", "opening_hours": "24/7", "brand": "Tesla Supercharger", "network": "Supercharger", "operator": "Tesla", "name": "Tesla Supercharger", "addr:street": "Cascade Crossing", "addr:housenumber": "10315", "addr:postcode": "44144", "addr:city": "Brooklyn", "addr:country": "US", "capacity": "8", "_source": "worldwide"}}, {"type": "node", "id": 12944743746, "lat": 41.66012, "lon": -81.37921, "tags": {"amenity": "charging_station", "fee": "yes", "access": "yes", "opening_hours": "24/7", "brand": "Tesla Supercharger", "network": "Supercharger", "operator": "Tesla, Inc.", "name": "Mentor Supercharger", "addr:street": "Reynolds Road", "addr:housenumber": "7750", "addr:postcode": "44060", "addr:city": "Mentor", "addr:country": "US", "capacity": "8", "_source": "worldwide"}}, {"type": "node", "id": 12944743877, "lat": 41.50418, "lon": -81.63245, "tags": {"amenity": "charging_station", "fee": "yes", "access": "yes", "opening_hours": "24/7", "brand": "Tesla Supercharger", "network": "Supercharger", "operator": "Tesla, Inc.", "name": "Cleveland Supercharger", "addr:street": "Euclid Avenue", "addr:housenumber": "8037", "addr:postcode": "44103", "addr:city": "Cleveland", "addr:country": "US", "capacity": "12", "_source": "worldwide"}}, {"type": "node", "id": 12944744048, "lat": 41.63714, "lon": -81.47547, "tags": {"amenity": "charging_station", "fee": "yes", "access": "yes", "opening_hours": "24/7", "brand": "Tesla Supercharger", "network": "Supercharger", "operator": "Tesla, Inc.", "name": "Tesla Supercharger", "addr:street": "Lakeshore Boulevard", "addr:housenumber": "30320", "addr:postcode": "44095", "addr:city": "Willowick", "addr:country": "US", "capacity": "12", "_source": "worldwide"}}, {"type": "node", "id": 12944744146, "lat": 41.38437, "lon": -81.97654, "tags": {"amenity": "charging_station", "fee": "yes", "access": "yes", "opening_hours": "24/7", "brand": "Tesla Supercharger", "network": "Supercharger", "operator": "Tesla", "name": "North Ridgeville Supercharger", "addr:street": "Cook Road", "addr:housenumber": "32435", "addr:postcode": "44039", "addr:city": "North Ridgeville", "addr:country": "US", "capacity": "8", "_source": "worldwide"}}, {"type": "node", "id": 12944744312, "lat": 41.36085, "lon": -81.68681, "tags": {"amenity": "charging_station", "fee": "yes", "access": "yes", "opening_hours": "24/7", "brand": "Tesla Supercharger", "network": "Supercharger", "operator": "Tesla, Inc.", "name": "Parma Supercharger", "addr:street": "Broadview Road", "addr:housenumber": "7526", "addr:postcode": "44134", "addr:city": "Parma", "addr:country": "US", "capacity": "12", "_source": "worldwide"}}, {"type": "node", "id": 12946590371, "lat": 41.31541, "lon": -81.83362, "tags": {"amenity": "charging_station", "access": "yes", "opening_hours": "24/7", "network": "FLO", "name": "EV Charging Station", "addr:street": "Westwood Drive", "addr:housenumber": "18780", "addr:postcode": "44136", "addr:city": "Strongsville", "addr:country": "US", "_source": "worldwide"}}, {"type": "node", "id": 13012144832, "lat": 41.50481, "lon": -81.633356, "tags": {"amenity": "charging_station", "fee": "yes", "access": "yes", "opening_hours": "24/7", "brand": "EVgo", "operator": "EVgo", "name": "EVgo", "_source": "worldwide"}}]}