{"id": "60-9", "latMin": 60, "lonMin": 9, "latMax": 61, "lonMax": 10, "generated": "2026-04-16T18:39:08.791Z", "count": 38, "pois": [{"type": "node", "id": 4144024453, "lat": 60.585107, "lon": 9.985481, "tags": {"amenity": "charging_station", "access": "yes", "fee": "yes", "brand": "Tesla Supercharger", "opening_hours": "24/7", "operator": "Tesla", "name": "Tesla Valdresporten Supercharger", "addr:country": "NO", "socket:type2_combo": "20", "socket:type2_combo:output": "150.0 kW", "socket:tesla_supercharger": "20", "socket:tesla_supercharger:output": "150.0 kW", "charging_station:output": "150.0 kW", "capacity": "20", "_source": "worldwide"}}, {"type": "node", "id": 10712577307, "lat": 60.584652, "lon": 9.984744, "tags": {"amenity": "charging_station", "access": "yes", "fee": "yes", "brand": "Ionity", "opening_hours": "24/7", "name": "Ionity Valdresporten", "addr:country": "NO", "socket:type2_combo": "12", "socket:type2_combo:output": "350.0 kW", "charging_station:output": "350.0 kW", "capacity": "12", "_source": "worldwide"}}, {"type": "node", "id": 5569557902, "lat": 60.040545, "lon": 9.157225, "tags": {"amenity": "charging_station", "access": "yes", "brand": "Recharge", "opening_hours": "24/7", "name": "Recharge Veggli", "addr:country": "NO", "socket:type2": "2", "socket:type2:output": "11.0 kW", "socket:type2_combo": "2", "socket:type2_combo:output": "50.0 kW", "socket:chademo": "2", "socket:chademo:output": "50.0 kW", "charging_station:output": "50.0 kW", "capacity": "4", "_source": "worldwide"}}, {"type": "node", "id": 6024217328, "lat": 60.180298, "lon": 9.625813, "tags": {"amenity": "charging_station", "access": "yes", "brand": "Recharge", "opening_hours": "24/7", "name": "Recharge Kiwi Noresund", "addr:country": "NO", "socket:type2": "1", "socket:type2:output": "22.0 kW", "socket:type2_combo": "1", "socket:type2_combo:output": "50.0 kW", "socket:chademo": "1", "socket:chademo:output": "50.0 kW", "charging_station:output": "50.0 kW", "capacity": "2", "_source": "worldwide"}}, {"type": "node", "id": 11185853240, "lat": 60.179457, "lon": 9.62646, "tags": {"amenity": "charging_station", "access": "yes", "brand": "Kople", "name": "Kople Norefjellporten Noresund", "addr:country": "NO", "socket:type2_combo": "3", "socket:type2_combo:output": "180.0 kW", "socket:chademo": "1", "socket:chademo:output": "100.0 kW", "charging_station:output": "180.0 kW", "capacity": "3", "_source": "worldwide"}}, {"type": "node", "id": 6024217329, "lat": 60.43096, "lon": 9.459336, "tags": {"amenity": "charging_station", "access": "yes", "brand": "Recharge", "name": "Recharge McDonald's Flå", "addr:country": "NO", "socket:type2": "1", "socket:type2:output": "11.0 kW", "socket:type2_combo": "2", "socket:type2_combo:output": "50.0 kW", "socket:chademo": "2", "socket:chademo:output": "50.0 kW", "charging_station:output": "50.0 kW", "capacity": "3", "_source": "worldwide"}}, {"type": "node", "id": 6024217354, "lat": 60.381318, "lon": 9.610206, "tags": {"amenity": "charging_station", "access": "yes", "brand": "Circle K", "name": "Circle K Gulsvik", "addr:country": "NO", "socket:type2_combo": "8", "socket:type2_combo:output": "300.0 kW", "socket:chademo": "2", "socket:chademo:output": "62.0 kW", "charging_station:output": "300.0 kW", "capacity": "8", "_source": "worldwide"}}, {"type": "node", "id": 6024217371, "lat": 60.240114, "lon": 9.927231, "tags": {"amenity": "charging_station", "access": "yes", "brand": "Kople", "name": "Kople Rustad Kafé Sokna", "addr:country": "NO", "socket:type2_combo": "8", "socket:type2_combo:output": "150.0 kW", "socket:chademo": "2", "socket:chademo:output": "62.0 kW", "charging_station:output": "150.0 kW", "capacity": "8", "_source": "worldwide"}}, {"type": "node", "id": 6024217373, "lat": 60.239943, "lon": 9.924694, "tags": {"amenity": "charging_station", "access": "yes", "brand": "Recharge", "opening_hours": "24/7", "name": "Recharge Kiwi Sokna", "addr:country": "NO", "socket:type2": "1", "socket:type2:output": "22.0 kW", "socket:type2_combo": "1", "socket:type2_combo:output": "50.0 kW", "socket:chademo": "1", "socket:chademo:output": "50.0 kW", "charging_station:output": "50.0 kW", "capacity": "2", "_source": "worldwide"}}, {"type": "node", "id": 9926575921, "lat": 60.239517, "lon": 9.926183, "tags": {"amenity": "charging_station", "access": "yes", "fee": "yes", "operator": "Recharge", "name": "Ladestation Recharge", "addr:country": "NO", "socket:type2": "1", "socket:type2:output": "22 kW", "socket:type2_combo": "1", "socket:type2_combo:output": "50 kW", "socket:chademo": "1", "socket:chademo:output": "50 kW", "charging_station:output": "50 kW", "capacity": "2", "_source": "worldwide"}}, {"type": "node", "id": 6024217377, "lat": 60.562507, "lon": 9.997399, "tags": {"amenity": "charging_station", "access": "yes", "brand": "Kople", "name": "Kople Nes i Ådal", "addr:country": "NO", "socket:type2": "1", "socket:type2:output": "43.0 kW", "socket:type2_combo": "11", "socket:type2_combo:output": "180.0 kW", "socket:chademo": "5", "socket:chademo:output": "62.0 kW", "charging_station:output": "180.0 kW", "capacity": "12", "_source": "worldwide"}}, {"type": "node", "id": 6025956815, "lat": 60.822223, "lon": 9.554183, "tags": {"amenity": "charging_station", "access": "yes", "brand": "Circle K", "name": "Circle K Bagn", "addr:country": "NO", "socket:type2_combo": "4", "socket:type2_combo:output": "400.0 kW", "charging_station:output": "400.0 kW", "capacity": "4", "_source": "worldwide"}}, {"type": "node", "id": 6025956843, "lat": 60.822587, "lon": 9.551268, "tags": {"amenity": "charging_station", "access": "yes", "brand": "Recharge", "opening_hours": "24/7", "name": "Recharge Coop Prix Bagn", "addr:country": "NO", "socket:type2": "2", "socket:type2:output": "22.0 kW", "socket:type2_combo": "2", "socket:type2_combo:output": "50.0 kW", "socket:chademo": "2", "socket:chademo:output": "50.0 kW", "charging_station:output": "50.0 kW", "capacity": "4", "_source": "worldwide"}}, {"type": "node", "id": 6025956819, "lat": 60.919505, "lon": 9.422296, "tags": {"amenity": "charging_station", "access": "yes", "brand": "Kople", "name": "Kople KIWI Aurdal", "addr:country": "NO", "socket:type2_combo": "2", "socket:type2_combo:output": "43.0 kW", "charging_station:output": "43.0 kW", "capacity": "2", "_source": "worldwide"}}, {"type": "node", "id": 7684706254, "lat": 60.599456, "lon": 9.744569, "tags": {"amenity": "charging_station", "access": "yes", "brand": "Kople", "name": "Kople Joker Hedalen", "addr:country": "NO", "socket:type2_combo": "3", "socket:type2_combo:output": "135.0 kW", "socket:chademo": "3", "socket:chademo:output": "62.0 kW", "charging_station:output": "135.0 kW", "capacity": "3", "_source": "worldwide"}}, {"type": "node", "id": 7684706255, "lat": 60.984809, "lon": 9.245498, "tags": {"amenity": "charging_station", "access": "yes", "brand": "Recharge", "name": "Recharge Shell Fagernes", "addr:country": "NO", "socket:type2": "2", "socket:type2:output": "11.0 kW", "socket:type2_combo": "4", "socket:type2_combo:output": "150.0 kW", "socket:chademo": "4", "socket:chademo:output": "62.0 kW", "charging_station:output": "150.0 kW", "capacity": "6", "_source": "worldwide"}}, {"type": "node", "id": 8567570562, "lat": 60.969143, "lon": 9.291315, "tags": {"amenity": "charging_station", "access": "yes", "fee": "yes", "brand": "Tesla Supercharger", "opening_hours": "24/7", "operator": "Tesla", "name": "Tesla Leira Supercharger", "addr:country": "NO", "socket:type2_combo": "16", "socket:type2_combo:output": "250.0 kW", "charging_station:output": "250.0 kW", "capacity": "16", "_source": "worldwide"}}, {"type": "node", "id": 8627880815, "lat": 60.970858, "lon": 9.291572, "tags": {"amenity": "charging_station", "access": "yes", "brand": "Eviny", "name": "Eviny Rema 1000 Leira", "addr:country": "NO", "socket:type2": "1", "socket:type2:output": "22.0 kW", "socket:type2_combo": "4", "socket:type2_combo:output": "200.0 kW", "socket:chademo": "2", "socket:chademo:output": "62.0 kW", "charging_station:output": "200.0 kW", "capacity": "5", "_source": "worldwide"}}, {"type": "node", "id": 8627918161, "lat": 60.969739, "lon": 9.292084, "tags": {"amenity": "charging_station", "access": "yes", "brand": "Recharge", "name": "Recharge Leira", "addr:country": "NO", "socket:type2_combo": "8", "socket:type2_combo:output": "150.0 kW", "socket:chademo": "2", "socket:chademo:output": "62.0 kW", "charging_station:output": "150.0 kW", "capacity": "8", "_source": "worldwide"}}, {"type": "node", "id": 8998955036, "lat": 60.970438, "lon": 9.28841, "tags": {"amenity": "charging_station", "access": "yes", "brand": "Mer", "name": "Mer Burger King Valdres", "addr:country": "NO", "socket:type2_combo": "4", "socket:type2_combo:output": "150.0 kW", "socket:chademo": "4", "socket:chademo:output": "62.0 kW", "charging_station:output": "150.0 kW", "capacity": "4", "_source": "worldwide"}}, {"type": "node", "id": 12812257604, "lat": 60.971652, "lon": 9.287486, "tags": {"amenity": "charging_station", "access": "yes", "brand": "Mer", "name": "Mer Alti Valdres", "addr:country": "NO", "socket:type2_combo": "6", "socket:type2_combo:output": "200.0 kW", "socket:chademo": "2", "socket:chademo:output": "50.0 kW", "charging_station:output": "200.0 kW", "capacity": "6", "_source": "worldwide"}}, {"type": "node", "id": 8998955040, "lat": 60.431089, "lon": 9.459208, "tags": {"amenity": "charging_station", "access": "yes", "brand": "Mer", "name": "Mer Bjørneparken kjøpesenter", "addr:country": "NO", "socket:type2": "4", "socket:type2:output": "22.0 kW", "socket:type2_combo": "4", "socket:type2_combo:output": "150.0 kW", "socket:chademo": "4", "socket:chademo:output": "62.0 kW", "charging_station:output": "150.0 kW", "capacity": "8", "_source": "worldwide"}}, {"type": "node", "id": 11146764725, "lat": 60.4307, "lon": 9.456455, "tags": {"amenity": "charging_station", "access": "yes", "brand": "Mer", "name": "Mer Bjørneparken kjøpesenter Vest", "addr:country": "NO", "socket:type2_combo": "8", "socket:type2_combo:output": "150.0 kW", "socket:chademo": "2", "socket:chademo:output": "50.0 kW", "charging_station:output": "150.0 kW", "capacity": "8", "_source": "worldwide"}}, {"type": "node", "id": 12840618124, "lat": 60.430729, "lon": 9.45553, "tags": {"amenity": "charging_station", "access": "yes", "fee": "yes", "brand": "Tesla Supercharger", "opening_hours": "24/7", "operator": "Tesla", "name": "Tesla Flå Supercharger", "addr:country": "NO", "socket:type2_combo": "38", "socket:type2_combo:output": "250.0 kW", "charging_station:output": "250.0 kW", "capacity": "38", "_source": "worldwide"}}, {"type": "node", "id": 10567560549, "lat": 60.040234, "lon": 9.155109, "tags": {"amenity": "charging_station", "access": "yes", "fee": "yes", "brand": "Tesla Supercharger", "opening_hours": "24/7", "operator": "Tesla", "name": "Tesla Veggli Supercharger", "addr:country": "NO", "socket:type2_combo": "12", "socket:type2_combo:output": "250.0 kW", "charging_station:output": "250.0 kW", "capacity": "12", "_source": "worldwide"}}, {"type": "node", "id": 10663394917, "lat": 60.488067, "lon": 9.189341, "tags": {"amenity": "charging_station", "access": "yes", "brand": "E.ON", "name": "E.ON Bromma", "addr:country": "NO", "socket:type2_combo": "4", "socket:type2_combo:output": "300.0 kW", "socket:chademo": "1", "socket:chademo:output": "75.0 kW", "charging_station:output": "300.0 kW", "capacity": "4", "_source": "worldwide"}}, {"type": "node", "id": 11031899230, "lat": 60.487877, "lon": 9.190678, "tags": {"amenity": "charging_station", "access": "yes", "fee": "yes", "brand": "Uno-X", "name": "Uno-X Bromma", "addr:country": "NO", "socket:type2_combo": "4", "socket:type2_combo:output": "300.0 kW", "charging_station:output": "300.0 kW", "capacity": "4", "_source": "worldwide"}}, {"type": "node", "id": 11169096611, "lat": 60.57106, "lon": 9.111802, "tags": {"amenity": "charging_station", "access": "yes", "brand": "Eviny", "name": "Eviny Nesbyen", "addr:country": "NO", "socket:type2_combo": "8", "socket:type2_combo:output": "200.0 kW", "socket:chademo": "4", "socket:chademo:output": "50.0 kW", "charging_station:output": "200.0 kW", "capacity": "8", "_source": "worldwide"}}, {"type": "node", "id": 11169096646, "lat": 60.98653, "lon": 9.238137, "tags": {"amenity": "charging_station", "access": "yes", "brand": "Eviny", "name": "Eviny Fagernes kjøpesenter", "addr:country": "NO", "socket:type2": "3", "socket:type2:output": "22.0 kW", "socket:type2_combo": "7", "socket:type2_combo:output": "150.0 kW", "socket:chademo": "5", "socket:chademo:output": "62.0 kW", "charging_station:output": "150.0 kW", "capacity": "10", "_source": "worldwide"}}, {"type": "node", "id": 11172580072, "lat": 60.173372, "lon": 9.635971, "tags": {"amenity": "charging_station", "access": "yes", "brand": "Recharge", "name": "Recharge Spar Noresund", "addr:country": "NO", "socket:type2_combo": "4", "socket:type2_combo:output": "225.0 kW", "socket:chademo": "2", "socket:chademo:output": "62.0 kW", "charging_station:output": "225.0 kW", "capacity": "4", "_source": "worldwide"}}, {"type": "node", "id": 11185853239, "lat": 60.124983, "lon": 9.783773, "tags": {"amenity": "charging_station", "access": "yes", "brand": "Kople", "name": "Kople Coop Prix Krøderen", "addr:country": "NO", "socket:type2_combo": "3", "socket:type2_combo:output": "150.0 kW", "socket:chademo": "1", "socket:chademo:output": "62.0 kW", "charging_station:output": "150.0 kW", "capacity": "3", "_source": "worldwide"}}, {"type": "node", "id": 11185853241, "lat": 60.2262, "lon": 9.52029, "tags": {"amenity": "charging_station", "access": "yes", "brand": "Kople", "name": "Kople Norefjell Ski & Spa", "addr:country": "NO", "socket:type2": "29", "socket:type2:output": "22.0 kW", "socket:type2_combo": "1", "socket:type2_combo:output": "22.0 kW", "socket:chademo": "1", "socket:chademo:output": "22.0 kW", "charging_station:output": "22.0 kW", "capacity": "30", "_source": "worldwide"}}, {"type": "node", "id": 11185853242, "lat": 60.246774, "lon": 9.355988, "tags": {"amenity": "charging_station", "access": "yes", "brand": "Kople", "name": "Kople Trollbua Eggedal", "addr:country": "NO", "socket:type2_combo": "3", "socket:type2_combo:output": "75.0 kW", "socket:chademo": "1", "socket:chademo:output": "62.0 kW", "charging_station:output": "75.0 kW", "capacity": "3", "_source": "worldwide"}}, {"type": "node", "id": 12105202441, "lat": 60.246043, "lon": 9.355161, "tags": {"amenity": "charging_station", "access": "yes", "fee": "yes", "brand": "Tesla Supercharger", "opening_hours": "24/7", "operator": "Tesla", "name": "Tesla Supercharger", "addr:country": "NO", "socket:type2_combo": "12", "socket:type2_combo:output": "250.0 kW", "charging_station:output": "250.0 kW", "capacity": "12", "_source": "worldwide"}}, {"type": "node", "id": 11185853244, "lat": 60.569426, "lon": 9.10485, "tags": {"amenity": "charging_station", "access": "yes", "brand": "Kople", "name": "Kople Kiwi Nesbyen", "addr:country": "NO", "socket:type2": "2", "socket:type2:output": "22.0 kW", "socket:type2_combo": "4", "socket:type2_combo:output": "150.0 kW", "socket:chademo": "2", "socket:chademo:output": "62.0 kW", "charging_station:output": "150.0 kW", "capacity": "6", "_source": "worldwide"}}, {"type": "node", "id": 11185853245, "lat": 60.98478, "lon": 9.231001, "tags": {"amenity": "charging_station", "access": "yes", "brand": "Kople", "name": "Kople Fagernes sentrum", "addr:country": "NO", "socket:type2": "10", "socket:type2:output": "11.0 kW", "socket:type2_combo": "5", "socket:type2_combo:output": "180.0 kW", "socket:chademo": "1", "socket:chademo:output": "100.0 kW", "charging_station:output": "180.0 kW", "capacity": "15", "_source": "worldwide"}}, {"type": "node", "id": 11188024232, "lat": 60.043776, "lon": 9.632551, "tags": {"amenity": "charging_station", "access": "yes", "brand": "Kople", "name": "Kople Prestfoss", "addr:country": "NO", "socket:type2": "2", "socket:type2:output": "22.0 kW", "socket:type2_combo": "2", "socket:type2_combo:output": "50.0 kW", "socket:chademo": "2", "socket:chademo:output": "50.0 kW", "charging_station:output": "50.0 kW", "capacity": "4", "_source": "worldwide"}}, {"type": "node", "id": 12824221547, "lat": 60.93358, "lon": 9.63345, "tags": {"amenity": "charging_station", "access": "yes", "brand": "Kople", "name": "Kople Joker Etnedal", "addr:country": "NO", "socket:type2": "2", "socket:type2:output": "22.0 kW", "socket:type2_combo": "3", "socket:type2_combo:output": "150.0 kW", "socket:chademo": "2", "socket:chademo:output": "62.0 kW", "charging_station:output": "150.0 kW", "capacity": "5", "_source": "worldwide"}}]}