{"id": "40-30", "latMin": 40, "lonMin": 30, "latMax": 41, "lonMax": 31, "generated": "2026-04-16T18:39:07.815Z", "count": 11, "pois": [{"type": "node", "id": 5859448469, "lat": 40.759915, "lon": 30.421282, "tags": {"amenity": "charging_station", "operator": "Renault Ernaz Sakarya", "name": "Gersan 63A Eşarj 32A", "capacity": "2", "_source": "worldwide"}}, {"type": "node", "id": 7077989423, "lat": 40.770978, "lon": 30.395071, "tags": {"amenity": "charging_station", "fee": "yes", "opening_hours": "24/7", "operator": "SHARZ", "name": "SHARZ Riada Hotel", "addr:street": "Yenidoğan Mahallesi, Ana Sk. No:49, 54100 Adapazarı/Sakarya", "addr:city": "ADAPAZARI", "capacity": "1", "_source": "worldwide"}}, {"type": "node", "id": 8898271351, "lat": 40.734715, "lon": 30.029756, "tags": {"amenity": "charging_station", "fee": "no", "operator": "ZES", "name": "ZES Elektrikli Şarj İstasyonu", "_source": "worldwide"}}, {"type": "node", "id": 9444475163, "lat": 40.750969, "lon": 30.699312, "tags": {"amenity": "charging_station", "brand": "Tesla Supercharger", "operator": "Tesla, Inc.", "name": "Tesla Supercharger", "_source": "worldwide"}}, {"type": "node", "id": 10826917306, "lat": 40.84376, "lon": 30.283575, "tags": {"amenity": "charging_station", "name": "Togg Trugo", "_source": "worldwide"}}, {"type": "node", "id": 10826917406, "lat": 40.801487, "lon": 30.850305, "tags": {"amenity": "charging_station", "name": "Togg Trugo", "_source": "worldwide"}}, {"type": "node", "id": 10826917408, "lat": 40.703184, "lon": 30.313286, "tags": {"amenity": "charging_station", "name": "Togg Trugo", "_source": "worldwide"}}, {"type": "node", "id": 10826917409, "lat": 40.692124, "lon": 30.282484, "tags": {"amenity": "charging_station", "name": "Togg Trugo", "_source": "worldwide"}}, {"type": "node", "id": 10826917410, "lat": 40.844438, "lon": 30.288117, "tags": {"amenity": "charging_station", "name": "Togg Trugo", "_source": "worldwide"}}, {"type": "node", "id": 10826917505, "lat": 40.807221, "lon": 30.858397, "tags": {"amenity": "charging_station", "name": "Togg Trugo", "_source": "worldwide"}}, {"type": "node", "id": 10826917608, "lat": 40.733764, "lon": 30.41326, "tags": {"amenity": "charging_station", "name": "Togg Trugo", "_source": "worldwide"}}]}