{"id": "-43-147", "latMin": -43, "lonMin": 147, "latMax": -42, "lonMax": 148, "generated": "2026-04-16T18:39:07.177Z", "count": 27, "pois": [{"type": "node", "id": 5519606421, "lat": -42.881274, "lon": 147.324301, "tags": {"amenity": "charging_station", "fee": "no", "opening_hours": "Mo-Fr 07:45-18:30; Sa-Su off", "operator": "Hobart City Council", "name": "Hobart City Council", "socket:type1": "2", "capacity": "2", "_source": "worldwide"}}, {"type": "node", "id": 6510436415, "lat": -42.513236, "lon": 147.188861, "tags": {"amenity": "charging_station", "fee": "yes", "opening_hours": "24/7", "network": "NextCharge", "name": "EV Charging Station", "_source": "worldwide"}}, {"type": "node", "id": 7236246800, "lat": -42.880734, "lon": 147.337056, "tags": {"amenity": "charging_station", "brand": "Tesla", "name": "Tesla Destination Charger", "socket:tesla_destination": "1", "capacity": "3", "_source": "worldwide"}}, {"type": "node", "id": 7644755936, "lat": -42.779193, "lon": 147.061207, "tags": {"amenity": "charging_station", "fee": "yes", "opening_hours": "24/7", "network": "NextCharge", "name": "EV Charging Station", "_source": "worldwide"}}, {"type": "node", "id": 7885621574, "lat": -42.881409, "lon": 147.332291, "tags": {"amenity": "charging_station", "fee": "no", "access": "yes", "opening_hours": "24/7", "operator": "City of Hobart", "name": "City of Hobart", "socket:chademo": "1", "capacity": "2", "_source": "worldwide"}}, {"type": "node", "id": 8021537952, "lat": -42.881836, "lon": 147.333335, "tags": {"amenity": "charging_station", "fee": "no", "access": "yes", "opening_hours": "24/7", "operator": "TasPorts", "name": "TasPorts", "capacity": "1", "_source": "worldwide"}}, {"type": "node", "id": 8021537953, "lat": -42.881683, "lon": 147.335479, "tags": {"amenity": "charging_station", "fee": "no", "access": "yes", "opening_hours": "24/7", "operator": "TasPorts", "name": "TasPorts", "capacity": "1", "_source": "worldwide"}}, {"type": "node", "id": 8366243660, "lat": -42.86414, "lon": 147.368988, "tags": {"amenity": "charging_station", "fee": "no", "access": "yes", "opening_hours": "24/7", "network": "Chargefox", "operator": "Clarence Council", "name": "Clarence Council", "capacity": "1", "_source": "worldwide"}}, {"type": "node", "id": 8451336892, "lat": -42.875355, "lon": 147.324019, "tags": {"amenity": "charging_station", "operator": "Audi", "name": "Audi", "capacity": "1", "_source": "worldwide"}}, {"type": "node", "id": 8490556835, "lat": -42.700726, "lon": 147.250877, "tags": {"amenity": "charging_station", "fee": "yes", "opening_hours": "24/7", "brand": "Evie Networks", "network": "Evie Networks", "operator": "Evie Networks", "name": "Evie Networks", "socket:chademo": "2", "capacity": "4", "_source": "worldwide"}}, {"type": "node", "id": 9837441207, "lat": -42.298903, "lon": 147.371219, "tags": {"amenity": "charging_station", "fee": "yes", "access": "yes", "network": "Chargefox", "operator": "Electric Highway Tasmania", "name": "Electric Highway Tasmania", "_source": "worldwide"}}, {"type": "node", "id": 9843352654, "lat": -42.887425, "lon": 147.426926, "tags": {"amenity": "charging_station", "operator": "Evie Networks", "name": "Evie Networks", "socket:chademo": "2", "capacity": "4", "_source": "worldwide"}}, {"type": "node", "id": 10203808935, "lat": -42.980266, "lon": 147.303553, "tags": {"amenity": "charging_station", "operator": "Evie Networks", "name": "Evie Networks", "socket:chademo": "2", "capacity": "6", "_source": "worldwide"}}, {"type": "node", "id": 10203832127, "lat": -42.848475, "lon": 147.296824, "tags": {"amenity": "charging_station", "name": "EV Charging Station", "_source": "worldwide"}}, {"type": "node", "id": 10235078090, "lat": -42.50816, "lon": 147.909958, "tags": {"amenity": "charging_station", "network": "Chargefox", "operator": "Electric Highway Tasmania", "name": "Electric Highway Tasmania", "socket:chademo": "1", "capacity": "3", "_source": "worldwide"}}, {"type": "node", "id": 10250262062, "lat": -42.887008, "lon": 147.81451, "tags": {"amenity": "charging_station", "name": "EV Charging Station", "_source": "worldwide"}}, {"type": "node", "id": 10772464492, "lat": -42.903147, "lon": 147.336525, "tags": {"amenity": "charging_station", "fee": "yes", "access": "yes", "brand": "Kempower", "network": "Chargefox", "operator": "Electric Highway Tasmania", "name": "Kempower", "socket:chademo": "2", "capacity": "4", "_source": "worldwide"}}, {"type": "node", "id": 10899273472, "lat": -42.832093, "lon": 147.271745, "tags": {"amenity": "charging_station", "name": "EV Charging Station", "_source": "worldwide"}}, {"type": "node", "id": 11015876427, "lat": -42.873012, "lon": 147.31622, "tags": {"amenity": "charging_station", "name": "EV Charging Station", "_source": "worldwide"}}, {"type": "node", "id": 11140163995, "lat": -42.975867, "lon": 147.311993, "tags": {"amenity": "charging_station", "fee": "yes", "brand": "Electric Highway Tasmania", "network": "Chargefox", "operator": "Electric Highway Tasmania", "name": "Electric Highway Tasmania", "addr:street": "Channel Highway", "addr:housenumber": "15", "addr:postcode": "7050", "socket:chademo": "2", "capacity": "6", "_source": "worldwide"}}, {"type": "node", "id": 12022104725, "lat": -42.782067, "lon": 147.564537, "tags": {"amenity": "charging_station", "operator": "Evie Networks", "name": "Evie Networks", "_source": "worldwide"}}, {"type": "node", "id": 12185388534, "lat": -42.849319, "lon": 147.29624, "tags": {"amenity": "charging_station", "access": "yes", "brand": "BP Pulse", "operator": "BP Pulse", "name": "BP Pulse", "socket:chademo": "1", "capacity": "4", "_source": "worldwide"}}, {"type": "node", "id": 12284535730, "lat": -42.781964, "lon": 147.563933, "tags": {"amenity": "charging_station", "operator": "Evie Networks", "name": "Evie Networks", "socket:chademo": "1", "capacity": "4", "_source": "worldwide"}}, {"type": "node", "id": 12432340001, "lat": -42.606687, "lon": 147.718535, "tags": {"amenity": "charging_station", "fee": "yes", "access": "yes", "opening_hours": "24/7", "brand": "Electrona", "network": "Wevolt", "operator": "Electrona Pty Ltd", "name": "Buckland Kent St", "addr:street": "Kent Street", "addr:housenumber": "23", "addr:postcode": "7190", "_source": "worldwide"}}, {"type": "node", "id": 13016444371, "lat": -42.866393, "lon": 147.368866, "tags": {"amenity": "charging_station", "name": "EV Charging Station", "_source": "worldwide"}}, {"type": "node", "id": 13269454092, "lat": -42.83381, "lon": 147.285211, "tags": {"amenity": "charging_station", "fee": "yes", "access": "yes", "opening_hours": "24/7", "brand": "Tesla Supercharger", "network": "Supercharger", "operator": "Tesla", "name": "Tesla Supercharger", "capacity": "4", "_source": "worldwide"}}, {"type": "node", "id": 13440779401, "lat": -42.883888, "lon": 147.332713, "tags": {"amenity": "charging_station", "operator": "TasPorts", "name": "TasPorts free charger", "_source": "worldwide"}}]}