{"id": "-36-174", "latMin": -36, "lonMin": 174, "latMax": -35, "lonMax": 175, "generated": "2026-04-16T18:39:07.190Z", "count": 9, "pois": [{"type": "node", "id": 5005065633, "lat": -35.37981, "lon": 174.065558, "tags": {"amenity": "charging_station", "operator": "ChargeNet NZ", "name": "ChargeNet NZ", "socket:chademo": "1", "capacity": "2", "_source": "worldwide"}}, {"type": "node", "id": 6003584185, "lat": -35.281821, "lon": 174.092836, "tags": {"amenity": "charging_station", "operator": "Tesla, Inc.", "name": "Tesla, Inc.", "_source": "worldwide"}}, {"type": "node", "id": 6815036332, "lat": -35.725481, "lon": 174.318081, "tags": {"amenity": "charging_station", "name": "EV Charging Station", "_source": "worldwide"}}, {"type": "node", "id": 8294825426, "lat": -35.72528, "lon": 174.318622, "tags": {"amenity": "charging_station", "fee": "yes", "access": "yes", "opening_hours": "24/7", "brand": "Tesla Supercharger", "network": "Supercharger", "operator": "Tesla, Inc.", "name": "Tesla Supercharger", "_source": "worldwide"}}, {"type": "node", "id": 10985310463, "lat": -35.684013, "lon": 174.321728, "tags": {"amenity": "charging_station", "name": "EV Charging Station", "_source": "worldwide"}}, {"type": "node", "id": 11954997544, "lat": -35.731143, "lon": 174.33074, "tags": {"amenity": "charging_station", "fee": "no", "access": "yes", "operator": "ChargeNet NZ", "name": "ChargeNet NZ", "_source": "worldwide"}}, {"type": "node", "id": 11954997545, "lat": -35.731137, "lon": 174.330766, "tags": {"amenity": "charging_station", "fee": "no", "access": "yes", "operator": "ChargeNet NZ", "name": "ChargeNet NZ", "_source": "worldwide"}}, {"type": "node", "id": 12572488303, "lat": -35.724822, "lon": 174.3265, "tags": {"amenity": "charging_station", "name": "EV Charging Station", "_source": "worldwide"}}, {"type": "node", "id": 12588641303, "lat": -35.282915, "lon": 174.090388, "tags": {"amenity": "charging_station", "operator": "Crimson Cruiser", "name": "Crimson Cruiser", "_source": "worldwide"}}]}