{"id": "32--93", "latMin": 32, "lonMin": -93, "latMax": 33, "lonMax": -92, "generated": "2026-04-16T18:39:07.282Z", "count": 5, "pois": [{"type": "node", "id": 6610906903, "lat": 32.49655, "lon": -92.05509, "tags": {"amenity": "charging_station", "fee": "yes", "access": "customers", "opening_hours": "24/7", "brand": "Tesla Supercharger", "network": "Supercharger", "operator": "Tesla", "name": "Monroe Supercharger", "addr:street": "Pecanland Mall Drive", "addr:housenumber": "4919", "addr:postcode": "71203", "addr:city": "Monroe", "addr:country": "US", "capacity": "8", "_source": "worldwide"}}, {"type": "node", "id": 12034130967, "lat": 32.53908, "lon": -92.62622, "tags": {"amenity": "charging_station", "access": "customers", "brand": "Tesla", "network": "Tesla", "name": "Tesla Destination Charger", "socket:tesla_destination": "3", "socket:type1": "3", "capacity": "6", "_source": "worldwide"}}, {"type": "node", "id": 12034137286, "lat": 32.54273, "lon": -92.62574, "tags": {"amenity": "charging_station", "fee": "yes", "access": "yes", "opening_hours": "24/7", "brand": "Tesla Supercharger", "network": "Supercharger", "operator": "Tesla", "name": "Ruston Supercharger", "addr:street": "Eagle Drive", "addr:housenumber": "1407", "addr:postcode": "71270", "addr:city": "Ruston", "addr:country": "US", "socket:type1_combo": "8", "capacity": "16", "_source": "worldwide"}}, {"type": "node", "id": 12034715103, "lat": 32.541677, "lon": -92.639783, "tags": {"amenity": "charging_station", "access": "customers", "brand": "Tesla, Inc.", "network": "Tesla", "name": "Tesla Destination Charger", "socket:tesla_destination": "1", "socket:tesla_destination:output": "8.0 kW", "charging_station:output": "8.0 kW", "capacity": "1", "_source": "worldwide"}}, {"type": "node", "id": 13203730073, "lat": 32.528729, "lon": -92.636622, "tags": {"amenity": "charging_station", "name": "EV Charging Station", "socket:type1_combo": "1", "capacity": "1", "_source": "worldwide"}}]}