{"id": "39--84", "latMin": 39, "lonMin": -84, "latMax": 40, "lonMax": -83, "generated": "2026-04-16T18:39:07.705Z", "count": 7, "pois": [{"type": "node", "id": 6722002336, "lat": 39.97447, "lon": -83.00092, "tags": {"amenity": "charging_station", "fee": "yes", "access": "customers", "opening_hours": "24/7", "brand": "Tesla Supercharger", "network": "Supercharger", "operator": "Tesla, Inc.", "name": "Tesla Supercharger", "addr:street": "East Goodale Street", "addr:housenumber": "70", "addr:postcode": "43215", "addr:city": "Columbus", "addr:country": "US", "capacity": "10", "_source": "worldwide"}}, {"type": "node", "id": 6727517723, "lat": 39.87725, "lon": -83.06345, "tags": {"amenity": "charging_station", "fee": "yes", "access": "customers", "opening_hours": "24/7", "brand": "Tesla Supercharger", "network": "Supercharger", "operator": "Tesla, Inc.", "name": "Tesla Supercharger", "addr:street": "Stringtown Road", "addr:housenumber": "2221", "addr:postcode": "43123", "addr:city": "Grove City", "addr:country": "US", "capacity": "8", "_source": "worldwide"}}, {"type": "node", "id": 10967997572, "lat": 39.784732, "lon": -83.99618, "tags": {"amenity": "charging_station", "fee": "no", "access": "yes", "brand": "ChargePoint", "network": "ChargePoint", "name": "ChargePoint", "_source": "worldwide"}}, {"type": "node", "id": 12944743882, "lat": 39.9846, "lon": -83.02637, "tags": {"amenity": "charging_station", "fee": "yes", "access": "yes", "opening_hours": "24/7", "brand": "Tesla Supercharger", "network": "Supercharger", "operator": "Tesla, Inc.", "name": "Tesla Supercharger", "addr:street": "West 3rd Avenue", "addr:housenumber": "820", "addr:postcode": "43212", "addr:city": "Columbus", "addr:country": "US", "capacity": "8", "_source": "worldwide"}}, {"type": "node", "id": 12944743952, "lat": 39.9831, "lon": -83.1529, "tags": {"amenity": "charging_station", "fee": "yes", "access": "yes", "opening_hours": "24/7", "brand": "Tesla Supercharger", "network": "Supercharger", "operator": "Tesla, Inc.", "name": "Tesla Supercharger", "addr:street": "Hilliard Rome Road", "addr:housenumber": "1661", "addr:postcode": "43228", "addr:city": "Columbus", "addr:country": "US", "capacity": "12", "_source": "worldwide"}}, {"type": "node", "id": 13108688402, "lat": 39.982292, "lon": -83.146739, "tags": {"amenity": "charging_station", "access": "yes", "opening_hours": "24/7", "name": "Electrify America", "addr:street": "West Point Plaza", "addr:housenumber": "5200", "_source": "worldwide"}}, {"type": "node", "id": 13339229055, "lat": 39.06796, "lon": -83.012415, "tags": {"amenity": "charging_station", "name": "EV Charging Station", "_source": "worldwide"}}]}