{"id": "60-5", "latMin": 60, "lonMin": 5, "latMax": 61, "lonMax": 6, "generated": "2026-04-16T18:39:08.788Z", "count": 163, "pois": [{"type": "node", "id": 1770689903, "lat": 60.87462, "lon": 5.588906, "tags": {"amenity": "charging_station", "access": "private", "name": "Matre", "addr:country": "NO", "socket:type2": "3", "socket:type2:output": "22 kW", "charging_station:output": "22 kW", "capacity": "3", "_source": "worldwide"}}, {"type": "node", "id": 1770691365, "lat": 60.299028, "lon": 5.324304, "tags": {"amenity": "charging_station", "brand": "Kople", "name": "Kople Nordahl Grieg vgs", "addr:country": "NO", "socket:type2": "4", "socket:type2:output": "22.0 kW", "charging_station:output": "22.0 kW", "capacity": "4", "_source": "worldwide"}}, {"type": "node", "id": 1770691558, "lat": 60.378714, "lon": 5.221396, "tags": {"amenity": "charging_station", "access": "yes", "brand": "Kople", "name": "Kople Olsvikåsen vgs", "addr:country": "NO", "socket:type2": "3", "socket:type2:output": "11.0 kW", "charging_station:output": "11.0 kW", "capacity": "3", "_source": "worldwide"}}, {"type": "node", "id": 6763239289, "lat": 60.378323, "lon": 5.224814, "tags": {"amenity": "charging_station", "brand": "Recharge", "name": "Recharge Grøntulien BRL", "addr:country": "NO", "socket:type2": "3", "socket:type2:output": "7.2 kW", "charging_station:output": "7.2 kW", "capacity": "3", "_source": "worldwide"}}, {"type": "node", "id": 1770691821, "lat": 60.523665, "lon": 5.505132, "tags": {"amenity": "charging_station", "access": "yes", "brand": "Charge365", "name": "Charge365 Rådhuset", "addr:country": "NO", "socket:type2": "4", "socket:type2:output": "11.0 kW", "charging_station:output": "11.0 kW", "capacity": "4", "_source": "worldwide"}}, {"type": "node", "id": 11214834564, "lat": 60.52143, "lon": 5.512135, "tags": {"amenity": "charging_station", "access": "yes", "brand": "Kople", "name": "Kople Osterøy vgs", "addr:country": "NO", "socket:type2": "8", "socket:type2:output": "22.0 kW", "charging_station:output": "22.0 kW", "capacity": "8", "_source": "worldwide"}}, {"type": "node", "id": 1770692694, "lat": 60.291719, "lon": 5.279615, "tags": {"amenity": "charging_station", "access": "yes", "brand": "Kople", "name": "Kople Sandsli vgs", "addr:country": "NO", "socket:type2": "2", "socket:type2:output": "7.4 kW", "charging_station:output": "7.4 kW", "capacity": "2", "_source": "worldwide"}}, {"type": "node", "id": 1770693109, "lat": 60.375379, "lon": 5.337743, "tags": {"amenity": "charging_station", "access": "yes", "opening_hours": "24/7", "operator": "Bergen Parkering", "name": "Solheimsgarasjen", "addr:country": "NO", "socket:type2": "16", "socket:type2:output": "7.4 kW", "charging_station:output": "7.4 kW", "capacity": "16", "_source": "worldwide"}}, {"type": "node", "id": 1770693692, "lat": 60.454945, "lon": 5.313701, "tags": {"amenity": "charging_station", "access": "yes", "brand": "Kople", "name": "Kople Tertnes vgs", "addr:country": "NO", "socket:type2": "6", "socket:type2:output": "7.4 kW", "charging_station:output": "7.4 kW", "capacity": "6", "_source": "worldwide"}}, {"type": "node", "id": 1770693744, "lat": 60.289852, "lon": 5.261689, "tags": {"amenity": "charging_station", "access": "yes", "brand": "Mer", "operator": "Mer", "name": "Mer Thon hotel Bergen airport", "addr:country": "NO", "socket:type2": "8", "socket:type2:output": "7.4 kW", "charging_station:output": "7.4 kW", "capacity": "8", "_source": "worldwide"}}, {"type": "node", "id": 11214956434, "lat": 60.288337, "lon": 5.261848, "tags": {"amenity": "charging_station", "access": "yes", "fee": "yes", "brand": "Kople", "opening_hours": "24/7", "operator": "Kople", "name": "Kople Birkelandsskiftet p-anlegg", "addr:country": "NO", "socket:type2": "15", "socket:type2:output": "3.6 kW", "charging_station:output": "3.6 kW", "capacity": "15", "_source": "worldwide"}}, {"type": "node", "id": 11214956435, "lat": 60.288582, "lon": 5.260912, "tags": {"amenity": "charging_station", "access": "yes", "fee": "yes", "brand": "Kople", "operator": "Kople", "name": "Kople Ytrebygdsvegen 215", "addr:country": "NO", "socket:type2": "4", "socket:type2:output": "22.0 kW", "charging_station:output": "22.0 kW", "capacity": "4", "_source": "worldwide"}}, {"type": "node", "id": 3147879707, "lat": 60.470134, "lon": 5.33817, "tags": {"amenity": "charging_station", "access": "yes", "operator": "AutoCenteret AS", "name": "AutoCenteret", "addr:country": "NO", "socket:chademo": "1", "socket:chademo:output": "50.0 kW", "socket:type1": "2", "socket:type1:output": "3.6 kW", "charging_station:output": "50.0 kW", "capacity": "3", "_source": "worldwide"}}, {"type": "node", "id": 6780360093, "lat": 60.47322, "lon": 5.33354, "tags": {"amenity": "charging_station", "access": "yes", "brand": "Eviny", "name": "Eviny Gullgruven senter", "addr:country": "NO", "socket:type2_combo": "16", "socket:type2_combo:output": "400.0 kW", "socket:chademo": "4", "socket:chademo:output": "50.0 kW", "charging_station:output": "400.0 kW", "capacity": "16", "_source": "worldwide"}}, {"type": "node", "id": 3561836383, "lat": 60.484567, "lon": 5.376086, "tags": {"amenity": "charging_station", "access": "yes", "brand": "Circle K", "name": "Circle K Haukås", "addr:country": "NO", "socket:type2_combo": "8", "socket:type2_combo:output": "400.0 kW", "charging_station:output": "400.0 kW", "capacity": "8", "_source": "worldwide"}}, {"type": "node", "id": 13108690494, "lat": 60.484705, "lon": 5.382196, "tags": {"amenity": "charging_station", "access": "customers", "fee": "yes", "opening_hours": "24/7", "operator": "Bergen Camping Park AS", "name": "Ladestation Bergen Camping Park AS", "addr:country": "NO", "socket:type2": "1", "socket:type2:output": "7.0 kW", "charging_station:output": "7.0 kW", "_source": "worldwide"}}, {"type": "node", "id": 13108709674, "lat": 60.485177, "lon": 5.382151, "tags": {"amenity": "charging_station", "fee": "yes", "opening_hours": "24/7", "operator": "Bergen Camping Park AS", "name": "Ladestation Bergen Camping Park AS", "addr:country": "NO", "_source": "worldwide"}}, {"type": "node", "id": 3851002258, "lat": 60.424303, "lon": 5.627297, "tags": {"amenity": "charging_station", "access": "yes", "brand": "Eviny", "name": "Eviny Trengereid", "addr:country": "NO", "socket:type2": "1", "socket:type2:output": "22.0 kW", "socket:type2_combo": "11", "socket:type2_combo:output": "350.0 kW", "socket:chademo": "6", "socket:chademo:output": "62.0 kW", "charging_station:output": "350.0 kW", "capacity": "12", "_source": "worldwide"}}, {"type": "node", "id": 3977616794, "lat": 60.392551, "lon": 5.328922, "tags": {"amenity": "charging_station", "addr:country": "NO", "capacity": "6", "_source": "worldwide"}}, {"type": "node", "id": 4150953110, "lat": 60.378471, "lon": 5.361622, "tags": {"amenity": "charging_station", "name": "Haraldsplass parkeringshus", "addr:country": "NO", "capacity": "35", "_source": "worldwide"}}, {"type": "node", "id": 4161983135, "lat": 60.403317, "lon": 5.329442, "tags": {"amenity": "charging_station", "access": "private", "addr:country": "NO", "capacity": "2", "_source": "worldwide"}}, {"type": "node", "id": 4182862536, "lat": 60.388397, "lon": 5.318518, "tags": {"amenity": "charging_station", "access": "yes", "opening_hours": "24/7", "operator": "Bergen kommune", "name": "Sydnesplassen", "addr:country": "NO", "socket:type2": "4", "socket:type2:output": "3.6 kW", "charging_station:output": "3.6 kW", "capacity": "4", "_source": "worldwide"}}, {"type": "node", "id": 4230378121, "lat": 60.29753, "lon": 5.276353, "tags": {"amenity": "charging_station", "operator": "Aker Solutions", "name": "Ladestation Aker Solutions", "addr:country": "NO", "capacity": "4", "_source": "worldwide"}}, {"type": "node", "id": 4258930043, "lat": 60.295561, "lon": 5.326977, "tags": {"amenity": "charging_station", "access": "yes", "brand": "Recharge", "opening_hours": "24/7", "name": "Recharge McDonald´s Laguneparken Rådal", "addr:country": "NO", "socket:type2": "2", "socket:type2:output": "22.0 kW", "socket:type2_combo": "2", "socket:type2_combo:output": "50.0 kW", "socket:chademo": "2", "socket:chademo:output": "50.0 kW", "charging_station:output": "50.0 kW", "capacity": "4", "_source": "worldwide"}}, {"type": "node", "id": 7831348229, "lat": 60.296555, "lon": 5.327672, "tags": {"amenity": "charging_station", "access": "yes", "brand": "Recharge", "name": "Recharge Shell Laguneparken", "addr:country": "NO", "socket:type2_combo": "10", "socket:type2_combo:output": "225.0 kW", "socket:chademo": "6", "socket:chademo:output": "50.0 kW", "charging_station:output": "225.0 kW", "capacity": "10", "_source": "worldwide"}}, {"type": "node", "id": 4274258543, "lat": 60.403561, "lon": 5.018285, "tags": {"amenity": "charging_station", "access": "yes", "brand": "Recharge", "opening_hours": "24/7", "name": "Recharge Kiwi Ågotnes Bergen", "addr:country": "NO", "socket:type2": "1", "socket:type2:output": "22.0 kW", "socket:type2_combo": "1", "socket:type2_combo:output": "50.0 kW", "socket:chademo": "1", "socket:chademo:output": "50.0 kW", "charging_station:output": "50.0 kW", "capacity": "2", "_source": "worldwide"}}, {"type": "node", "id": 4346195058, "lat": 60.350232, "lon": 5.29054, "tags": {"amenity": "charging_station", "access": "private", "fee": "no", "addr:country": "NO", "socket:schuko": "4", "socket:schuko:output": "2.3 kW", "charging_station:output": "2.3 kW", "capacity": "4", "_source": "worldwide"}}, {"type": "node", "id": 11169096624, "lat": 60.348714, "lon": 5.293181, "tags": {"amenity": "charging_station", "access": "yes", "brand": "Eviny", "name": "Eviny Oasen senter", "addr:country": "NO", "socket:type2": "30", "socket:type2:output": "22.0 kW", "socket:type2_combo": "10", "socket:type2_combo:output": "400.0 kW", "socket:chademo": "2", "socket:chademo:output": "62.0 kW", "charging_station:output": "400.0 kW", "capacity": "40", "_source": "worldwide"}}, {"type": "node", "id": 4382094559, "lat": 60.739654, "lon": 5.633328, "tags": {"amenity": "charging_station", "access": "yes", "brand": "Eviny", "name": "Eviny Romarheim", "addr:country": "NO", "socket:type2_combo": "1", "socket:type2_combo:output": "50.0 kW", "socket:chademo": "1", "socket:chademo:output": "50.0 kW", "charging_station:output": "50.0 kW", "capacity": "1", "_source": "worldwide"}}, {"type": "node", "id": 4439448176, "lat": 60.399367, "lon": 5.321204, "tags": {"amenity": "charging_station", "access": "yes", "opening_hours": "24/7", "operator": "Bergen kommune", "name": "Øvre Dreggsallmenningen", "addr:country": "NO", "socket:type2": "6", "socket:type2:output": "3.6 kW", "charging_station:output": "3.6 kW", "capacity": "6", "_source": "worldwide"}}, {"type": "node", "id": 4443415121, "lat": 60.30871, "lon": 5.359054, "tags": {"amenity": "charging_station", "addr:country": "NO", "_source": "worldwide"}}, {"type": "node", "id": 4454665719, "lat": 60.384038, "lon": 5.33036, "tags": {"amenity": "charging_station", "access": "private", "opening_hours": "24/7", "operator": "Universitetet i Bergen", "name": "Ladestation Universitetet i Bergen", "addr:country": "NO", "socket:schuko": "6", "socket:schuko:output": "2.3 kW", "charging_station:output": "2.3 kW", "capacity": "6", "_source": "worldwide"}}, {"type": "node", "id": 4583774545, "lat": 60.39335, "lon": 5.316859, "tags": {"amenity": "charging_station", "access": "yes", "opening_hours": "24/7", "operator": "Bergen Parkering", "name": "Klostergarasjen", "addr:country": "NO", "socket:type2": "24", "socket:type2:output": "3.6 kW", "charging_station:output": "3.6 kW", "capacity": "24", "_source": "worldwide"}}, {"type": "node", "id": 6665563964, "lat": 60.395759, "lon": 5.31557, "tags": {"amenity": "charging_station", "fee": "no", "operator": "Bymiljøetaten", "name": "Ladestation Bymiljøetaten", "addr:country": "NO", "capacity": "4", "_source": "worldwide"}}, {"type": "node", "id": 4949440581, "lat": 60.379893, "lon": 5.352711, "tags": {"amenity": "charging_station", "addr:country": "NO", "_source": "worldwide"}}, {"type": "node", "id": 4990371418, "lat": 60.589587, "lon": 5.820078, "tags": {"amenity": "charging_station", "access": "yes", "brand": "Eviny", "name": "Eviny Dale sentrum", "addr:country": "NO", "socket:type2": "1", "socket:type2:output": "43.0 kW", "socket:type2_combo": "4", "socket:type2_combo:output": "200.0 kW", "socket:chademo": "3", "socket:chademo:output": "62.0 kW", "charging_station:output": "200.0 kW", "capacity": "5", "_source": "worldwide"}}, {"type": "node", "id": 5260365655, "lat": 60.405181, "lon": 5.917078, "tags": {"amenity": "charging_station", "access": "yes", "brand": "Eviny", "name": "Eviny Eikedalen Skisenter", "addr:country": "NO", "socket:type2": "6", "socket:type2:output": "22.0 kW", "charging_station:output": "22.0 kW", "capacity": "6", "_source": "worldwide"}}, {"type": "node", "id": 5896086819, "lat": 60.352963, "lon": 5.357347, "tags": {"amenity": "charging_station", "addr:country": "NO", "capacity": "2", "_source": "worldwide"}}, {"type": "node", "id": 5986073893, "lat": 60.360967, "lon": 5.23372, "tags": {"amenity": "charging_station", "access": "yes", "brand": "Mer", "opening_hours": "24/7", "name": "Mer Vestkanten storsenter P3", "addr:country": "NO", "socket:type2": "6", "socket:type2:output": "22.0 kW", "socket:type2_combo": "5", "socket:type2_combo:output": "50.0 kW", "socket:chademo": "5", "socket:chademo:output": "50.0 kW", "charging_station:output": "50.0 kW", "capacity": "11", "_source": "worldwide"}}, {"type": "node", "id": 7226500495, "lat": 60.361456, "lon": 5.234414, "tags": {"amenity": "charging_station", "access": "yes", "brand": "Recharge", "name": "Recharge Esso Vestkanten", "addr:country": "NO", "socket:type2_combo": "7", "socket:type2_combo:output": "300.0 kW", "socket:chademo": "3", "socket:chademo:output": "50.0 kW", "charging_station:output": "300.0 kW", "capacity": "7", "_source": "worldwide"}}, {"type": "node", "id": 6019570811, "lat": 60.73482, "lon": 5.79743, "tags": {"amenity": "charging_station", "access": "customers", "opening_hours": "24/7", "operator": "Snarkjøp Eidsland", "name": "Snarkjøp Eidsland", "addr:country": "NO", "socket:type2": "1", "socket:type2:output": "3.6 kW", "charging_station:output": "3.6 kW", "capacity": "1", "_source": "worldwide"}}, {"type": "node", "id": 6034292202, "lat": 60.422248, "lon": 5.202204, "tags": {"amenity": "charging_station", "access": "customers", "opening_hours": "24/7", "operator": "AMFI Askøy", "name": "Amfi Askøy", "addr:country": "NO", "socket:type2": "6", "socket:type2:output": "11.0 kW", "charging_station:output": "11.0 kW", "capacity": "6", "_source": "worldwide"}}, {"type": "node", "id": 6034292254, "lat": 60.422814, "lon": 5.202097, "tags": {"amenity": "charging_station", "access": "yes", "brand": "Mer", "opening_hours": "24/7", "name": "Mer Askøy Amfi", "addr:country": "NO", "socket:type2_combo": "2", "socket:type2_combo:output": "50.0 kW", "socket:chademo": "2", "socket:chademo:output": "50.0 kW", "charging_station:output": "50.0 kW", "capacity": "2", "_source": "worldwide"}}, {"type": "node", "id": 8998955041, "lat": 60.42272, "lon": 5.20388, "tags": {"amenity": "charging_station", "access": "yes", "brand": "Mer", "name": "Mer Alti Askøy", "addr:country": "NO", "socket:type2_combo": "4", "socket:type2_combo:output": "150.0 kW", "socket:chademo": "4", "socket:chademo:output": "62.0 kW", "charging_station:output": "150.0 kW", "capacity": "4", "_source": "worldwide"}}, {"type": "node", "id": 6034292211, "lat": 60.452699, "lon": 5.495898, "tags": {"amenity": "charging_station", "access": "yes", "opening_hours": "24/7", "operator": "Osterøy kommune", "name": "Hausvegen", "addr:country": "NO", "socket:type2": "2", "socket:type2:output": "7.4 kW", "charging_station:output": "7.4 kW", "capacity": "2", "_source": "worldwide"}}, {"type": "node", "id": 6034292212, "lat": 60.292441, "lon": 5.234491, "tags": {"amenity": "charging_station", "access": "yes", "brand": "Circle K", "operator": "Circle K", "name": "Circle K Flesland", "addr:country": "NO", "socket:type2_combo": "12", "socket:type2_combo:output": "400.0 kW", "socket:chademo": "2", "socket:chademo:output": "62.0 kW", "charging_station:output": "400.0 kW", "capacity": "4", "_source": "worldwide"}}, {"type": "node", "id": 6034292236, "lat": 60.289594, "lon": 5.231367, "tags": {"amenity": "charging_station", "access": "yes", "opening_hours": "24/7", "operator": "Avinor", "name": "Bergen lufthavn Flesland P3", "addr:country": "NO", "socket:type2": "8", "socket:type2:output": "3.6 kW", "charging_station:output": "3.6 kW", "capacity": "8", "authentication:none": "yes", "_source": "worldwide"}}, {"type": "node", "id": 6450875126, "lat": 60.289918, "lon": 5.230716, "tags": {"amenity": "charging_station", "access": "yes", "opening_hours": "24/7", "operator": "Avinor", "name": "Bergen lufthavn Flesland P16", "addr:country": "NO", "socket:type2": "40", "socket:type2:output": "3.6 kW", "charging_station:output": "3.6 kW", "capacity": "40", "authentication:none": "yes", "_source": "worldwide"}}, {"type": "node", "id": 12786903783, "lat": 60.28892, "lon": 5.23284, "tags": {"amenity": "charging_station", "access": "yes", "brand": "Mer", "name": "Mer Bergen lufthavn, Flesland", "addr:country": "NO", "socket:type2_combo": "12", "socket:type2_combo:output": "300.0 kW", "socket:chademo": "6", "socket:chademo:output": "62.0 kW", "charging_station:output": "300.0 kW", "capacity": "12", "_source": "worldwide"}}, {"type": "node", "id": 6034292213, "lat": 60.362361, "lon": 5.226132, "tags": {"amenity": "charging_station", "access": "yes", "brand": "Eviny", "name": "Eviny Vadmyra og Vestre", "addr:country": "NO", "socket:type2": "1", "socket:type2:output": "22.0 kW", "socket:type2_combo": "6", "socket:type2_combo:output": "180.0 kW", "socket:chademo": "2", "socket:chademo:output": "75.0 kW", "charging_station:output": "180.0 kW", "capacity": "7", "_source": "worldwide"}}, {"type": "node", "id": 6034292214, "lat": 60.466598, "lon": 5.340219, "tags": {"amenity": "charging_station", "access": "yes", "opening_hours": "24/7", "operator": "Lade i Norge", "name": "Møller Bil Bergen", "addr:country": "NO", "socket:type2": "1", "socket:type2:output": "22.0 kW", "socket:type2_combo": "1", "socket:type2_combo:output": "50.0 kW", "charging_station:output": "50.0 kW", "capacity": "2", "_source": "worldwide"}}, {"type": "node", "id": 6034292215, "lat": 60.421842, "lon": 5.467055, "tags": {"amenity": "charging_station", "access": "yes", "fee": "yes", "brand": "Tesla Supercharger", "opening_hours": "24/7", "operator": "Tesla", "name": "Tesla Arna Supercharger", "addr:country": "NO", "socket:type2_combo": "20", "socket:type2_combo:output": "150.0 kW", "socket:tesla_supercharger": "20", "socket:tesla_supercharger:output": "150.0 kW", "charging_station:output": "150.0 kW", "capacity": "20", "_source": "worldwide"}}, {"type": "node", "id": 6034292217, "lat": 60.420956, "lon": 5.463898, "tags": {"amenity": "charging_station", "access": "yes", "brand": "Recharge", "opening_hours": "24/7", "name": "Recharge YX 7-Eleven Øyrane torg", "addr:country": "NO", "socket:type2": "2", "socket:type2:output": "11.0 kW", "socket:type2_combo": "4", "socket:type2_combo:output": "50.0 kW", "socket:chademo": "4", "socket:chademo:output": "50.0 kW", "charging_station:output": "50.0 kW", "capacity": "6", "_source": "worldwide"}}, {"type": "node", "id": 6034292216, "lat": 60.386968, "lon": 5.334993, "tags": {"amenity": "charging_station", "access": "yes", "opening_hours": "24/7", "operator": "Bergen Parkering KF", "name": "ByGarasjen", "addr:country": "NO", "socket:type2": "54", "socket:type2:output": "3.6 kW", "charging_station:output": "3.6 kW", "capacity": "54", "_source": "worldwide"}}, {"type": "node", "id": 11169096627, "lat": 60.387827, "lon": 5.334738, "tags": {"amenity": "charging_station", "access": "yes", "brand": "Eviny", "name": "Eviny Taxi Bystasjonen", "addr:country": "NO", "socket:type2_combo": "4", "socket:type2_combo:output": "100.0 kW", "socket:chademo": "2", "socket:chademo:output": "62.0 kW", "charging_station:output": "100.0 kW", "capacity": "4", "_source": "worldwide"}}, {"type": "node", "id": 6034292219, "lat": 60.378032, "lon": 5.988331, "tags": {"amenity": "charging_station", "access": "yes", "brand": "Eviny", "name": "Eviny NAF Kvamskogen", "addr:country": "NO", "socket:type2": "1", "socket:type2:output": "22.0 kW", "socket:type2_combo": "3", "socket:type2_combo:output": "150.0 kW", "socket:chademo": "2", "socket:chademo:output": "50.0 kW", "charging_station:output": "150.0 kW", "capacity": "4", "_source": "worldwide"}}, {"type": "node", "id": 6034292224, "lat": 60.204314, "lon": 5.453358, "tags": {"amenity": "charging_station", "access": "yes", "fee": "yes", "brand": "Recharge", "name": "Recharge Kiwi Gudridflaten", "addr:country": "NO", "socket:type2_combo": "6", "socket:type2_combo:output": "200.0 kW", "socket:chademo": "2", "socket:chademo:output": "50.0 kW", "charging_station:output": "200.0 kW", "capacity": "6", "_source": "worldwide"}}, {"type": "node", "id": 6771439337, "lat": 60.202026, "lon": 5.457815, "tags": {"amenity": "charging_station", "access": "yes", "brand": "Mer", "name": "Mer Amfi Os", "addr:country": "NO", "socket:type2": "2", "socket:type2:output": "22.0 kW", "socket:type2_combo": "3", "socket:type2_combo:output": "50.0 kW", "socket:chademo": "3", "socket:chademo:output": "50.0 kW", "charging_station:output": "50.0 kW", "capacity": "5", "_source": "worldwide"}}, {"type": "node", "id": 11169096618, "lat": 60.20483, "lon": 5.450274, "tags": {"amenity": "charging_station", "access": "yes", "brand": "Eviny", "name": "Eviny Meny Os", "addr:country": "NO", "socket:type2_combo": "12", "socket:type2_combo:output": "500.0 kW", "socket:chademo": "2", "socket:chademo:output": "62.0 kW", "charging_station:output": "500.0 kW", "capacity": "12", "_source": "worldwide"}}, {"type": "node", "id": 6034292225, "lat": 60.193053, "lon": 5.464821, "tags": {"amenity": "charging_station", "access": "yes", "fee": "yes", "brand": "Tesla Supercharger", "opening_hours": "24/7", "operator": "Tesla", "name": "Tesla Os Supercharger", "addr:country": "NO", "socket:type2_combo": "14", "socket:type2_combo:output": "150.0 kW", "socket:tesla_supercharger": "14", "socket:tesla_supercharger:output": "150.0 kW", "charging_station:output": "150.0 kW", "capacity": "14", "_source": "worldwide"}}, {"type": "node", "id": 6034292226, "lat": 60.508744, "lon": 5.466812, "tags": {"amenity": "charging_station", "access": "yes", "opening_hours": "24/7", "operator": "Osterøy Kommune", "name": "Osterøytunet Sjukeheim", "addr:country": "NO", "socket:type2": "4", "socket:type2:output": "7.4 kW", "charging_station:output": "7.4 kW", "capacity": "4", "_source": "worldwide"}}, {"type": "node", "id": 6034292227, "lat": 60.195574, "lon": 5.458583, "tags": {"amenity": "charging_station", "access": "yes", "brand": "Kople", "name": "Kople Os gymnas", "addr:country": "NO", "socket:type2": "2", "socket:type2:output": "7.4 kW", "charging_station:output": "7.4 kW", "capacity": "2", "_source": "worldwide"}}, {"type": "node", "id": 6034292232, "lat": 60.399913, "lon": 5.305267, "tags": {"amenity": "charging_station", "access": "yes", "opening_hours": "24/7", "operator": "Bergen Parkering KF", "name": "NordnesGarasjen", "addr:country": "NO", "socket:type2": "9", "socket:type2:output": "3.6 kW", "charging_station:output": "3.6 kW", "capacity": "9", "_source": "worldwide"}}, {"type": "node", "id": 6034292233, "lat": 60.385099, "lon": 5.317804, "tags": {"amenity": "charging_station", "access": "permissive", "opening_hours": "24/7", "operator": "Møhlenpris Hovedgård", "name": "Møhlenpris Hovedgård", "addr:country": "NO", "socket:type2": "5", "socket:type2:output": "22.0 kW", "charging_station:output": "22.0 kW", "capacity": "5", "_source": "worldwide"}}, {"type": "node", "id": 6034292234, "lat": 60.363431, "lon": 5.368763, "tags": {"amenity": "charging_station", "access": "yes", "opening_hours": "24/7", "operator": "Bergen kommune", "name": "Landåsveien", "addr:country": "NO", "socket:type2": "4", "socket:type2:output": "3.6 kW", "charging_station:output": "3.6 kW", "capacity": "4", "_source": "worldwide"}}, {"type": "node", "id": 6034292239, "lat": 60.505514, "lon": 5.429317, "tags": {"amenity": "charging_station", "access": "yes", "operator": "Osterøy kommune", "name": "Valestrand", "addr:country": "NO", "socket:type2": "4", "socket:type2:output": "7.4 kW", "charging_station:output": "7.4 kW", "capacity": "4", "_source": "worldwide"}}, {"type": "node", "id": 6034292240, "lat": 60.099605, "lon": 5.22506, "tags": {"amenity": "charging_station", "access": "yes", "brand": "Mer", "opening_hours": "24/7", "name": "Mer Extra Austevoll", "addr:country": "NO", "socket:type2": "2", "socket:type2:output": "22.0 kW", "socket:type2_combo": "1", "socket:type2_combo:output": "50.0 kW", "socket:chademo": "1", "socket:chademo:output": "50.0 kW", "charging_station:output": "50.0 kW", "capacity": "3", "_source": "worldwide"}}, {"type": "node", "id": 6034292241, "lat": 60.58336, "lon": 5.797827, "tags": {"amenity": "charging_station", "access": "yes", "brand": "Eviny", "name": "Eviny Dalegarden", "addr:country": "NO", "socket:type2_combo": "16", "socket:type2_combo:output": "350.0 kW", "socket:chademo": "4", "socket:chademo:output": "50.0 kW", "charging_station:output": "350.0 kW", "capacity": "16", "_source": "worldwide"}}, {"type": "node", "id": 11173760418, "lat": 60.582588, "lon": 5.795332, "tags": {"amenity": "charging_station", "access": "yes", "brand": "Circle K", "name": "Circle K Dale Cafe", "addr:country": "NO", "socket:type2_combo": "4", "socket:type2_combo:output": "300.0 kW", "socket:chademo": "2", "socket:chademo:output": "62.0 kW", "charging_station:output": "300.0 kW", "capacity": "4", "_source": "worldwide"}}, {"type": "node", "id": 6034292242, "lat": 60.370435, "lon": 5.191852, "tags": {"amenity": "charging_station", "access": "yes", "brand": "Recharge", "opening_hours": "24/7", "name": "Recharge Kiwi Godvik", "addr:country": "NO", "socket:type2": "1", "socket:type2:output": "11.0 kW", "socket:type2_combo": "3", "socket:type2_combo:output": "50.0 kW", "socket:chademo": "3", "socket:chademo:output": "50.0 kW", "charging_station:output": "50.0 kW", "capacity": "4", "_source": "worldwide"}}, {"type": "node", "id": 6034292257, "lat": 60.40603, "lon": 5.220784, "tags": {"amenity": "charging_station", "access": "yes", "brand": "Eviny", "name": "Eviny Kleppestø", "addr:country": "NO", "socket:type2": "1", "socket:type2:output": "22.0 kW", "socket:type2_combo": "5", "socket:type2_combo:output": "200.0 kW", "socket:chademo": "3", "socket:chademo:output": "50.0 kW", "charging_station:output": "200.0 kW", "capacity": "6", "_source": "worldwide"}}, {"type": "node", "id": 6034292258, "lat": 60.641092, "lon": 5.043359, "tags": {"amenity": "charging_station", "access": "yes", "brand": "Eviny", "name": "Eviny Rema 1000 Manger", "addr:country": "NO", "socket:type2": "1", "socket:type2:output": "43.0 kW", "socket:type2_combo": "3", "socket:type2_combo:output": "200.0 kW", "socket:chademo": "2", "socket:chademo:output": "50.0 kW", "charging_station:output": "200.0 kW", "capacity": "4", "_source": "worldwide"}}, {"type": "node", "id": 6034292263, "lat": 60.1467, "lon": 5.37457, "tags": {"amenity": "charging_station", "access": "yes", "brand": "Kople", "name": "Kople Søre Øyane barneskule", "addr:country": "NO", "socket:type2": "1", "socket:type2:output": "3.6 kW", "charging_station:output": "3.6 kW", "capacity": "1", "_source": "worldwide"}}, {"type": "node", "id": 6034292265, "lat": 60.374725, "lon": 5.341134, "tags": {"amenity": "charging_station", "access": "yes", "brand": "Kople", "name": "Kople Årstad vgs", "addr:country": "NO", "socket:type2": "2", "socket:type2:output": "7.4 kW", "charging_station:output": "7.4 kW", "capacity": "2", "_source": "worldwide"}}, {"type": "node", "id": 1305473756, "lat": 60.373902, "lon": 5.340674, "tags": {"amenity": "charging_station", "access": "yes", "fee": "yes", "brand": "Eviny", "opening_hours": "24/7", "name": "Eviny Danmarksplass", "addr:country": "NO", "socket:type2_combo": "22", "socket:type2_combo:output": "350.0 kW", "socket:chademo": "14", "socket:chademo:output": "50.0 kW", "charging_station:output": "350.0 kW", "capacity": "22", "_source": "worldwide"}}, {"type": "node", "id": 1311556441, "lat": 60.374004, "lon": 5.342109, "tags": {"amenity": "charging_station", "access": "yes", "operator": "Bergen Kommune", "name": "Ladestation Bergen Kommune", "addr:country": "NO", "capacity": "8", "_source": "worldwide"}}, {"type": "node", "id": 6034292266, "lat": 60.185157, "lon": 5.469694, "tags": {"amenity": "charging_station", "access": "yes", "brand": "Kople", "name": "Kople Os rådhus", "addr:country": "NO", "socket:type2": "6", "socket:type2:output": "7.4 kW", "charging_station:output": "7.4 kW", "capacity": "6", "_source": "worldwide"}}, {"type": "node", "id": 6034292909, "lat": 60.186845, "lon": 5.467571, "tags": {"amenity": "charging_station", "access": "yes", "brand": "Kople", "name": "Kople Tunet kyrkje og kultursenter", "addr:country": "NO", "socket:type2": "8", "socket:type2:output": "7.4 kW", "charging_station:output": "7.4 kW", "capacity": "8", "_source": "worldwide"}}, {"type": "node", "id": 6034292273, "lat": 60.236225, "lon": 5.452294, "tags": {"amenity": "charging_station", "access": "yes", "brand": "Kople", "name": "Kople Søfteland skule", "addr:country": "NO", "socket:type2": "2", "socket:type2:output": "7.4 kW", "charging_station:output": "7.4 kW", "capacity": "2", "_source": "worldwide"}}, {"type": "node", "id": 6034292279, "lat": 60.797526, "lon": 5.010898, "tags": {"amenity": "charging_station", "access": "yes", "brand": "Eviny", "name": "Eviny Spar Mongstad", "addr:country": "NO", "socket:type2": "1", "socket:type2:output": "43.0 kW", "socket:type2_combo": "5", "socket:type2_combo:output": "200.0 kW", "socket:chademo": "3", "socket:chademo:output": "62.0 kW", "charging_station:output": "200.0 kW", "capacity": "6", "_source": "worldwide"}}, {"type": "node", "id": 6034292281, "lat": 60.596338, "lon": 5.39119, "tags": {"amenity": "charging_station", "access": "yes", "brand": "Mer", "opening_hours": "24/7", "name": "Mer Best Eikangervåg", "addr:country": "NO", "socket:type2": "2", "socket:type2:output": "22.0 kW", "socket:type2_combo": "1", "socket:type2_combo:output": "50.0 kW", "socket:chademo": "1", "socket:chademo:output": "50.0 kW", "charging_station:output": "50.0 kW", "capacity": "3", "_source": "worldwide"}}, {"type": "node", "id": 6034292282, "lat": 60.54828, "lon": 5.288627, "tags": {"amenity": "charging_station", "access": "yes", "brand": "Eviny", "name": "Eviny Knarvik senter", "addr:country": "NO", "socket:type2": "8", "socket:type2:output": "22.0 kW", "socket:type2_combo": "7", "socket:type2_combo:output": "300.0 kW", "socket:chademo": "3", "socket:chademo:output": "62.0 kW", "charging_station:output": "300.0 kW", "capacity": "15", "_source": "worldwide"}}, {"type": "node", "id": 11169096629, "lat": 60.546941, "lon": 5.284581, "tags": {"amenity": "charging_station", "access": "yes", "brand": "Eviny", "name": "Eviny Knarvik", "addr:country": "NO", "socket:type2": "1", "socket:type2:output": "22.0 kW", "socket:type2_combo": "7", "socket:type2_combo:output": "350.0 kW", "socket:chademo": "2", "socket:chademo:output": "62.0 kW", "charging_station:output": "350.0 kW", "capacity": "8", "_source": "worldwide"}}, {"type": "node", "id": 6034292886, "lat": 60.240385, "lon": 5.748541, "tags": {"amenity": "charging_station", "access": "yes", "brand": "Mer", "opening_hours": "24/7", "name": "Mer Eikelandsosen", "addr:country": "NO", "socket:type2": "2", "socket:type2:output": "22.0 kW", "socket:type2_combo": "1", "socket:type2_combo:output": "50.0 kW", "socket:chademo": "1", "socket:chademo:output": "50.0 kW", "charging_station:output": "50.0 kW", "capacity": "3", "_source": "worldwide"}}, {"type": "node", "id": 12773980015, "lat": 60.239292, "lon": 5.749735, "tags": {"amenity": "charging_station", "access": "yes", "brand": "Tesla", "name": "Tesla Eikelandsosen Supercharger", "addr:country": "NO", "socket:type2_combo": "4", "socket:type2_combo:output": "150.0 kW", "charging_station:output": "150.0 kW", "capacity": "4", "_source": "worldwide"}}, {"type": "node", "id": 6034292888, "lat": 60.469354, "lon": 5.322938, "tags": {"amenity": "charging_station", "access": "yes", "brand": "Mer", "opening_hours": "24/7", "name": "Mer Horisont", "addr:country": "NO", "socket:type2_combo": "12", "socket:type2_combo:output": "30.0 kW", "socket:chademo": "12", "socket:chademo:output": "30.0 kW", "charging_station:output": "30.0 kW", "capacity": "12", "_source": "worldwide"}}, {"type": "node", "id": 10795036103, "lat": 60.470793, "lon": 5.323076, "tags": {"amenity": "charging_station", "access": "customers", "fee": "yes", "opening_hours": "24/7", "operator": "Mer", "name": "Mer Horisont", "addr:country": "NO", "socket:type2_combo": "12", "socket:type2_combo:output": "50.0 kW", "socket:chademo": "12", "socket:chademo:output": "50.0 kW", "charging_station:output": "50.0 kW", "capacity": "12", "_source": "worldwide"}}, {"type": "node", "id": 6034292893, "lat": 60.145976, "lon": 5.427815, "tags": {"amenity": "charging_station", "access": "yes", "brand": "Eviny", "name": "Eviny Halhjem fergekai", "addr:country": "NO", "socket:type2": "3", "socket:type2:output": "43.0 kW", "socket:type2_combo": "3", "socket:type2_combo:output": "50.0 kW", "socket:chademo": "3", "socket:chademo:output": "50.0 kW", "charging_station:output": "50.0 kW", "capacity": "6", "_source": "worldwide"}}, {"type": "node", "id": 6034292894, "lat": 60.897281, "lon": 5.519754, "tags": {"amenity": "charging_station", "access": "yes", "brand": "Mer", "name": "Mer Joker Haugsvær", "addr:country": "NO", "socket:type2_combo": "4", "socket:type2_combo:output": "150.0 kW", "socket:chademo": "2", "socket:chademo:output": "50.0 kW", "charging_station:output": "150.0 kW", "capacity": "4", "_source": "worldwide"}}, {"type": "node", "id": 6034292897, "lat": 60.347637, "lon": 5.335668, "tags": {"amenity": "charging_station", "access": "yes", "brand": "Eviny", "name": "Eviny Rema 1000 Fjøsanger", "addr:country": "NO", "socket:type2": "1", "socket:type2:output": "22.0 kW", "socket:type2_combo": "13", "socket:type2_combo:output": "400.0 kW", "socket:chademo": "1", "socket:chademo:output": "62.0 kW", "charging_station:output": "400.0 kW", "capacity": "14", "_source": "worldwide"}}, {"type": "node", "id": 6034292898, "lat": 60.5181, "lon": 5.239702, "tags": {"amenity": "charging_station", "access": "yes", "brand": "Eviny", "name": "Eviny Frekhaug", "addr:country": "NO", "socket:type2": "2", "socket:type2:output": "22.0 kW", "socket:type2_combo": "6", "socket:type2_combo:output": "350.0 kW", "socket:chademo": "4", "socket:chademo:output": "62.0 kW", "charging_station:output": "350.0 kW", "capacity": "8", "_source": "worldwide"}}, {"type": "node", "id": 6034292902, "lat": 60.385699, "lon": 5.301136, "tags": {"amenity": "charging_station", "access": "yes", "opening_hours": "24/7", "operator": "Bergen kommune", "name": "Laksevåg kirke", "addr:country": "NO", "socket:type2": "4", "socket:type2:output": "3.6 kW", "charging_station:output": "3.6 kW", "capacity": "4", "_source": "worldwide"}}, {"type": "node", "id": 6034292903, "lat": 60.640175, "lon": 5.041689, "tags": {"amenity": "charging_station", "access": "yes", "brand": "Mer", "opening_hours": "24/7", "name": "Mer Extra Manger", "addr:country": "NO", "socket:type2": "2", "socket:type2:output": "22.0 kW", "socket:type2_combo": "1", "socket:type2_combo:output": "43.0 kW", "socket:chademo": "1", "socket:chademo:output": "43.0 kW", "charging_station:output": "43.0 kW", "capacity": "3", "_source": "worldwide"}}, {"type": "node", "id": 6034292904, "lat": 60.401797, "lon": 5.329218, "tags": {"amenity": "charging_station", "access": "yes", "opening_hours": "24/7", "operator": "Bergen kommune", "name": "Sandviken", "addr:country": "NO", "socket:type2": "4", "socket:type2:output": "3.6 kW", "charging_station:output": "3.6 kW", "capacity": "4", "_source": "worldwide"}}, {"type": "node", "id": 6034292908, "lat": 60.348861, "lon": 5.276947, "tags": {"amenity": "charging_station", "access": "yes", "brand": "Eviny", "name": "Eviny Fyllingsdalen Krokatjønnveien", "addr:country": "NO", "socket:type2_combo": "6", "socket:type2_combo:output": "200.0 kW", "socket:chademo": "3", "socket:chademo:output": "62.0 kW", "charging_station:output": "200.0 kW", "capacity": "6", "_source": "worldwide"}}, {"type": "node", "id": 6034292910, "lat": 60.356072, "lon": 5.127748, "tags": {"amenity": "charging_station", "access": "yes", "brand": "Recharge", "name": "Recharge TP Kystbygarasjen", "addr:country": "NO", "socket:type2": "21", "socket:type2:output": "3.6 kW", "charging_station:output": "3.6 kW", "capacity": "21", "_source": "worldwide"}}, {"type": "node", "id": 11169096625, "lat": 60.358602, "lon": 5.122169, "tags": {"amenity": "charging_station", "access": "yes", "brand": "Eviny", "opening_hours": "Mo-Fr 07:00-22:00; Sa 08:00-21:00; Su 09:00-22:00", "name": "Eviny Rema 1000 Sartorparken", "addr:country": "NO", "socket:type2_combo": "8", "socket:type2_combo:output": "200.0 kW", "socket:chademo": "2", "socket:chademo:output": "62.0 kW", "charging_station:output": "200.0 kW", "capacity": "8", "_source": "worldwide"}}, {"type": "node", "id": 11214800798, "lat": 60.356461, "lon": 5.128638, "tags": {"amenity": "charging_station", "access": "yes", "brand": "Kople", "name": "Kople Straume Bergen", "addr:country": "NO", "socket:type2_combo": "6", "socket:type2_combo:output": "100.0 kW", "socket:chademo": "2", "socket:chademo:output": "62.0 kW", "charging_station:output": "100.0 kW", "capacity": "6", "_source": "worldwide"}}, {"type": "node", "id": 6034292912, "lat": 60.475155, "lon": 5.331029, "tags": {"amenity": "charging_station", "access": "yes", "brand": "Recharge", "name": "Recharge IKEA Åsane", "addr:country": "NO", "socket:type2": "25", "socket:type2:output": "11.0 kW", "socket:type2_combo": "26", "socket:type2_combo:output": "200.0 kW", "socket:chademo": "4", "socket:chademo:output": "50.0 kW", "charging_station:output": "200.0 kW", "capacity": "51", "_source": "worldwide"}}, {"type": "node", "id": 11172580266, "lat": 60.474357, "lon": 5.33773, "tags": {"amenity": "charging_station", "access": "yes", "brand": "Recharge", "name": "Recharge Esso Nyborg", "addr:country": "NO", "socket:type2_combo": "6", "socket:type2_combo:output": "225.0 kW", "socket:chademo": "1", "socket:chademo:output": "62.0 kW", "charging_station:output": "225.0 kW", "capacity": "6", "_source": "worldwide"}}, {"type": "node", "id": 6034292913, "lat": 60.367128, "lon": 5.189565, "tags": {"amenity": "charging_station", "access": "yes", "brand": "Recharge", "opening_hours": "24/7", "name": "Recharge Sande Auto Vest", "addr:country": "NO", "socket:type2_combo": "1", "socket:type2_combo:output": "50.0 kW", "socket:chademo": "1", "socket:chademo:output": "50.0 kW", "charging_station:output": "50.0 kW", "capacity": "1", "_source": "worldwide"}}, {"type": "node", "id": 6034292920, "lat": 60.185461, "lon": 5.409186, "tags": {"amenity": "charging_station", "access": "yes", "brand": "Recharge", "opening_hours": "24/7", "name": "Recharge Spar Nore Neset", "addr:country": "NO", "socket:type2": "2", "socket:type2:output": "11.0 kW", "socket:type2_combo": "2", "socket:type2_combo:output": "50.0 kW", "socket:chademo": "2", "socket:chademo:output": "50.0 kW", "charging_station:output": "50.0 kW", "capacity": "4", "_source": "worldwide"}}, {"type": "node", "id": 6034292921, "lat": 60.291863, "lon": 5.284833, "tags": {"amenity": "charging_station", "access": "yes", "brand": "Recharge", "opening_hours": "24/7", "name": "Recharge Kiwi Sandsli", "addr:country": "NO", "socket:type2": "2", "socket:type2:output": "11.0 kW", "socket:type2_combo": "2", "socket:type2_combo:output": "50.0 kW", "socket:chademo": "2", "socket:chademo:output": "50.0 kW", "charging_station:output": "50.0 kW", "capacity": "4", "_source": "worldwide"}}, {"type": "node", "id": 6047204623, "lat": 60.847846, "lon": 5.083714, "tags": {"amenity": "charging_station", "access": "yes", "opening_hours": "24/7", "operator": "Sløvåg Næringsbygg", "name": "Vidsyn, Sløvåg", "addr:country": "NO", "socket:type2": "2", "socket:type2:output": "3.6 kW", "charging_station:output": "3.6 kW", "capacity": "2", "_source": "worldwide"}}, {"type": "node", "id": 6142133028, "lat": 60.363275, "lon": 5.356461, "tags": {"amenity": "charging_station", "brand": "ChargePoint", "name": "ChargePoint", "addr:country": "NO", "_source": "worldwide"}}, {"type": "node", "id": 6450874437, "lat": 60.284753, "lon": 5.233361, "tags": {"amenity": "charging_station", "access": "yes", "opening_hours": "24/7", "operator": "Avinor", "name": "Bergen lufthavn Flesland P13", "addr:country": "NO", "socket:type2": "44", "socket:type2:output": "3.6 kW", "charging_station:output": "3.6 kW", "capacity": "44", "authentication:none": "yes", "_source": "worldwide"}}, {"type": "node", "id": 6505805460, "lat": 60.398494, "lon": 5.310317, "tags": {"amenity": "charging_station", "operator": "Bergen Kommune", "name": "Ladestation Bergen Kommune", "addr:country": "NO", "capacity": "10", "authentication:none": "", "_source": "worldwide"}}, {"type": "node", "id": 6762237216, "lat": 60.514737, "lon": 5.227979, "tags": {"amenity": "charging_station", "access": "yes", "brand": "Recharge", "name": "Recharge Esso Frekhaug", "addr:country": "NO", "socket:type2_combo": "4", "socket:type2_combo:output": "300.0 kW", "socket:chademo": "2", "socket:chademo:output": "50.0 kW", "charging_station:output": "300.0 kW", "capacity": "4", "_source": "worldwide"}}, {"type": "node", "id": 6762237217, "lat": 60.37421, "lon": 5.457096, "tags": {"amenity": "charging_station", "access": "yes", "brand": "Recharge", "name": "Recharge Shell Lone", "addr:country": "NO", "socket:type2": "1", "socket:type2:output": "11.0 kW", "socket:type2_combo": "3", "socket:type2_combo:output": "150.0 kW", "socket:chademo": "1", "socket:chademo:output": "50.0 kW", "charging_station:output": "150.0 kW", "capacity": "4", "_source": "worldwide"}}, {"type": "node", "id": 6762237238, "lat": 60.813829, "lon": 5.804466, "tags": {"amenity": "charging_station", "access": "yes", "brand": "Recharge", "name": "Recharge Bryggjeslottet", "addr:country": "NO", "socket:type2": "2", "socket:type2:output": "11.0 kW", "socket:type2_combo": "2", "socket:type2_combo:output": "50.0 kW", "socket:chademo": "2", "socket:chademo:output": "50.0 kW", "charging_station:output": "50.0 kW", "capacity": "4", "_source": "worldwide"}}, {"type": "node", "id": 6771439339, "lat": 60.359586, "lon": 5.123002, "tags": {"amenity": "charging_station", "access": "yes", "brand": "Mer", "name": "Mer Sartor storsenter", "addr:country": "NO", "socket:type2_combo": "8", "socket:type2_combo:output": "50.0 kW", "socket:chademo": "7", "socket:chademo:output": "50.0 kW", "charging_station:output": "50.0 kW", "capacity": "8", "_source": "worldwide"}}, {"type": "node", "id": 6780360091, "lat": 60.625853, "lon": 5.474105, "tags": {"amenity": "charging_station", "access": "yes", "brand": "Eviny", "name": "Eviny Ostereidet senter", "addr:country": "NO", "socket:type2": "1", "socket:type2:output": "22.0 kW", "socket:type2_combo": "7", "socket:type2_combo:output": "400.0 kW", "socket:chademo": "2", "socket:chademo:output": "62.0 kW", "charging_station:output": "400.0 kW", "capacity": "8", "_source": "worldwide"}}, {"type": "node", "id": 6780360094, "lat": 60.390038, "lon": 5.286436, "tags": {"amenity": "charging_station", "access": "yes", "brand": "Eviny", "name": "Eviny Laksevåg senter", "addr:country": "NO", "socket:type2": "7", "socket:type2:output": "22.0 kW", "socket:type2_combo": "5", "socket:type2_combo:output": "350.0 kW", "socket:chademo": "2", "socket:chademo:output": "62.0 kW", "charging_station:output": "350.0 kW", "capacity": "12", "_source": "worldwide"}}, {"type": "node", "id": 6780360095, "lat": 60.308856, "lon": 5.270396, "tags": {"amenity": "charging_station", "access": "yes", "brand": "Eviny", "name": "Eviny Meny Dolviken", "addr:country": "NO", "socket:type2_combo": "4", "socket:type2_combo:output": "500.0 kW", "socket:chademo": "1", "socket:chademo:output": "62.0 kW", "charging_station:output": "500.0 kW", "capacity": "4", "_source": "worldwide"}}, {"type": "node", "id": 11169096620, "lat": 60.305502, "lon": 5.268687, "tags": {"amenity": "charging_station", "access": "yes", "brand": "Eviny", "name": "Eviny Rema 1000 Søreide", "addr:country": "NO", "socket:type2_combo": "8", "socket:type2_combo:output": "400.0 kW", "socket:chademo": "3", "socket:chademo:output": "62.0 kW", "charging_station:output": "400.0 kW", "capacity": "8", "_source": "worldwide"}}, {"type": "node", "id": 6780360096, "lat": 60.515256, "lon": 5.247015, "tags": {"amenity": "charging_station", "access": "yes", "brand": "Eviny", "name": "Eviny Frekhaug kai", "addr:country": "NO", "socket:type2": "8", "socket:type2:output": "3.6 kW", "charging_station:output": "3.6 kW", "capacity": "8", "_source": "worldwide"}}, {"type": "node", "id": 6780360097, "lat": 60.428014, "lon": 5.193299, "tags": {"amenity": "charging_station", "access": "yes", "brand": "Eviny", "name": "Eviny Rema 1000 Juvikflaten", "addr:country": "NO", "socket:type2": "2", "socket:type2:output": "22.0 kW", "socket:type2_combo": "6", "socket:type2_combo:output": "350.0 kW", "socket:chademo": "3", "socket:chademo:output": "62.0 kW", "charging_station:output": "350.0 kW", "capacity": "8", "_source": "worldwide"}}, {"type": "node", "id": 6970018239, "lat": 60.295963, "lon": 5.329157, "tags": {"amenity": "charging_station", "brand": "Mer", "name": "Mer Laguneparken P3", "addr:country": "NO", "socket:type2": "5", "socket:type2:output": "11.0 kW", "charging_station:output": "11.0 kW", "capacity": "5", "_source": "worldwide"}}, {"type": "node", "id": 6970238978, "lat": 60.404918, "lon": 5.002476, "tags": {"amenity": "charging_station", "access": "yes", "brand": "Recharge", "name": "Recharge Esso Ågotnes", "addr:country": "NO", "socket:type2": "3", "socket:type2:output": "11.0 kW", "socket:type2_combo": "2", "socket:type2_combo:output": "50.0 kW", "socket:chademo": "2", "socket:chademo:output": "50.0 kW", "charging_station:output": "50.0 kW", "capacity": "5", "_source": "worldwide"}}, {"type": "node", "id": 11169096628, "lat": 60.40359, "lon": 5.000734, "tags": {"amenity": "charging_station", "access": "yes", "brand": "Eviny", "name": "Eviny Ågotnes torg", "addr:country": "NO", "socket:type2": "1", "socket:type2:output": "22.0 kW", "socket:type2_combo": "4", "socket:type2_combo:output": "100.0 kW", "socket:chademo": "3", "socket:chademo:output": "62.0 kW", "charging_station:output": "100.0 kW", "capacity": "5", "_source": "worldwide"}}, {"type": "node", "id": 6970808022, "lat": 60.270734, "lon": 5.072555, "tags": {"amenity": "charging_station", "access": "yes", "fee": "yes", "brand": "Recharge", "name": "Recharge Skogsskiftet", "addr:country": "NO", "socket:type2": "2", "socket:type2:output": "11.0 kW", "socket:type2_combo": "2", "socket:type2_combo:output": "150.0 kW", "socket:chademo": "2", "socket:chademo:output": "62.0 kW", "charging_station:output": "150.0 kW", "capacity": "4", "_source": "worldwide"}}, {"type": "node", "id": 11169096623, "lat": 60.270011, "lon": 5.070378, "tags": {"amenity": "charging_station", "access": "yes", "brand": "Eviny", "name": "Eviny Forland Autosenter, Skogsvåg", "addr:country": "NO", "socket:type2_combo": "4", "socket:type2_combo:output": "100.0 kW", "socket:chademo": "2", "socket:chademo:output": "62.0 kW", "charging_station:output": "100.0 kW", "capacity": "4", "_source": "worldwide"}}, {"type": "node", "id": 7079421790, "lat": 60.181482, "lon": 5.453379, "tags": {"amenity": "charging_station", "access": "yes", "brand": "Recharge", "name": "Recharge Kiwi Moberg", "addr:country": "NO", "socket:type2_combo": "2", "socket:type2_combo:output": "150.0 kW", "socket:chademo": "2", "socket:chademo:output": "62.0 kW", "charging_station:output": "150.0 kW", "capacity": "2", "_source": "worldwide"}}, {"type": "node", "id": 8235596599, "lat": 60.181534, "lon": 5.466873, "tags": {"amenity": "charging_station", "addr:country": "NO", "_source": "worldwide"}}, {"type": "node", "id": 8242874275, "lat": 60.145539, "lon": 5.426792, "tags": {"amenity": "charging_station", "addr:country": "NO", "_source": "worldwide"}}, {"type": "node", "id": 8373357969, "lat": 60.408757, "lon": 5.226745, "tags": {"amenity": "charging_station", "access": "yes", "brand": "Mer", "name": "Mer Kleppestø senter", "addr:country": "NO", "socket:type2_combo": "8", "socket:type2_combo:output": "150.0 kW", "socket:chademo": "8", "socket:chademo:output": "62.0 kW", "charging_station:output": "150.0 kW", "capacity": "8", "_source": "worldwide"}}, {"type": "node", "id": 8998955044, "lat": 60.462808, "lon": 5.317155, "tags": {"amenity": "charging_station", "access": "yes", "brand": "Mer", "name": "Mer Extra Ulset", "addr:country": "NO", "socket:type2_combo": "4", "socket:type2_combo:output": "150.0 kW", "socket:chademo": "4", "socket:chademo:output": "62.0 kW", "charging_station:output": "150.0 kW", "capacity": "4", "_source": "worldwide"}}, {"type": "node", "id": 10857857167, "lat": 60.381387, "lon": 5.202809, "tags": {"amenity": "charging_station", "fee": "yes", "brand": "Bilkraft", "network": "Bilkraft", "operator": "Bilkraft", "name": "Bilkraft 22kw Type2", "addr:country": "NO", "capacity": "22", "_source": "worldwide"}}, {"type": "node", "id": 10858747910, "lat": 60.320342, "lon": 5.351553, "tags": {"amenity": "charging_station", "access": "yes", "brand": "Circle K", "name": "Circle K Nesttun", "addr:country": "NO", "socket:type2_combo": "12", "socket:type2_combo:output": "400.0 kW", "socket:chademo": "4", "socket:chademo:output": "62.0 kW", "charging_station:output": "400.0 kW", "capacity": "12", "_source": "worldwide"}}, {"type": "node", "id": 10949881379, "lat": 60.438755, "lon": 5.323331, "tags": {"amenity": "charging_station", "access": "yes", "brand": "Uno-X", "name": "Uno-X Eidsvåg", "addr:country": "NO", "socket:type2_combo": "8", "socket:type2_combo:output": "300.0 kW", "charging_station:output": "300.0 kW", "capacity": "8", "_source": "worldwide"}}, {"type": "node", "id": 11169096606, "lat": 60.0463, "lon": 5.523842, "tags": {"amenity": "charging_station", "access": "yes", "brand": "Eviny", "name": "Eviny Våge fergekai", "addr:country": "NO", "socket:type2": "4", "socket:type2:output": "22.0 kW", "socket:type2_combo": "6", "socket:type2_combo:output": "225.0 kW", "socket:chademo": "2", "socket:chademo:output": "50.0 kW", "charging_station:output": "225.0 kW", "capacity": "10", "_source": "worldwide"}}, {"type": "node", "id": 11169096608, "lat": 60.060828, "lon": 5.91403, "tags": {"amenity": "charging_station", "access": "yes", "brand": "Eviny", "name": "Eviny Gjermundshamn", "addr:country": "NO", "socket:type2": "1", "socket:type2:output": "22.0 kW", "socket:type2_combo": "3", "socket:type2_combo:output": "150.0 kW", "socket:chademo": "2", "socket:chademo:output": "62.0 kW", "charging_station:output": "150.0 kW", "capacity": "4", "_source": "worldwide"}}, {"type": "node", "id": 11169096621, "lat": 60.296391, "lon": 5.254008, "tags": {"amenity": "charging_station", "access": "yes", "brand": "Eviny", "name": "Eviny Bertel O. Steen Kokstad", "addr:country": "NO", "socket:type2_combo": "4", "socket:type2_combo:output": "200.0 kW", "socket:chademo": "2", "socket:chademo:output": "62.0 kW", "charging_station:output": "200.0 kW", "capacity": "4", "_source": "worldwide"}}, {"type": "node", "id": 11169096622, "lat": 60.292726, "lon": 5.227781, "tags": {"amenity": "charging_station", "access": "yes", "brand": "Eviny", "name": "Eviny Taxi Flesland", "addr:country": "NO", "socket:type2": "4", "socket:type2:output": "22.0 kW", "socket:type2_combo": "12", "socket:type2_combo:output": "180.0 kW", "socket:chademo": "4", "socket:chademo:output": "62.0 kW", "charging_station:output": "180.0 kW", "capacity": "16", "_source": "worldwide"}}, {"type": "node", "id": 11169096626, "lat": 60.364796, "lon": 5.234008, "tags": {"amenity": "charging_station", "access": "yes", "brand": "Eviny", "name": "Eviny Lyderhorn", "addr:country": "NO", "socket:type2_combo": "5", "socket:type2_combo:output": "150.0 kW", "socket:chademo": "3", "socket:chademo:output": "62.0 kW", "charging_station:output": "150.0 kW", "capacity": "5", "_source": "worldwide"}}, {"type": "node", "id": 11169096631, "lat": 60.834232, "lon": 5.262659, "tags": {"amenity": "charging_station", "access": "yes", "brand": "Eviny", "name": "Eviny Hosteland", "addr:country": "NO", "socket:type2": "2", "socket:type2:output": "22.0 kW", "socket:type2_combo": "4", "socket:type2_combo:output": "200.0 kW", "socket:chademo": "2", "socket:chademo:output": "50.0 kW", "charging_station:output": "200.0 kW", "capacity": "6", "_source": "worldwide"}}, {"type": "node", "id": 11172580249, "lat": 60.284204, "lon": 5.252775, "tags": {"amenity": "charging_station", "access": "yes", "brand": "Recharge", "name": "Recharge Spar Blomsterdalen", "addr:country": "NO", "socket:type2_combo": "6", "socket:type2_combo:output": "225.0 kW", "socket:chademo": "3", "socket:chademo:output": "62.0 kW", "charging_station:output": "225.0 kW", "capacity": "6", "_source": "worldwide"}}, {"type": "node", "id": 12977341818, "lat": 60.284623, "lon": 5.253669, "tags": {"amenity": "charging_station", "access": "yes", "fee": "yes", "brand": "Tesla Supercharger", "operator": "Tesla", "name": "Blomsterdalen Supercharger", "addr:country": "NO", "capacity": "16", "_source": "worldwide"}}, {"type": "node", "id": 11214800788, "lat": 60.261803, "lon": 5.091555, "tags": {"amenity": "charging_station", "access": "yes", "brand": "Kople", "name": "Kople Sotra vgs avd. Skogsvåg", "addr:country": "NO", "socket:type2": "2", "socket:type2:output": "3.6 kW", "charging_station:output": "3.6 kW", "capacity": "2", "_source": "worldwide"}}, {"type": "node", "id": 11214800791, "lat": 60.34998, "lon": 5.093936, "tags": {"amenity": "charging_station", "access": "private", "operator": "Fjell kommune/Meshcrafts", "name": "Bildøybakken", "addr:country": "NO", "socket:type2": "6", "socket:type2:output": "7.4 kW", "charging_station:output": "7.4 kW", "capacity": "6", "_source": "worldwide"}}, {"type": "node", "id": 11214800792, "lat": 60.353408, "lon": 5.11007, "tags": {"amenity": "charging_station", "access": "yes", "operator": "Fjell kommune/Meshcrafts", "name": "Bildøyhallen", "addr:country": "NO", "socket:type2": "4", "socket:type2:output": "7.4 kW", "charging_station:output": "7.4 kW", "capacity": "4", "_source": "worldwide"}}, {"type": "node", "id": 11214800793, "lat": 60.351615, "lon": 5.109367, "tags": {"amenity": "charging_station", "access": "yes", "brand": "Kople", "name": "Kople Sotra vgs avd. Bildøy", "addr:country": "NO", "socket:type2": "2", "socket:type2:output": "7.4 kW", "charging_station:output": "7.4 kW", "capacity": "2", "_source": "worldwide"}}, {"type": "node", "id": 11214834296, "lat": 60.465276, "lon": 5.324428, "tags": {"amenity": "charging_station", "access": "yes", "brand": "Mer", "name": "Mer Åsane storsenter", "addr:country": "NO", "socket:type2": "10", "socket:type2:output": "22.0 kW", "charging_station:output": "22.0 kW", "capacity": "10", "_source": "worldwide"}}, {"type": "node", "id": 11214956418, "lat": 60.18667, "lon": 5.479171, "tags": {"amenity": "charging_station", "access": "yes", "brand": "Kople", "name": "Kople Luranetunet bu- og behandlingssenter", "addr:country": "NO", "socket:type2": "4", "socket:type2:output": "22.0 kW", "charging_station:output": "22.0 kW", "capacity": "4", "_source": "worldwide"}}, {"type": "node", "id": 11214956431, "lat": 60.273623, "lon": 5.330386, "tags": {"amenity": "charging_station", "access": "yes", "brand": "Kople", "name": "Kople Stend vgs", "addr:country": "NO", "socket:type2": "2", "socket:type2:output": "7.4 kW", "charging_station:output": "7.4 kW", "capacity": "2", "_source": "worldwide"}}, {"type": "node", "id": 11214956432, "lat": 60.274545, "lon": 5.336531, "tags": {"amenity": "charging_station", "access": "yes", "brand": "Kople", "name": "Kople Stend vgs stall", "addr:country": "NO", "socket:type2": "1", "socket:type2:output": "7.4 kW", "charging_station:output": "7.4 kW", "capacity": "1", "_source": "worldwide"}}, {"type": "node", "id": 11214956433, "lat": 60.272398, "lon": 5.328914, "tags": {"amenity": "charging_station", "access": "yes", "brand": "Kople", "name": "Kople Stend vgs maskinverksted", "addr:country": "NO", "socket:type2": "2", "socket:type2:output": "7.4 kW", "charging_station:output": "7.4 kW", "capacity": "2", "_source": "worldwide"}}, {"type": "node", "id": 11214991190, "lat": 60.294918, "lon": 5.26633, "tags": {"amenity": "charging_station", "access": "yes", "brand": "Kople", "name": "Kople Kokstadvegen 23B", "addr:country": "NO", "socket:type2": "4", "socket:type2:output": "43.0 kW", "charging_station:output": "43.0 kW", "capacity": "4", "_source": "worldwide"}}, {"type": "node", "id": 11214991191, "lat": 60.297857, "lon": 5.267196, "tags": {"amenity": "charging_station", "access": "yes", "operator": "Lade i Norge", "name": "Møller Bil Kokstad", "addr:country": "NO", "socket:type2": "9", "socket:type2:output": "22.0 kW", "socket:type2_combo": "2", "socket:type2_combo:output": "150.0 kW", "charging_station:output": "150.0 kW", "capacity": "11", "_source": "worldwide"}}, {"type": "node", "id": 11218004744, "lat": 60.161617, "lon": 5.442638, "tags": {"amenity": "charging_station", "access": "yes", "brand": "Kople", "name": "Kople Lunde barneskule", "addr:country": "NO", "socket:type2": "4", "socket:type2:output": "20.0 kW", "charging_station:output": "20.0 kW", "capacity": "4", "_source": "worldwide"}}, {"type": "node", "id": 11218004745, "lat": 60.178808, "lon": 5.41766, "tags": {"amenity": "charging_station", "access": "yes", "brand": "Kople", "name": "Kople Nore Neset ungdomsskule", "addr:country": "NO", "socket:type2": "4", "socket:type2:output": "22.0 kW", "charging_station:output": "22.0 kW", "capacity": "4", "_source": "worldwide"}}, {"type": "node", "id": 11218004746, "lat": 60.309622, "lon": 5.356567, "tags": {"amenity": "charging_station", "access": "yes", "brand": "Kople", "name": "Kople Slåtthaug vgs", "addr:country": "NO", "socket:type2": "5", "socket:type2:output": "7.4 kW", "charging_station:output": "7.4 kW", "capacity": "5", "_source": "worldwide"}}, {"type": "node", "id": 11337887349, "lat": 60.199177, "lon": 5.487185, "tags": {"amenity": "charging_station", "addr:country": "NO", "_source": "worldwide"}}, {"type": "node", "id": 11787437698, "lat": 60.514021, "lon": 5.33265, "tags": {"amenity": "charging_station", "access": "yes", "fee": "yes", "brand": "Recharge", "opening_hours": "24/7", "name": "Recharge Bunnpris Hordvik", "addr:country": "NO", "socket:type2_combo": "6", "socket:type2_combo:output": "400.0 kW", "socket:chademo": "2", "socket:chademo:output": "50.0 kW", "charging_station:output": "400.0 kW", "capacity": "6", "_source": "worldwide"}}, {"type": "node", "id": 12776820537, "lat": 60.459096, "lon": 5.151651, "tags": {"amenity": "charging_station", "access": "yes", "brand": "Circle K", "name": "Circle K Ravnanger", "addr:country": "NO", "socket:type2_combo": "6", "socket:type2_combo:output": "400.0 kW", "charging_station:output": "400.0 kW", "capacity": "6", "_source": "worldwide"}}, {"type": "node", "id": 12776873491, "lat": 60.979762, "lon": 5.078568, "tags": {"amenity": "charging_station", "access": "yes", "brand": "Eviny", "name": "Eviny Eivindvik", "addr:country": "NO", "socket:type2": "1", "socket:type2:output": "22.0 kW", "socket:type2_combo": "3", "socket:type2_combo:output": "200.0 kW", "socket:chademo": "2", "socket:chademo:output": "50.0 kW", "charging_station:output": "200.0 kW", "capacity": "4", "_source": "worldwide"}}, {"type": "node", "id": 12776996234, "lat": 60.384485, "lon": 5.270878, "tags": {"amenity": "charging_station", "access": "yes", "brand": "St1 Charge", "name": "St1 Lading Nygård", "addr:country": "NO", "socket:type2_combo": "10", "socket:type2_combo:output": "400.0 kW", "charging_station:output": "400.0 kW", "capacity": "10", "_source": "worldwide"}}, {"type": "node", "id": 12776996237, "lat": 60.342233, "lon": 5.273459, "tags": {"amenity": "charging_station", "access": "yes", "brand": "St1 Charge", "name": "St1 Lading Varden", "addr:country": "NO", "socket:type2_combo": "6", "socket:type2_combo:output": "400.0 kW", "charging_station:output": "400.0 kW", "capacity": "6", "_source": "worldwide"}}, {"type": "node", "id": 12824080811, "lat": 60.34813, "lon": 5.335623, "tags": {"amenity": "charging_station", "access": "yes", "brand": "Kople", "name": "Kople Spar Fjøsanger Bergen", "addr:country": "NO", "socket:type2_combo": "6", "socket:type2_combo:output": "400.0 kW", "socket:chademo": "1", "socket:chademo:output": "62.0 kW", "charging_station:output": "400.0 kW", "capacity": "6", "_source": "worldwide"}}, {"type": "node", "id": 13108709079, "lat": 60.485678, "lon": 5.381427, "tags": {"amenity": "charging_station", "fee": "yes", "opening_hours": "24/7", "operator": "Bergen Camping Site AS", "name": "Ladestation Bergen Camping Site AS", "addr:country": "NO", "_source": "worldwide"}}, {"type": "node", "id": 1069070063, "lat": 60.04231, "lon": 5.523403, "tags": {"amenity": "charging_station", "access": "yes", "brand": "Eviny", "name": "Eviny Våge", "addr:country": "NO", "socket:type2": "1", "socket:type2:output": "22.0 kW", "socket:type2_combo": "2", "socket:type2_combo:output": "50.0 kW", "socket:chademo": "2", "socket:chademo:output": "50.0 kW", "charging_station:output": "50.0 kW", "capacity": "3", "_source": "worldwide"}}, {"type": "node", "id": 1311778380, "lat": 60.367493, "lon": 5.35413, "tags": {"amenity": "charging_station", "access": "yes", "addr:country": "NO", "_source": "worldwide"}}, {"type": "node", "id": 1394977978, "lat": 60.319416, "lon": 5.367605, "tags": {"amenity": "charging_station", "fee": "yes", "addr:country": "NO", "capacity": "3", "_source": "worldwide"}}]}