{"id": "52--3", "latMin": 52, "lonMin": -3, "latMax": 53, "lonMax": -2, "generated": "2026-04-16T18:39:08.548Z", "count": 24, "pois": [{"type": "node", "id": 5851849828, "lat": 52.653733, "lon": -3.848751, "tags": {"amenity": "charging_station", "fee": "no", "addr:country": "GB", "_source": "worldwide"}}, {"type": "node", "id": 8207714732, "lat": 52.589964, "lon": -3.851331, "tags": {"amenity": "charging_station", "fee": "yes", "brand": "ChargePoint", "operator": "ChargePoint", "name": "ChargePoint", "addr:country": "GB", "capacity": "4", "_source": "worldwide"}}, {"type": "node", "id": 8948960295, "lat": 52.078509, "lon": -3.157726, "tags": {"amenity": "charging_station", "operator": "Tesla", "name": "Tesla - Tesla, Inc.", "addr:country": "GB", "capacity": "3", "_source": "worldwide"}}, {"type": "node", "id": 9269784662, "lat": 52.240971, "lon": -3.380809, "tags": {"amenity": "charging_station", "operator": "GeniePoint", "name": "Ladestation GeniePoint", "addr:country": "GB", "capacity": "2", "_source": "worldwide"}}, {"type": "node", "id": 11114319851, "lat": 52.240366, "lon": -3.380988, "tags": {"amenity": "charging_station", "operator": "GeniePoint", "name": "Ladestation GeniePoint", "addr:country": "GB", "capacity": "2", "_source": "worldwide"}}, {"type": "node", "id": 1076342246, "lat": 52.981307, "lon": -3.411268, "tags": {"amenity": "charging_station", "access": "permissive", "fee": "yes", "operator": "InstaVolt", "name": "Rhug Estate (Rapid charging)", "addr:country": "GB", "socket:type2_combo": "8", "socket:type2_combo:output": "120.0 kW", "socket:chademo": "8", "socket:chademo:output": "100.0 kW", "charging_station:output": "120.0 kW", "capacity": "8", "_source": "worldwide"}}, {"type": "node", "id": 9285157779, "lat": 52.652512, "lon": -3.321168, "tags": {"amenity": "charging_station", "access": "yes", "fee": "yes", "brand": "Pod Point", "operator": "Pod Point", "name": "Pod Point - Pod Point", "addr:country": "GB", "capacity": "2", "_source": "worldwide"}}, {"type": "node", "id": 9512320003, "lat": 52.518164, "lon": -3.298109, "tags": {"amenity": "charging_station", "addr:country": "GB", "_source": "worldwide"}}, {"type": "node", "id": 9849587395, "lat": 52.072928, "lon": -3.126329, "tags": {"amenity": "charging_station", "access": "yes", "fee": "yes", "operator": "Dragon Charging", "name": "Ladestation Dragon Charging", "addr:country": "GB", "capacity": "4", "_source": "worldwide"}}, {"type": "node", "id": 10020630298, "lat": 52.687096, "lon": -3.878154, "tags": {"amenity": "charging_station", "fee": "yes", "operator": "evolt; Swarco E.Connect", "name": "Ladestation evolt; Swarco E.Connect", "addr:country": "GB", "socket:type2": "2", "socket:type2:output": "7.0 kW", "charging_station:output": "7.0 kW", "capacity": "2", "_source": "worldwide"}}, {"type": "node", "id": 11146980734, "lat": 52.748286, "lon": -3.934465, "tags": {"amenity": "charging_station", "addr:country": "GB", "_source": "worldwide"}}, {"type": "node", "id": 11209725553, "lat": 52.980874, "lon": -3.371313, "tags": {"amenity": "charging_station", "access": "yes", "brand": "SWARCO", "operator": "Swarco", "name": "Swarco - SWARCO", "addr:country": "GB", "capacity": "50", "_source": "worldwide"}}, {"type": "node", "id": 11710512566, "lat": 52.858311, "lon": -3.05366, "tags": {"amenity": "charging_station", "fee": "yes", "network": "Instavolt", "opening_hours": "24/7", "operator": "Instavolt", "name": "Instavolt Oswestry Central Car Park", "addr:country": "GB", "socket:type2_combo": "2", "socket:type2_combo:output": "125.0 kW", "socket:chademo": "2", "socket:chademo:output": "125.0 kW", "charging_station:output": "125.0 kW", "capacity": "2", "authentication:none": "", "_source": "worldwide"}}, {"type": "node", "id": 12117122937, "lat": 52.651241, "lon": -3.160919, "tags": {"amenity": "charging_station", "fee": "no", "brand": "Zero Carbon World", "network": "ZeroNet", "operator": "National Trust", "name": "Powis Castle ZeroNet Charger", "addr:country": "GB", "socket:type2": "2", "socket:type2:output": "7.0 kW", "charging_station:output": "7.0 kW", "capacity": "2", "_source": "worldwide"}}, {"type": "node", "id": 12126340684, "lat": 52.515037, "lon": -3.318369, "tags": {"amenity": "charging_station", "addr:country": "GB", "_source": "worldwide"}}, {"type": "node", "id": 12198689395, "lat": 52.975201, "lon": -3.177421, "tags": {"amenity": "charging_station", "access": "yes", "fee": "yes", "network": "Evolt", "operator": "Evolt", "name": "Ladestation Evolt", "addr:country": "GB", "socket:type2": "2", "socket:type2:output": "22.0 kW", "charging_station:output": "22.0 kW", "capacity": "2", "_source": "worldwide"}}, {"type": "node", "id": 12290617038, "lat": 52.965521, "lon": -3.069329, "tags": {"amenity": "charging_station", "addr:country": "GB", "capacity": "2", "_source": "worldwide"}}, {"type": "node", "id": 12483016349, "lat": 52.861355, "lon": -3.05485, "tags": {"amenity": "charging_station", "fee": "yes", "addr:country": "GB", "_source": "worldwide"}}, {"type": "node", "id": 12850585230, "lat": 52.900454, "lon": -3.576515, "tags": {"amenity": "charging_station", "operator": "RolecEV", "name": "Ladestation RolecEV", "addr:country": "GB", "capacity": "2", "_source": "worldwide"}}, {"type": "node", "id": 12850602222, "lat": 52.912126, "lon": -3.594688, "tags": {"amenity": "charging_station", "operator": "Swarco", "name": "Ladestation Swarco", "addr:country": "GB", "capacity": "3", "_source": "worldwide"}}, {"type": "node", "id": 13261595801, "lat": 52.972706, "lon": -3.085945, "tags": {"amenity": "charging_station", "addr:country": "GB", "_source": "worldwide"}}, {"type": "node", "id": 1195398850, "lat": 52.950081, "lon": -3.042234, "tags": {"amenity": "charging_station", "addr:country": "GB", "_source": "worldwide"}}, {"type": "node", "id": 1334562811, "lat": 52.219509, "lon": -3.93114, "tags": {"amenity": "charging_station", "access": "yes", "addr:country": "GB", "capacity": "4", "_source": "worldwide"}}, {"type": "node", "id": 1356956973, "lat": 52.850584, "lon": -3.041623, "tags": {"amenity": "charging_station", "addr:country": "GB", "capacity": "4", "_source": "worldwide"}}]}