{"id": "57-39", "latMin": 57, "lonMin": 39, "latMax": 58, "lonMax": 40, "generated": "2026-04-16T18:39:08.769Z", "count": 8, "pois": [{"type": "node", "id": 4537651791, "lat": 57.635759, "lon": 39.847561, "tags": {"amenity": "charging_station", "operator": "Андрей", "name": "Андрей", "_source": "worldwide"}}, {"type": "node", "id": 7780330964, "lat": 57.627108, "lon": 39.870778, "tags": {"amenity": "charging_station", "name": "EV Charging Station", "_source": "worldwide"}}, {"type": "node", "id": 9275034838, "lat": 57.611396, "lon": 39.881471, "tags": {"amenity": "charging_station", "operator": "Россети Центр", "name": "ЭЗС на парковке у гостиницы", "_source": "worldwide"}}, {"type": "node", "id": 9275055217, "lat": 57.640132, "lon": 39.964308, "tags": {"amenity": "charging_station", "name": "ЭЗС на парковке ТЦ «Глобус»", "_source": "worldwide"}}, {"type": "node", "id": 9275056437, "lat": 57.640976, "lon": 39.866839, "tags": {"amenity": "charging_station", "name": "EV Charging Station", "_source": "worldwide"}}, {"type": "node", "id": 9275085813, "lat": 57.591928, "lon": 39.863016, "tags": {"amenity": "charging_station", "name": "ЭЗС на М-8", "_source": "worldwide"}}, {"type": "node", "id": 10189104355, "lat": 57.610182, "lon": 39.862084, "tags": {"amenity": "charging_station", "name": "EV Charging Station", "_source": "worldwide"}}, {"type": "node", "id": 11955739654, "lat": 57.686253, "lon": 39.780628, "tags": {"amenity": "charging_station", "access": "yes", "name": "EV Charging Station", "_source": "worldwide"}}]}