{"id": "51-10", "latMin": 51, "lonMin": 10, "latMax": 52, "lonMax": 11, "generated": "2026-04-16T18:39:08.535Z", "count": 305, "pois": [{"type": "node", "id": 732716151, "lat": 51.486, "lon": 10.7442, "tags": {"amenity": "charging_station", "access": "customers", "opening_hours": "Mo-Fr 07:00-18:00; Sa 08:00-17:00; Su 10:00-16:00", "addr:street": "Am Mühlweg 1", "addr:postcode": "99735", "_source": "worldwide"}}, {"type": "node", "id": 11394799355, "lat": 51.487304, "lon": 10.744602, "tags": {"amenity": "charging_station", "access": "yes", "fee": "yes", "brand": "Circle K", "operator": "Circle K", "name": "Circle K", "addr:country": "DE", "capacity": "9", "_source": "worldwide"}}, {"type": "node", "id": 13522446720, "lat": 51.486266, "lon": 10.743307, "tags": {"amenity": "charging_station", "access": "yes", "fee": "yes", "brand": "Tesla Supercharger", "opening_hours": "24/7", "operator": "Tesla", "name": "Werther Supercharger", "addr:country": "DE", "socket:type2_combo": "8", "socket:type2_combo:output": "250.0 kW", "charging_station:output": "250.0 kW", "capacity": "8", "_source": "worldwide"}}, {"type": "node", "id": 2130691336, "lat": 51.223088, "lon": 10.454439, "tags": {"amenity": "charging_station", "access": "yes", "fee": "yes", "network": "EnBW", "operator": "EnBW", "name": "Ladestation Ammersche Landstraße", "addr:country": "DE", "socket:type2_combo": "4", "socket:type2_combo:output": "300.0 kW", "charging_station:output": "300.0 kW", "capacity": "4", "_source": "worldwide"}}, {"type": "node", "id": 11964426714, "lat": 51.218805, "lon": 10.453104, "tags": {"amenity": "charging_station", "access": "yes", "fee": "yes", "addr:country": "DE", "capacity": "3", "_source": "worldwide"}}, {"type": "node", "id": 2172275376, "lat": 51.827731, "lon": 10.760245, "tags": {"amenity": "charging_station", "fee": "no", "operator": "Stadtwerke Wernigerode", "name": "Ladestation Stadtwerke Wernigerode", "addr:country": "DE", "socket:type2": "1", "socket:type2:output": "11.0 kW", "socket:schuko": "1", "socket:schuko:output": "2.3 kW", "charging_station:output": "11.0 kW", "capacity": "2", "_source": "worldwide"}}, {"type": "node", "id": 2172275383, "lat": 51.839604, "lon": 10.782257, "tags": {"amenity": "charging_station", "access": "yes", "fee": "varies", "operator": "Stadtwerke Wernigerode", "name": "Stromladesäule der Stadtwerke Wernigerode für PKW", "addr:country": "DE", "socket:type2": "2", "socket:type2:output": "22.0 kW", "charging_station:output": "22.0 kW", "capacity": "2", "_source": "worldwide"}}, {"type": "node", "id": 2617045947, "lat": 51.91024, "lon": 10.425144, "tags": {"amenity": "charging_station", "operator": "Harz Energie", "name": "Ladestation Harz Energie", "addr:country": "DE", "capacity": "2", "_source": "worldwide"}}, {"type": "node", "id": 5928695291, "lat": 51.9473, "lon": 10.140746, "tags": {"amenity": "charging_station", "operator": "Allego", "name": "Ladestation Allego", "addr:country": "DE", "socket:type2": "1", "socket:type2:output": "43.0 kW", "socket:type2_combo": "1", "socket:type2_combo:output": "50.0 kW", "socket:chademo": "1", "socket:chademo:output": "50.0 kW", "charging_station:output": "50.0 kW", "capacity": "1", "_source": "worldwide"}}, {"type": "node", "id": 3206773403, "lat": 51.52325, "lon": 10.311205, "tags": {"amenity": "charging_station", "operator": "eew", "name": "Ladestation eew", "addr:country": "DE", "capacity": "2", "_source": "worldwide"}}, {"type": "node", "id": 3362935693, "lat": 51.212053, "lon": 10.461518, "tags": {"amenity": "charging_station", "access": "yes", "fee": "yes", "opening_hours": "24/7", "operator": "Stadtwerke Mühlhausen", "name": "Ladestation Stadtwerke Mühlhausen", "addr:country": "DE", "socket:chademo": "1", "socket:chademo:output": "50 kW", "charging_station:output": "50 kW", "capacity": "2", "_source": "worldwide"}}, {"type": "node", "id": 5201487422, "lat": 51.210558, "lon": 10.464113, "tags": {"amenity": "charging_station", "access": "yes", "fee": "yes", "opening_hours": "24/7", "addr:country": "DE", "socket:type2": "1", "socket:type2:output": "22 kW", "socket:type2_combo": "1", "socket:type2_combo:output": "50.0 kW", "socket:chademo": "1", "socket:chademo:output": "50.0 kW", "charging_station:output": "50.0 kW", "capacity": "3", "_source": "worldwide"}}, {"type": "node", "id": 3446084760, "lat": 51.677574, "lon": 10.966072, "tags": {"amenity": "charging_station", "operator": "enviaM", "name": "Ladestation enviaM", "addr:country": "DE", "_source": "worldwide"}}, {"type": "node", "id": 3557793915, "lat": 51.512233, "lon": 10.242139, "tags": {"amenity": "charging_station", "operator": "Autohaus Abicht", "name": "e-Station", "addr:country": "DE", "_source": "worldwide"}}, {"type": "node", "id": 5016120242, "lat": 51.511836, "lon": 10.248627, "tags": {"amenity": "charging_station", "addr:country": "DE", "socket:type2": "2", "socket:type2:output": "22 kW", "charging_station:output": "22 kW", "_source": "worldwide"}}, {"type": "node", "id": 11935341664, "lat": 51.514093, "lon": 10.240722, "tags": {"amenity": "charging_station", "access": "private", "addr:country": "DE", "capacity": "2", "_source": "worldwide"}}, {"type": "node", "id": 3663646220, "lat": 51.564128, "lon": 10.153896, "tags": {"amenity": "charging_station", "access": "yes", "operator": "EWB Duderstadt", "name": "Ladestation EWB Duderstadt", "addr:country": "DE", "socket:type2": "2", "socket:type2:output": "22 kW", "socket:schuko": "2", "socket:schuko:output": "2.3 kW", "charging_station:output": "22 kW", "capacity": "2", "_source": "worldwide"}}, {"type": "node", "id": 4068390118, "lat": 51.387267, "lon": 10.328387, "tags": {"amenity": "charging_station", "operator": "Mennekes", "name": "Ladestation Mennekes", "addr:country": "DE", "capacity": "2", "_source": "worldwide"}}, {"type": "node", "id": 4151001713, "lat": 51.899374, "lon": 10.43244, "tags": {"amenity": "charging_station", "access": "private", "operator": "Technische Universität Clausthal", "name": "Ladesäule für Dienstfahrzeuge der TU Clausthal", "addr:country": "DE", "_source": "worldwide"}}, {"type": "node", "id": 4176217523, "lat": 51.008829, "lon": 10.994033, "tags": {"amenity": "charging_station", "brand": "SWE Strom", "opening_hours": "Mo-Sa 10:00-20:00", "operator": "Fahrrad-Riese", "name": "Fahrrad-Riese - SWE Strom", "addr:country": "DE", "socket:schuko": "2", "socket:schuko:output": "2.3 kW", "charging_station:output": "2.3 kW", "capacity": "2", "_source": "worldwide"}}, {"type": "node", "id": 9398482012, "lat": 51.006828, "lon": 10.994245, "tags": {"amenity": "charging_station", "network": "Ladenetz", "opening_hours": "24/7", "operator": "Stadtwerke Erfurt", "name": "AC-Charger", "addr:street": "Nordhäuser Straße 73t", "addr:postcode": "99091", "addr:city": "Erfurt", "addr:country": "DE", "socket:type2": "2", "socket:type2:output": "22.0 kW", "charging_station:output": "22.0 kW", "capacity": "2", "authentication:none": "", "_source": "worldwide"}}, {"type": "node", "id": 10652172712, "lat": 51.007776, "lon": 10.993439, "tags": {"amenity": "charging_station", "operator": "Stadtwerke Erfurt", "name": "Ladestation Stadtwerke Erfurt", "addr:country": "DE", "capacity": "2", "_source": "worldwide"}}, {"type": "node", "id": 13358223338, "lat": 51.009111, "lon": 10.99151, "tags": {"amenity": "charging_station", "access": "yes", "fee": "yes", "brand": "Tesla Supercharger", "opening_hours": "24/7", "operator": "Tesla", "name": "Erfurt Supercharger", "addr:country": "DE", "socket:type2_combo": "8", "socket:type2_combo:output": "250.0 kW", "charging_station:output": "250.0 kW", "capacity": "8", "_source": "worldwide"}}, {"type": "node", "id": 4287828533, "lat": 51.081423, "lon": 10.5166, "tags": {"amenity": "charging_station", "access": "customers", "fee": "yes", "opening_hours": "Jan-Feb: Mo-Fr off, Sa-Su 10:00-16:00; Mar: Mo-Su 10:00-16:00; Apr-Oct: Mo-Su 10:00-19:00; Nov: Mo-Su 10:00-16:00; Dec: Mo-Fr off, Sa-Su 10:00-16:00; Dec 24 off; Dec 31 off", "operator": "Thüringer Energie", "name": "Thiemsburg", "addr:country": "DE", "socket:type2": "2", "socket:type2:output": "22 kW", "socket:schuko": "2", "socket:schuko:output": "2.3 kW", "charging_station:output": "22 kW", "capacity": "2", "_source": "worldwide"}}, {"type": "node", "id": 11096918740, "lat": 51.082025, "lon": 10.514212, "tags": {"amenity": "charging_station", "addr:country": "DE", "capacity": "4", "_source": "worldwide"}}, {"type": "node", "id": 4397710405, "lat": 51.807299, "lon": 10.941287, "tags": {"amenity": "charging_station", "brand": "bike-energy", "operator": "bike-energy", "name": "bike-energy", "addr:country": "DE", "socket:type2": "1", "socket:type2:output": "22 kW", "socket:schuko": "2", "socket:schuko:output": "2.3 kW", "charging_station:output": "22 kW", "capacity": "3", "_source": "worldwide"}}, {"type": "node", "id": 13155260599, "lat": 51.806425, "lon": 10.941729, "tags": {"amenity": "charging_station", "access": "yes", "fee": "yes", "brand": "alpitronic hypercharger", "operator": "Marktkauf", "name": "Marktkauf - alpitronic hypercharger", "addr:country": "DE", "capacity": "2", "_source": "worldwide"}}, {"type": "node", "id": 4485201837, "lat": 51.512543, "lon": 10.262409, "tags": {"amenity": "charging_station", "access": "yes", "operator": "Eichsfelder Energie- und Wasserversorgungs", "name": "Eichsfelder Energie- und Wasserversorgungs - Eichsfelder Energie- und Wasserversorgungs GmbH", "addr:country": "DE", "_source": "worldwide"}}, {"type": "node", "id": 4716569981, "lat": 51.596327, "lon": 10.54263, "tags": {"amenity": "charging_station", "addr:country": "DE", "_source": "worldwide"}}, {"type": "node", "id": 4771257438, "lat": 51.403984, "lon": 10.416514, "tags": {"amenity": "charging_station", "operator": "Esso", "name": "Esso Eichsfeld Nord Ladestation", "addr:country": "DE", "socket:type2": "1", "socket:type2:output": "43.0 kW", "socket:type2_combo": "1", "socket:type2_combo:output": "50.0 kW", "socket:chademo": "1", "socket:chademo:output": "50.0 kW", "charging_station:output": "50.0 kW", "capacity": "1", "_source": "worldwide"}}, {"type": "node", "id": 4771257439, "lat": 51.403007, "lon": 10.41452, "tags": {"amenity": "charging_station", "operator": "Esso", "name": "Esso Eichsfeld Süd Ladestation", "addr:country": "DE", "socket:type2": "1", "socket:type2:output": "43.0 kW", "socket:type2_combo": "1", "socket:type2_combo:output": "50.0 kW", "socket:chademo": "1", "socket:chademo:output": "50.0 kW", "charging_station:output": "50.0 kW", "capacity": "1", "_source": "worldwide"}}, {"type": "node", "id": 4814389580, "lat": 51.80392, "lon": 10.334567, "tags": {"amenity": "charging_station", "access": "yes", "fee": "yes", "opening_hours": "24/7", "operator": "Stadtwerke Clausthal-Zellerfeld", "name": "Ladestation Stadtwerke Clausthal-Zellerfeld", "addr:country": "DE", "socket:type2": "1", "socket:type2:output": "22.0 kW", "charging_station:output": "22.0 kW", "capacity": "2", "_source": "worldwide"}}, {"type": "node", "id": 12186583570, "lat": 51.802572, "lon": 10.332921, "tags": {"amenity": "charging_station", "fee": "yes", "operator": "Wirelane", "name": "Ladestation Wirelane", "addr:country": "DE", "socket:type2": "4", "socket:type2:output": "22 kW", "charging_station:output": "22 kW", "capacity": "4", "_source": "worldwide"}}, {"type": "node", "id": 13014975666, "lat": 51.80479, "lon": 10.334422, "tags": {"amenity": "charging_station", "access": "customers", "addr:country": "DE", "_source": "worldwide"}}, {"type": "node", "id": 5024876056, "lat": 51.726112, "lon": 10.247264, "tags": {"amenity": "charging_station", "fee": "yes", "operator": "Ladenetz", "name": "Ladestation Ladenetz", "addr:country": "DE", "socket:type2_combo": "2", "socket:type2_combo:output": "50 kW", "charging_station:output": "50 kW", "capacity": "2", "_source": "worldwide"}}, {"type": "node", "id": 6994724004, "lat": 51.724247, "lon": 10.247524, "tags": {"amenity": "charging_station", "fee": "yes", "operator": "Harz Energie", "name": "Ladestation Harz Energie", "addr:country": "DE", "socket:type2": "2", "socket:type2:output": "22 kW", "charging_station:output": "22 kW", "capacity": "2", "_source": "worldwide"}}, {"type": "node", "id": 5024879691, "lat": 51.72878, "lon": 10.25227, "tags": {"amenity": "charging_station", "access": "yes", "fee": "yes", "operator": "Harz Energie", "name": "Ladestation Harz Energie", "addr:country": "DE", "socket:type2": "2", "socket:type2:output": "22 kW", "charging_station:output": "22 kW", "_source": "worldwide"}}, {"type": "node", "id": 13655165582, "lat": 51.72885, "lon": 10.25133, "tags": {"amenity": "charging_station", "addr:country": "DE", "_source": "worldwide"}}, {"type": "node", "id": 5055304821, "lat": 51.623694, "lon": 10.469086, "tags": {"amenity": "charging_station", "addr:country": "DE", "_source": "worldwide"}}, {"type": "node", "id": 5055304822, "lat": 51.624308, "lon": 10.468349, "tags": {"amenity": "charging_station", "addr:country": "DE", "_source": "worldwide"}}, {"type": "node", "id": 5055306841, "lat": 51.62541, "lon": 10.463304, "tags": {"amenity": "charging_station", "operator": "HarzEnergie", "name": "Ladestation HarzEnergie", "addr:country": "DE", "capacity": "2", "_source": "worldwide"}}, {"type": "node", "id": 13555471079, "lat": 51.629252, "lon": 10.469448, "tags": {"amenity": "charging_station", "access": "customers", "addr:country": "DE", "socket:type2": "1", "socket:type2:output": "22 kW", "charging_station:output": "22 kW", "capacity": "2", "_source": "worldwide"}}, {"type": "node", "id": 5119574871, "lat": 51.891552, "lon": 10.424793, "tags": {"amenity": "charging_station", "operator": "emco", "name": "Ladestation emco", "addr:country": "DE", "capacity": "1", "_source": "worldwide"}}, {"type": "node", "id": 5171263677, "lat": 51.871002, "lon": 10.026411, "tags": {"amenity": "charging_station", "opening_hours": "24/7", "operator": "Avacon", "name": "Ladestation Avacon", "addr:country": "DE", "capacity": "2", "_source": "worldwide"}}, {"type": "node", "id": 5191647463, "lat": 51.116196, "lon": 10.645576, "tags": {"amenity": "charging_station", "operator": "Stadtwerke Bad Langensalza", "name": "Parkplatz Friederikentherme", "addr:country": "DE", "socket:type2_combo": "2", "socket:type2_combo:output": "50 kW", "socket:schuko": "2", "socket:schuko:output": "2.3 kW", "charging_station:output": "50 kW", "authentication:none": "", "_source": "worldwide"}}, {"type": "node", "id": 5551999147, "lat": 51.486289, "lon": 10.798379, "tags": {"amenity": "charging_station", "fee": "yes", "opening_hours": "24/7", "operator": "Stadtwerke Nordhausen", "name": "Stadtwerke Nordhausen - Stadtwerke Nordhausen GmbH", "addr:country": "DE", "socket:type2_combo": "1", "socket:type2_combo:output": "50 kW", "charging_station:output": "50 kW", "_source": "worldwide"}}, {"type": "node", "id": 13694964067, "lat": 51.482765, "lon": 10.797614, "tags": {"amenity": "charging_station", "access": "customers", "fee": "yes", "addr:country": "DE", "socket:type2": "1", "socket:type2:output": "22 kW", "socket:type2_combo": "1", "socket:type2_combo:output": "50 kW", "socket:chademo": "1", "socket:chademo:output": "50 kW", "charging_station:output": "50 kW", "_source": "worldwide"}}, {"type": "node", "id": 5569859480, "lat": 51.56874, "lon": 10.099915, "tags": {"amenity": "charging_station", "fee": "no", "opening_hours": "24/7", "operator": "Eichsfelder Energie- und Wasserversorgungs", "name": "Eichsfelder Energie- und Wasserversorgungs - Eichsfelder Energie- und Wasserversorgungs GmbH", "addr:country": "DE", "socket:schuko": "6", "socket:schuko:output": "2.3 kW", "charging_station:output": "2.3 kW", "capacity": "6", "authentication:none": "yes", "_source": "worldwide"}}, {"type": "node", "id": 5667431532, "lat": 51.71627, "lon": 10.562629, "tags": {"amenity": "charging_station", "fee": "no", "operator": "Waldgaststätte Rinderstall", "name": "Ladestation Waldgaststätte Rinderstall", "addr:country": "DE", "capacity": "6", "authentication:none": "yes", "_source": "worldwide"}}, {"type": "node", "id": 5683706500, "lat": 51.338143, "lon": 10.863089, "tags": {"amenity": "charging_station", "access": "yes", "fee": "yes", "operator": "Stadtwerke Sondershausen", "name": "Parkplatz Possen", "addr:country": "DE", "socket:type2": "2", "socket:type2:output": "11.0 kW", "charging_station:output": "11.0 kW", "capacity": "2", "_source": "worldwide"}}, {"type": "node", "id": 5696326998, "lat": 51.836757, "lon": 10.793258, "tags": {"amenity": "charging_station", "fee": "no", "operator": "Stadtwerke Wernigerode", "name": "Ladestation Für E-Bikes", "addr:country": "DE", "socket:schuko": "3", "socket:schuko:output": "2.3 kW", "charging_station:output": "2.3 kW", "_source": "worldwide"}}, {"type": "node", "id": 6993347908, "lat": 51.838146, "lon": 10.79525, "tags": {"amenity": "charging_station", "access": "yes", "fee": "varies", "operator": "Stadtwerke Wernigerode", "name": "Stromladesäule der Stadtwerke Wernigerode für PKW", "addr:country": "DE", "socket:type2": "2", "socket:type2:output": "22.0 kW", "charging_station:output": "22.0 kW", "capacity": "2", "_source": "worldwide"}}, {"type": "node", "id": 10039510594, "lat": 51.838178, "lon": 10.796274, "tags": {"amenity": "charging_station", "access": "yes", "operator": "Stadtwerke Wernigerode", "name": "Stadtwerke Wernigerode - Stadtwerke Wernigerode GmbH", "addr:country": "DE", "capacity": "2", "_source": "worldwide"}}, {"type": "node", "id": 12071960646, "lat": 51.838886, "lon": 10.789701, "tags": {"amenity": "charging_station", "access": "yes", "fee": "yes", "operator": "Stadtwerke Wernigerode", "name": "Ladestation Stadtwerke Wernigerode", "addr:country": "DE", "socket:type2": "2", "socket:type2:output": "22.0 kW", "charging_station:output": "22.0 kW", "capacity": "2", "_source": "worldwide"}}, {"type": "node", "id": 5739172538, "lat": 51.870817, "lon": 10.559973, "tags": {"amenity": "charging_station", "name": "Radstätte", "addr:country": "DE", "_source": "worldwide"}}, {"type": "node", "id": 5839724259, "lat": 51.868669, "lon": 10.558991, "tags": {"amenity": "charging_station", "operator": "Stadtwerke Bad Harzburg", "name": "Ladestation Stadtwerke Bad Harzburg", "addr:country": "DE", "capacity": "2", "_source": "worldwide"}}, {"type": "node", "id": 7843280577, "lat": 51.870286, "lon": 10.559017, "tags": {"amenity": "charging_station", "addr:country": "DE", "socket:type2": "2", "socket:type2:output": "22.0 kW", "charging_station:output": "22.0 kW", "_source": "worldwide"}}, {"type": "node", "id": 9689453368, "lat": 51.871348, "lon": 10.567347, "tags": {"amenity": "charging_station", "fee": "no", "name": "E-Bike Ladestadion", "addr:country": "DE", "capacity": "3", "_source": "worldwide"}}, {"type": "node", "id": 5798838159, "lat": 51.209428, "lon": 10.448607, "tags": {"amenity": "charging_station", "operator": "Stadtwerke Mühlhausen", "name": "Ladestation Stadtwerke Mühlhausen", "addr:country": "DE", "capacity": "2", "_source": "worldwide"}}, {"type": "node", "id": 12276475235, "lat": 51.208649, "lon": 10.456051, "tags": {"amenity": "charging_station", "access": "yes", "addr:country": "DE", "_source": "worldwide"}}, {"type": "node", "id": 5895676558, "lat": 51.512147, "lon": 10.254212, "tags": {"amenity": "charging_station", "fee": "yes", "network": "Ladenetz", "opening_hours": "24/7", "operator": "EEW Duderstadt", "name": "EEW Duderstadt - Ladenetz", "addr:country": "DE", "socket:type2": "2", "socket:type2:output": "22.0 kW", "charging_station:output": "22.0 kW", "_source": "worldwide"}}, {"type": "node", "id": 5895677263, "lat": 51.655715, "lon": 10.333914, "tags": {"amenity": "charging_station", "addr:country": "DE", "socket:type2": "1", "socket:type2:output": "22.0 kW", "socket:type2_combo": "1", "socket:type2_combo:output": "22.0 kW", "socket:chademo": "1", "socket:chademo:output": "20.0 kW", "charging_station:output": "22.0 kW", "_source": "worldwide"}}, {"type": "node", "id": 5896037926, "lat": 51.685211, "lon": 10.100978, "tags": {"amenity": "charging_station", "addr:country": "DE", "socket:type2": "2", "socket:type2:output": "22 kW", "charging_station:output": "22 kW", "_source": "worldwide"}}, {"type": "node", "id": 5923128473, "lat": 51.765445, "lon": 10.652006, "tags": {"amenity": "charging_station", "fee": "yes", "opening_hours": "24/7", "addr:country": "DE", "socket:type2": "1", "socket:type2:output": "22 kW", "charging_station:output": "22 kW", "capacity": "1", "_source": "worldwide"}}, {"type": "node", "id": 6056994164, "lat": 51.150839, "lon": 10.555174, "tags": {"amenity": "charging_station", "addr:country": "DE", "_source": "worldwide"}}, {"type": "node", "id": 6311250372, "lat": 51.926519, "lon": 10.416397, "tags": {"amenity": "charging_station", "name": "bike-energy Ladestation", "addr:country": "DE", "_source": "worldwide"}}, {"type": "node", "id": 6311252321, "lat": 51.918719, "lon": 10.384044, "tags": {"amenity": "charging_station", "brand": "bike-energy", "operator": "bike-energy", "name": "bike-energy", "addr:country": "DE", "socket:type2": "1", "socket:type2:output": "22 kW", "charging_station:output": "22 kW", "_source": "worldwide"}}, {"type": "node", "id": 6350153769, "lat": 51.649675, "lon": 10.331937, "tags": {"amenity": "charging_station", "brand": "bike-energy", "operator": "bike-energy", "name": "bike-energy Ladestation", "addr:street": "Bahnhofstraße 2", "addr:postcode": "37412", "addr:city": "Herzberg am Harz", "addr:country": "DE", "capacity": "2", "_source": "worldwide"}}, {"type": "node", "id": 6396455918, "lat": 51.715186, "lon": 10.000722, "tags": {"amenity": "charging_station", "operator": "Stadtwerke Northeim", "name": "Ladestation Stadtwerke Northeim", "addr:country": "DE", "capacity": "2", "_source": "worldwide"}}, {"type": "node", "id": 6397766284, "lat": 51.715526, "lon": 10.001503, "tags": {"amenity": "charging_station", "operator": "Stadtwerke Northeim", "name": "Ladestation Stadtwerke Northeim", "addr:country": "DE", "_source": "worldwide"}}, {"type": "node", "id": 6535927163, "lat": 51.912398, "lon": 10.322755, "tags": {"amenity": "charging_station", "operator": "avacon", "name": "Ladestation avacon", "addr:country": "DE", "capacity": "2", "_source": "worldwide"}}, {"type": "node", "id": 6633093686, "lat": 51.363306, "lon": 10.266258, "tags": {"amenity": "charging_station", "addr:country": "DE", "capacity": "2", "_source": "worldwide"}}, {"type": "node", "id": 9373098231, "lat": 51.36345, "lon": 10.269007, "tags": {"amenity": "charging_station", "fee": "no", "opening_hours": "24/7", "operator": "Eichsfeldwerke", "name": "Eichsfeldwerke - Eichsfeldwerke GmbH", "addr:country": "DE", "socket:schuko": "2", "socket:schuko:output": "2.3 kW", "charging_station:output": "2.3 kW", "capacity": "4", "_source": "worldwide"}}, {"type": "node", "id": 6635122914, "lat": 51.008321, "lon": 10.982672, "tags": {"amenity": "charging_station", "operator": "Stadtwerke Erfurt", "name": "SWE Strom ecomobil", "addr:country": "DE", "_source": "worldwide"}}, {"type": "node", "id": 6721079343, "lat": 51.594727, "lon": 10.555715, "tags": {"amenity": "charging_station", "access": "yes", "fee": "yes", "opening_hours": "24/7", "operator": "Stadtwerke Bad Sachsa", "name": "Stadtwerke Bad Sachsa - Stadtwerke Bad Sachsa GmbH", "addr:postcode": "37441", "capacity": "2", "_source": "worldwide"}}, {"type": "node", "id": 6727410733, "lat": 51.514715, "lon": 10.800624, "tags": {"amenity": "charging_station", "operator": "EVN Nordhausen", "name": "Ladestation EVN Nordhausen", "addr:country": "DE", "capacity": "2", "_source": "worldwide"}}, {"type": "node", "id": 6727410734, "lat": 51.500218, "lon": 10.794235, "tags": {"amenity": "charging_station", "access": "yes", "fee": "yes", "operator": "EVN", "name": "Energieversorgung Nordhausen GmbH Ladestation", "addr:country": "DE", "capacity": "2", "_source": "worldwide"}}, {"type": "node", "id": 8146094183, "lat": 51.503048, "lon": 10.793383, "tags": {"amenity": "charging_station", "access": "yes", "fee": "yes", "opening_hours": "24/7", "operator": "Energieversorgung Nordhausen", "name": "Ladestation Energieversorgung Nordhausen", "addr:country": "DE", "socket:type2_combo": "1", "socket:type2_combo:output": "50.0 kW", "socket:chademo": "1", "socket:chademo:output": "50.0 kW", "charging_station:output": "50.0 kW", "capacity": "2", "_source": "worldwide"}}, {"type": "node", "id": 6727410735, "lat": 51.493063, "lon": 10.818923, "tags": {"amenity": "charging_station", "fee": "yes", "operator": "EVN", "name": "Energieversorgung Nordhausen GmbH Ladestation", "addr:country": "DE", "capacity": "3", "_source": "worldwide"}}, {"type": "node", "id": 6735345188, "lat": 51.504421, "lon": 10.785087, "tags": {"amenity": "charging_station", "operator": "EVN", "name": "Ladestation EVN", "addr:country": "DE", "_source": "worldwide"}}, {"type": "node", "id": 10881986188, "lat": 51.509006, "lon": 10.784951, "tags": {"amenity": "charging_station", "addr:country": "DE", "_source": "worldwide"}}, {"type": "node", "id": 6800322760, "lat": 51.480582, "lon": 10.262125, "tags": {"amenity": "charging_station", "access": "yes", "fee": "yes", "operator": "Teag", "name": "Ladestation Teag", "addr:country": "DE", "socket:type2": "2", "socket:type2:output": "22 kW", "charging_station:output": "22 kW", "capacity": "2", "_source": "worldwide"}}, {"type": "node", "id": 1198466547, "lat": 51.48058, "lon": 10.265527, "tags": {"amenity": "charging_station", "operator": "EVlink", "name": "Ladestation EVlink", "addr:country": "DE", "capacity": "2", "_source": "worldwide"}}, {"type": "node", "id": 6834294230, "lat": 51.228272, "lon": 10.935236, "tags": {"amenity": "charging_station", "addr:country": "DE", "_source": "worldwide"}}, {"type": "node", "id": 6835226159, "lat": 51.371525, "lon": 10.876119, "tags": {"amenity": "charging_station", "access": "yes", "fee": "yes", "name": "Parkplatz Stadtwerke/Bibliothek", "addr:country": "DE", "socket:type2": "2", "socket:type2:output": "11.0 kW", "charging_station:output": "11.0 kW", "capacity": "2", "_source": "worldwide"}}, {"type": "node", "id": 7606756449, "lat": 51.370215, "lon": 10.873013, "tags": {"amenity": "charging_station", "access": "yes", "fee": "yes", "operator": "Stadtwerke Sondershausen", "name": "Parkplatz Trinitatisplatz", "addr:country": "DE", "socket:type2": "2", "socket:type2:output": "11.0 kW", "charging_station:output": "11.0 kW", "capacity": "2", "_source": "worldwide"}}, {"type": "node", "id": 6855656878, "lat": 51.161845, "lon": 10.161052, "tags": {"amenity": "charging_station", "addr:country": "DE", "_source": "worldwide"}}, {"type": "node", "id": 6858767496, "lat": 51.213385, "lon": 10.214633, "tags": {"amenity": "charging_station", "addr:country": "DE", "_source": "worldwide"}}, {"type": "node", "id": 6874030237, "lat": 51.376058, "lon": 10.138643, "tags": {"amenity": "charging_station", "access": "contract customers", "fee": "yes", "network": "ladenetz.de", "opening_hours": "24/7", "operator": "Stadtwerke Heilbad Heiligenstadt", "name": "Stadtwerke Heilbad Heiligenstadt - ladenetz.de", "addr:postcode": "37308", "addr:city": "Heilbad Heiligenstadt", "socket:type2": "2", "socket:type2:output": "22 kW", "charging_station:output": "22 kW", "capacity": "2", "_source": "worldwide"}}, {"type": "node", "id": 6874030238, "lat": 51.37397, "lon": 10.13761, "tags": {"amenity": "charging_station", "access": "yes", "fee": "yes", "opening_hours": "24/7", "operator": "Stadtwerke Heilbad Heiligenstadt", "name": "Stadtwerke Heilbad Heiligenstadt - Stadtwerke Heilbad Heiligenstadt GmbH", "addr:postcode": "37308", "addr:city": "Heilbad Heiligenstadt", "socket:type2": "2", "socket:type2:output": "22 kW", "charging_station:output": "22 kW", "capacity": "2", "_source": "worldwide"}}, {"type": "node", "id": 6885350797, "lat": 51.423459, "lon": 10.359486, "tags": {"amenity": "charging_station", "addr:country": "DE", "_source": "worldwide"}}, {"type": "node", "id": 6994699801, "lat": 51.847181, "lon": 10.781899, "tags": {"amenity": "charging_station", "access": "yes", "fee": "varies", "operator": "Stadtwerke Wernigerode", "name": "Stromladesäule der Stadtwerke Wernigerode für PKW", "addr:country": "DE", "socket:type2": "2", "socket:type2:output": "22.0 kW", "charging_station:output": "22.0 kW", "capacity": "2", "_source": "worldwide"}}, {"type": "node", "id": 6994724005, "lat": 51.737082, "lon": 10.232038, "tags": {"amenity": "charging_station", "operator": "Harz Energie", "name": "Ladestation Harz Energie", "addr:country": "DE", "socket:type2": "13", "socket:type2:output": "22 kW", "charging_station:output": "22 kW", "_source": "worldwide"}}, {"type": "node", "id": 12186729146, "lat": 51.737985, "lon": 10.229729, "tags": {"amenity": "charging_station", "fee": "no", "addr:country": "DE", "authentication:none": "yes", "_source": "worldwide"}}, {"type": "node", "id": 7023324589, "lat": 51.385025, "lon": 10.149537, "tags": {"amenity": "charging_station", "access": "yes", "fee": "yes", "network": "ladenetz.de", "opening_hours": "24/7", "operator": "Stadtwerke Heilbad Heiligenstadt", "name": "Vitalpark", "addr:street": "In der Leineaue 1", "addr:postcode": "37308", "addr:city": "Heilbad Heiligenstadt", "socket:type2": "2", "socket:type2:output": "22 kW", "charging_station:output": "22 kW", "capacity": "2", "_source": "worldwide"}}, {"type": "node", "id": 7029732539, "lat": 51.474202, "lon": 10.807657, "tags": {"amenity": "charging_station", "fee": "yes", "operator": "Heldele", "name": "Ladestation Heldele", "addr:country": "DE", "capacity": "1", "_source": "worldwide"}}, {"type": "node", "id": 8628071277, "lat": 51.473712, "lon": 10.80866, "tags": {"amenity": "charging_station", "access": "customers", "operator": "EnBW", "name": "EnBW Charging Station", "addr:country": "DE", "capacity": "2", "_source": "worldwide"}}, {"type": "node", "id": 7124514151, "lat": 51.492224, "lon": 10.806313, "tags": {"amenity": "charging_station", "addr:country": "DE", "_source": "worldwide"}}, {"type": "node", "id": 7235200919, "lat": 51.865654, "lon": 10.676559, "tags": {"amenity": "charging_station", "access": "yes", "fee": "varies", "operator": "Stadtwerke Wernigerode", "name": "Stromladesäule für PKW", "addr:country": "DE", "socket:type2": "2", "socket:type2:output": "22.0 kW", "charging_station:output": "22.0 kW", "capacity": "2", "_source": "worldwide"}}, {"type": "node", "id": 7235200921, "lat": 51.864201, "lon": 10.676737, "tags": {"amenity": "charging_station", "access": "customers", "fee": "no", "operator": "Zu den Rothen Forellen", "name": "Ladestation Zu den Rothen Forellen", "addr:country": "DE", "capacity": "2", "_source": "worldwide"}}, {"type": "node", "id": 7333042867, "lat": 51.501747, "lon": 10.820145, "tags": {"amenity": "charging_station", "access": "customers", "fee": "yes", "operator": "K12 Service GmbH, Arnoldstr. 17, 99743 Nordhausen", "name": "Ladestation K12 Service GmbH, Arnoldstr. 17, 99743 Nordhausen", "addr:country": "DE", "capacity": "2", "_source": "worldwide"}}, {"type": "node", "id": 7346367700, "lat": 51.410552, "lon": 10.425474, "tags": {"amenity": "charging_station", "operator": "Thüringer Energienetze", "name": "Ladestation Thüringer Energienetze", "addr:country": "DE", "capacity": "2", "_source": "worldwide"}}, {"type": "node", "id": 7367511515, "lat": 51.376899, "lon": 10.143632, "tags": {"amenity": "charging_station", "access": "contract customers", "fee": "yes", "network": "ladenetz.de", "opening_hours": "24/7", "operator": "Stadtwerke Heilbad Heiligenstadt", "name": "Stadtwerke Heilbad Heiligenstadt - ladenetz.de", "addr:postcode": "37308", "addr:city": "Heilbad Heiligenstadt", "socket:type2": "2", "socket:type2:output": "22 kW", "charging_station:output": "22 kW", "capacity": "2", "_source": "worldwide"}}, {"type": "node", "id": 7425385410, "lat": 51.848096, "lon": 10.808352, "tags": {"amenity": "charging_station", "name": "Auto Ackert GmbH", "addr:country": "DE", "capacity": "2", "_source": "worldwide"}}, {"type": "node", "id": 7472149333, "lat": 51.795176, "lon": 10.960887, "tags": {"amenity": "charging_station", "fee": "no", "operator": "Stadtwerke Blankenburg", "name": "Ladestation Stadtwerke Blankenburg", "addr:country": "DE", "capacity": "3", "_source": "worldwide"}}, {"type": "node", "id": 7501898201, "lat": 51.728153, "lon": 10.40339, "tags": {"amenity": "charging_station", "fee": "no", "operator": "Hanskühnenburg/Radomski", "name": "kostenlose eBike Ladestation (nur Steckdose)", "addr:country": "DE", "socket:schuko": "1", "socket:schuko:output": "2.3 kW", "charging_station:output": "2.3 kW", "_source": "worldwide"}}, {"type": "node", "id": 7605516358, "lat": 51.363649, "lon": 10.877636, "tags": {"amenity": "charging_station", "access": "yes", "fee": "yes", "opening_hours": "24/7", "operator": "Stadtwerke Sondershausen", "name": "Parkplatz Borntal", "addr:country": "DE", "capacity": "2", "_source": "worldwide"}}, {"type": "node", "id": 7605714676, "lat": 51.364571, "lon": 10.844717, "tags": {"amenity": "charging_station", "access": "yes", "opening_hours": "24/7", "operator": "Stadtwerke Sondershausen", "name": "Honsel Tankstelle", "addr:country": "DE", "socket:type2": "1", "socket:type2:output": "43.0 kW", "socket:type2_combo": "1", "socket:type2_combo:output": "50.0 kW", "socket:chademo": "1", "socket:chademo:output": "50.0 kW", "charging_station:output": "50.0 kW", "_source": "worldwide"}}, {"type": "node", "id": 7605732400, "lat": 51.373048, "lon": 10.858504, "tags": {"amenity": "charging_station", "access": "yes", "brand": "Comfortcharge", "name": "Comfortcharge Charging Station", "addr:country": "DE", "socket:type2": "2", "socket:type2:output": "22.0 kW", "socket:type2_combo": "2", "socket:type2_combo:output": "150.0 kW", "charging_station:output": "150.0 kW", "capacity": "4", "_source": "worldwide"}}, {"type": "node", "id": 7606760410, "lat": 51.373202, "lon": 10.877681, "tags": {"amenity": "charging_station", "access": "yes", "fee": "yes", "operator": "Stadtwerke Sondershausen", "name": "Parkplatz Krankenhaus", "addr:country": "DE", "socket:type2": "2", "socket:type2:output": "11.0 kW", "charging_station:output": "11.0 kW", "capacity": "2", "_source": "worldwide"}}, {"type": "node", "id": 7606802206, "lat": 51.287943, "lon": 10.742151, "tags": {"amenity": "charging_station", "fee": "yes", "operator": "TEAG", "name": "Ladestation TEAG", "addr:country": "DE", "socket:type2": "1", "socket:type2:output": "22.0 kW", "socket:type2_combo": "1", "socket:type2_combo:output": "50.0 kW", "socket:chademo": "1", "socket:chademo:output": "50.0 kW", "charging_station:output": "50.0 kW", "capacity": "3", "_source": "worldwide"}}, {"type": "node", "id": 7619606627, "lat": 51.991849, "lon": 10.453646, "tags": {"amenity": "charging_station", "addr:country": "DE", "_source": "worldwide"}}, {"type": "node", "id": 10595088505, "lat": 51.664276, "lon": 10.668819, "tags": {"amenity": "charging_station", "fee": "yes", "network": "Ladenetz", "opening_hours": "24/7", "operator": "Thüringer Energie", "name": "Thüringer Energie - Ladenetz", "addr:country": "DE", "socket:type2": "2", "socket:type2:output": "22.0 kW", "charging_station:output": "22.0 kW", "capacity": "2", "_source": "worldwide"}}, {"type": "node", "id": 7678076980, "lat": 51.468012, "lon": 10.745837, "tags": {"amenity": "charging_station", "access": "yes", "fee": "yes", "operator": "Gemeinde Werther", "name": "Ladestation Gemeinde Werther", "addr:country": "DE", "capacity": "3", "_source": "worldwide"}}, {"type": "node", "id": 7825779286, "lat": 51.787978, "lon": 10.960459, "tags": {"amenity": "charging_station", "access": "yes", "fee": "yes", "opening_hours": "24/7", "operator": "Stadtwerke Blankenburg", "name": "Stadtwerke Blankenburg - Stadtwerke Blankenburg GmbH", "addr:street": "Schnappelberg", "addr:postcode": "38889", "addr:city": "Blankenburg", "socket:type2": "2", "socket:type2:output": "22.0 kW", "charging_station:output": "22.0 kW", "capacity": "2", "_source": "worldwide"}}, {"type": "node", "id": 7825783285, "lat": 51.787528, "lon": 10.960737, "tags": {"amenity": "charging_station", "brand": "Tesla", "operator": "Tesla", "name": "Tesla Destination Charger", "addr:country": "DE", "capacity": "2", "_source": "worldwide"}}, {"type": "node", "id": 8022268222, "lat": 51.727489, "lon": 10.608505, "tags": {"amenity": "charging_station", "access": "yes", "operator": "GreenCharge", "name": "Ladestation GreenCharge", "addr:country": "DE", "capacity": "50", "_source": "worldwide"}}, {"type": "node", "id": 8075848207, "lat": 51.50219, "lon": 10.80218, "tags": {"amenity": "charging_station", "fee": "yes", "network": "ladenetz.de", "opening_hours": "24/7", "operator": "Energieversorgung Nordhausen", "name": "Energieversorgung Nordhausen - ladenetz.de", "addr:country": "DE", "socket:type2": "2", "socket:type2:output": "22.0 kW", "charging_station:output": "22.0 kW", "capacity": "2", "authentication:none": "", "_source": "worldwide"}}, {"type": "node", "id": 8146027130, "lat": 51.488895, "lon": 10.829283, "tags": {"amenity": "charging_station", "access": "yes", "fee": "yes", "operator": "ELA", "name": "Ladepark Nordhausen", "addr:country": "DE", "socket:type2": "2", "socket:type2:output": "22.0 kW", "socket:type2_combo": "3", "socket:type2_combo:output": "350.0 kW", "socket:chademo": "3", "socket:chademo:output": "150.0 kW", "charging_station:output": "350.0 kW", "capacity": "6", "_source": "worldwide"}}, {"type": "node", "id": 8154971917, "lat": 51.913478, "lon": 10.537389, "tags": {"amenity": "charging_station", "access": "yes", "addr:country": "DE", "capacity": "1", "_source": "worldwide"}}, {"type": "node", "id": 8196741847, "lat": 51.508277, "lon": 10.027224, "tags": {"amenity": "charging_station", "operator": "enercity", "name": "Ladestation enercity", "addr:country": "DE", "capacity": "2", "_source": "worldwide"}}, {"type": "node", "id": 8251661430, "lat": 51.926439, "lon": 10.143432, "tags": {"amenity": "charging_station", "access": "yes", "operator": "EnBW", "name": "EnBW", "addr:country": "DE", "capacity": "2", "_source": "worldwide"}}, {"type": "node", "id": 8259949942, "lat": 51.006879, "lon": 10.180851, "tags": {"amenity": "charging_station", "fee": "yes", "operator": "mblty", "name": "Ladestation mblty", "addr:country": "DE", "socket:type2": "1", "socket:type2:output": "22.0 kW", "socket:chademo": "1", "socket:chademo:output": "50.0 kW", "charging_station:output": "50.0 kW", "capacity": "6", "authentication:none": "", "_source": "worldwide"}}, {"type": "node", "id": 1364433788, "lat": 51.006547, "lon": 10.17585, "tags": {"amenity": "charging_station", "fee": "yes", "opening_hours": "24/7", "operator": "EnBW", "name": "EnBW - EnBW Energie Baden-Württemberg AG", "addr:country": "DE", "socket:type2": "2", "socket:type2:output": "22.0 kW", "socket:type2_combo": "16", "socket:type2_combo:output": "300.0 kW", "socket:chademo": "2", "socket:chademo:output": "50.0 kW", "charging_station:output": "300.0 kW", "capacity": "16", "authentication:none": "", "_source": "worldwide"}}, {"type": "node", "id": 8291759018, "lat": 51.65848, "lon": 10.659677, "tags": {"amenity": "charging_station", "fee": "yes", "operator": "Hotel Rust", "name": "Ladestation Hotel Rust", "addr:country": "DE", "_source": "worldwide"}}, {"type": "node", "id": 8293116812, "lat": 51.415766, "lon": 10.53377, "tags": {"amenity": "charging_station", "addr:country": "DE", "_source": "worldwide"}}, {"type": "node", "id": 8354759418, "lat": 51.961602, "lon": 10.004739, "tags": {"amenity": "charging_station", "access": "customers", "fee": "no", "operator": "Waldbad Lamspringe", "name": "e-Bike Ladestation", "addr:country": "DE", "capacity": "5", "_source": "worldwide"}}, {"type": "node", "id": 8428263555, "lat": 51.168065, "lon": 10.336628, "tags": {"amenity": "charging_station", "addr:country": "DE", "_source": "worldwide"}}, {"type": "node", "id": 8452917866, "lat": 51.601652, "lon": 10.204588, "tags": {"amenity": "charging_station", "access": "yes", "addr:country": "DE", "capacity": "5", "_source": "worldwide"}}, {"type": "node", "id": 8483908355, "lat": 51.807832, "lon": 10.913402, "tags": {"amenity": "charging_station", "access": "yes", "fee": "yes", "opening_hours": "24/7", "operator": "Stadtwerke Blankenburg", "name": "Stadtwerke Blankenburg - Stadtwerke Blankenburg GmbH", "addr:country": "DE", "socket:type2": "2", "socket:type2:output": "22.0 kW", "charging_station:output": "22.0 kW", "capacity": "2", "_source": "worldwide"}}, {"type": "node", "id": 8533422414, "lat": 51.928104, "lon": 10.141797, "tags": {"amenity": "charging_station", "access": "yes", "fee": "yes", "operator": "EnBW", "name": "Ladestation EnBW", "addr:country": "DE", "socket:type2_combo": "1", "socket:type2_combo:output": "50.0 kW", "socket:chademo": "1", "socket:chademo:output": "50.0 kW", "charging_station:output": "50.0 kW", "capacity": "1", "_source": "worldwide"}}, {"type": "node", "id": 8572776951, "lat": 51.586865, "lon": 10.664374, "tags": {"amenity": "charging_station", "access": "yes", "fee": "yes", "operator": "TEAG Mobil", "name": "Thüringer Energie AG Ladestation", "addr:country": "DE", "capacity": "2", "_source": "worldwide"}}, {"type": "node", "id": 8592271742, "lat": 51.874262, "lon": 10.707793, "tags": {"amenity": "charging_station", "access": "private", "addr:country": "DE", "_source": "worldwide"}}, {"type": "node", "id": 8651739751, "lat": 51.891067, "lon": 10.17323, "tags": {"amenity": "charging_station", "operator": "HarzEnergie", "name": "Ladestation HarzEnergie", "addr:country": "DE", "capacity": "2", "_source": "worldwide"}}, {"type": "node", "id": 13319104539, "lat": 51.890099, "lon": 10.165374, "tags": {"amenity": "charging_station", "addr:country": "DE", "_source": "worldwide"}}, {"type": "node", "id": 8651739752, "lat": 51.888063, "lon": 10.172934, "tags": {"amenity": "charging_station", "operator": "HarzEnergie", "name": "Ladestation HarzEnergie", "addr:country": "DE", "socket:type2": "1", "socket:type2:output": "22 kW", "charging_station:output": "22 kW", "capacity": "2", "_source": "worldwide"}}, {"type": "node", "id": 8851843878, "lat": 51.879291, "lon": 10.563175, "tags": {"amenity": "charging_station", "access": "customers", "fee": "no", "name": "E-Bike-Ladestation", "addr:country": "DE", "capacity": "5", "_source": "worldwide"}}, {"type": "node", "id": 8917598319, "lat": 51.362048, "lon": 10.074539, "tags": {"amenity": "charging_station", "fee": "yes", "opening_hours": "24/7", "operator": "Eichsfeld Werke", "name": "Ladestation Eichsfeld Werke", "addr:country": "DE", "socket:type2": "2", "socket:type2:output": "22 kW", "charging_station:output": "22 kW", "_source": "worldwide"}}, {"type": "node", "id": 8934007730, "lat": 51.559128, "lon": 10.833607, "tags": {"amenity": "charging_station", "fee": "yes", "opening_hours": "24/7", "operator": "TEAG Mobil", "name": "Ladestation TEAG Mobil", "addr:country": "DE", "socket:type2": "2", "socket:type2:output": "22.0 kW", "charging_station:output": "22.0 kW", "capacity": "2", "authentication:none": "", "_source": "worldwide"}}, {"type": "node", "id": 8997085859, "lat": 51.492943, "lon": 10.008788, "tags": {"amenity": "charging_station", "operator": "EAM Netz", "name": "Ladestation EAM Netz", "addr:country": "DE", "capacity": "2", "_source": "worldwide"}}, {"type": "node", "id": 9026010856, "lat": 51.977088, "lon": 10.982554, "tags": {"amenity": "charging_station", "access": "yes", "fee": "no", "operator": "Gemeinde Huy", "name": "Ladestation Gemeinde Huy", "addr:country": "DE", "capacity": "4", "_source": "worldwide"}}, {"type": "node", "id": 9045464516, "lat": 51.81263, "lon": 10.953773, "tags": {"amenity": "charging_station", "access": "yes", "fee": "yes", "opening_hours": "24/7", "operator": "Stadtwerke Blankenburg", "name": "Stadtwerke Blankenburg - Stadtwerke Blankenburg GmbH", "addr:country": "DE", "socket:type2": "2", "socket:type2:output": "22.0 kW", "charging_station:output": "22.0 kW", "capacity": "2", "_source": "worldwide"}}, {"type": "node", "id": 9163233567, "lat": 51.227227, "lon": 10.167864, "tags": {"amenity": "charging_station", "access": "yes", "fee": "no", "operator": "Eichsfeld Werke", "name": "Geismar (Kanonenbahnradweg)", "addr:country": "DE", "capacity": "3", "_source": "worldwide"}}, {"type": "node", "id": 9200437947, "lat": 51.725965, "lon": 10.940165, "tags": {"amenity": "charging_station", "access": "yes", "fee": "no", "operator": "Stadt Thale", "name": "Ladestation Stadt Thale", "addr:country": "DE", "capacity": "4", "_source": "worldwide"}}, {"type": "node", "id": 9212084756, "lat": 51.817104, "lon": 10.253007, "tags": {"amenity": "charging_station", "access": "permit", "fee": "no", "opening_hours": "\"wie HöhenErlebnisZentrum\"", "operator": "HöhlenErlebnisZentrum", "name": "Ladestation HöhlenErlebnisZentrum", "addr:country": "DE", "socket:schuko": "6", "socket:schuko:output": "2.3 kW", "charging_station:output": "2.3 kW", "capacity": "6", "_source": "worldwide"}}, {"type": "node", "id": 9312979819, "lat": 51.059615, "lon": 10.58045, "tags": {"amenity": "charging_station", "operator": "Stadtwerke Bad Langensalza", "name": "Stromtankstelle Harth Haus", "addr:country": "DE", "socket:type2": "2", "socket:type2:output": "22.0 kW", "charging_station:output": "22.0 kW", "capacity": "2", "_source": "worldwide"}}, {"type": "node", "id": 9373772090, "lat": 51.855633, "lon": 10.715557, "tags": {"amenity": "charging_station", "access": "yes", "operator": "Kloster Drübeck", "name": "Ladestation Kloster Drübeck", "addr:country": "DE", "_source": "worldwide"}}, {"type": "node", "id": 13037966880, "lat": 51.856621, "lon": 10.715943, "tags": {"amenity": "charging_station", "access": "yes", "fee": "yes", "operator": "Stadtwerke Wernigerode", "name": "Stadtwerke Wernigerode - Stadtwerke Wernigerode GmbH", "addr:country": "DE", "socket:type2": "2", "socket:type2:output": "22.0 kW", "charging_station:output": "22.0 kW", "capacity": "2", "_source": "worldwide"}}, {"type": "node", "id": 9430608811, "lat": 51.75815, "lon": 10.215618, "tags": {"amenity": "charging_station", "addr:country": "DE", "_source": "worldwide"}}, {"type": "node", "id": 11810192097, "lat": 51.759285, "lon": 10.216461, "tags": {"amenity": "charging_station", "addr:country": "DE", "capacity": "6", "_source": "worldwide"}}, {"type": "node", "id": 9430608812, "lat": 51.750136, "lon": 10.216612, "tags": {"amenity": "charging_station", "addr:country": "DE", "_source": "worldwide"}}, {"type": "node", "id": 9442013531, "lat": 51.970104, "lon": 10.709086, "tags": {"amenity": "charging_station", "access": "yes", "fee": "no", "operator": "Stadt Osterwieck", "name": "Ladestation Stadt Osterwieck", "addr:country": "DE", "socket:schuko": "8", "socket:schuko:output": "2.3 kW", "charging_station:output": "2.3 kW", "capacity": "4", "_source": "worldwide"}}, {"type": "node", "id": 9631397012, "lat": 51.805994, "lon": 10.941355, "tags": {"amenity": "charging_station", "access": "yes", "brand": "bike-energy", "operator": "bike-energy", "name": "bike-energy", "addr:country": "DE", "_source": "worldwide"}}, {"type": "node", "id": 9631400149, "lat": 51.80612, "lon": 10.943282, "tags": {"amenity": "charging_station", "fee": "yes", "network": "NewMotion", "opening_hours": "24/7", "operator": "Shell", "name": "Blankenburg, Lerchenbreite", "addr:country": "DE", "socket:type2_combo": "2", "socket:type2_combo:output": "175.0 kW", "socket:chademo": "2", "socket:chademo:output": "100.0 kW", "charging_station:output": "175.0 kW", "capacity": "2", "authentication:none": "", "_source": "worldwide"}}, {"type": "node", "id": 12612268401, "lat": 51.806378, "lon": 10.942588, "tags": {"amenity": "charging_station", "opening_hours": "24/7", "operator": "EWE Go", "name": "PKW Ladestation CCS 300kW 4Stk", "addr:street": "Lerchenbreite 34", "addr:postcode": "38889", "capacity": "4", "_source": "worldwide"}}, {"type": "node", "id": 9679106313, "lat": 51.655429, "lon": 10.342293, "tags": {"amenity": "charging_station", "operator": "Harz Energie", "name": "Harz Energie - Harz Energie GmbH", "addr:country": "DE", "capacity": "4", "_source": "worldwide"}}, {"type": "node", "id": 12692482972, "lat": 51.656587, "lon": 10.341009, "tags": {"amenity": "charging_station", "operator": "Mennekes", "name": "Ladestation Mennekes", "addr:country": "DE", "capacity": "4", "_source": "worldwide"}}, {"type": "node", "id": 9706899753, "lat": 51.555441, "lon": 10.056133, "tags": {"amenity": "charging_station", "fee": "yes", "addr:country": "DE", "capacity": "2", "_source": "worldwide"}}, {"type": "node", "id": 9802219574, "lat": 51.871817, "lon": 10.675481, "tags": {"amenity": "charging_station", "access": "yes", "fee": "varies", "operator": "Stadtwerke Wernigerode", "name": "Ladestation Stadtwerke Wernigerode", "addr:country": "DE", "socket:type2": "2", "socket:type2:output": "22.0 kW", "charging_station:output": "22.0 kW", "capacity": "2", "_source": "worldwide"}}, {"type": "node", "id": 9933917827, "lat": 51.83896, "lon": 10.806571, "tags": {"amenity": "charging_station", "access": "yes", "fee": "varies", "operator": "Stadtwerke Wernigerode", "name": "Stromladesäule der Stadtwerke Wernigerode für PKW", "addr:country": "DE", "socket:type2": "2", "socket:type2:output": "22.0 kW", "charging_station:output": "22.0 kW", "capacity": "2", "_source": "worldwide"}}, {"type": "node", "id": 9933917832, "lat": 51.838347, "lon": 10.804543, "tags": {"amenity": "charging_station", "access": "yes", "fee": "varies", "operator": "Stadtwerke Wernigerode", "name": "Stromladesäule der Stadtwerke Wernigerode für PKW", "addr:country": "DE", "socket:type2": "2", "socket:type2:output": "22.0 kW", "charging_station:output": "22.0 kW", "capacity": "2", "_source": "worldwide"}}, {"type": "node", "id": 9933917833, "lat": 51.829403, "lon": 10.792202, "tags": {"amenity": "charging_station", "access": "yes", "fee": "varies", "operator": "Stadtwerke Wernigerode", "name": "Stromladesäule der Stadtwerke Wernigerode für PKW", "addr:country": "DE", "socket:type2": "2", "socket:type2:output": "22.0 kW", "charging_station:output": "22.0 kW", "capacity": "2", "_source": "worldwide"}}, {"type": "node", "id": 9933917834, "lat": 51.7619, "lon": 10.671846, "tags": {"amenity": "charging_station", "access": "yes", "fee": "varies", "operator": "Stadtwerke Wernigerode", "name": "Stromladesäule der Stadtwerke Wernigerode für PKW", "addr:country": "DE", "socket:type2": "4", "socket:type2:output": "22.0 kW", "charging_station:output": "22.0 kW", "capacity": "4", "_source": "worldwide"}}, {"type": "node", "id": 9966028880, "lat": 51.187068, "lon": 10.059739, "tags": {"amenity": "charging_station", "addr:country": "DE", "_source": "worldwide"}}, {"type": "node", "id": 12104693558, "lat": 51.185736, "lon": 10.063132, "tags": {"amenity": "charging_station", "fee": "yes", "operator": "Stadtwerke Eschwege", "name": "Stadtwerke Eschwege - Stadtwerke Eschwege GmbH", "addr:country": "DE", "capacity": "2", "_source": "worldwide"}}, {"type": "node", "id": 1338666975, "lat": 51.188772, "lon": 10.060246, "tags": {"amenity": "charging_station", "fee": "yes", "opening_hours": "24/7", "operator": "Stadtwerke Eschwege", "name": "Ladestation Stadtwerke Eschwege", "addr:country": "DE", "socket:type2": "4", "socket:type2:output": "22 kW", "charging_station:output": "22 kW", "capacity": "4", "_source": "worldwide"}}, {"type": "node", "id": 10013474108, "lat": 51.514974, "lon": 10.261257, "tags": {"amenity": "charging_station", "access": "yes", "fee": "yes", "operator": "ChargeIT", "name": "Ladestation ChargeIT", "addr:country": "DE", "capacity": "22", "_source": "worldwide"}}, {"type": "node", "id": 10039519050, "lat": 51.932478, "lon": 10.409625, "tags": {"amenity": "charging_station", "access": "yes", "operator": "EnBW", "name": "EnBW - EnBW Energie Baden-Württemberg AG", "addr:country": "DE", "capacity": "2", "_source": "worldwide"}}, {"type": "node", "id": 13182007265, "lat": 51.934142, "lon": 10.409742, "tags": {"amenity": "charging_station", "operator": "Pfalzwerke", "name": "Ladestation Pfalzwerke", "addr:country": "DE", "capacity": "8", "_source": "worldwide"}}, {"type": "node", "id": 10103698185, "lat": 51.59349, "lon": 10.558443, "tags": {"amenity": "charging_station", "access": "yes", "fee": "varies", "operator": "EnBW", "name": "Ladestation EnBW", "addr:country": "DE", "socket:type2": "2", "socket:type2:output": "150.0 kW", "charging_station:output": "150.0 kW", "capacity": "2", "_source": "worldwide"}}, {"type": "node", "id": 10119056372, "lat": 51.154477, "lon": 10.835782, "tags": {"amenity": "charging_station", "operator": "TEAG Mobil", "name": "Ladestation TEAG Mobil", "addr:country": "DE", "capacity": "2", "_source": "worldwide"}}, {"type": "node", "id": 10120594017, "lat": 51.376083, "lon": 10.123635, "tags": {"amenity": "charging_station", "operator": "Stadtwerke Heilbad Heiligenstadt", "name": "Stadtwerke Heilbad Heiligenstadt - Stadtwerke Heilbad Heiligenstadt GmbH", "addr:country": "DE", "_source": "worldwide"}}, {"type": "node", "id": 10121319017, "lat": 51.373665, "lon": 10.115926, "tags": {"amenity": "charging_station", "addr:country": "DE", "_source": "worldwide"}}, {"type": "node", "id": 10127456030, "lat": 51.771325, "lon": 10.730544, "tags": {"amenity": "charging_station", "fee": "yes", "opening_hours": "24/7", "operator": "Stadtwerke Wernigerode", "name": "Ladestation Stadtwerke Wernigerode", "addr:country": "DE", "socket:type2": "4", "socket:type2:output": "22.0 kW", "charging_station:output": "22.0 kW", "_source": "worldwide"}}, {"type": "node", "id": 10184325968, "lat": 51.118368, "lon": 10.021638, "tags": {"amenity": "charging_station", "access": "yes", "fee": "no", "brand": "E-Bike Ladestation", "operator": "Tierpension \"Holiday\"", "name": "Ladestation Tierpension \"Holiday\"", "addr:country": "DE", "capacity": "2", "_source": "worldwide"}}, {"type": "node", "id": 10218068555, "lat": 51.482169, "lon": 10.261955, "tags": {"amenity": "charging_station", "addr:country": "DE", "_source": "worldwide"}}, {"type": "node", "id": 10228771269, "lat": 51.052055, "lon": 10.2486, "tags": {"amenity": "charging_station", "fee": "no", "operator": "Stadt Amt Creuzburg", "name": "eBike Ladestation", "addr:country": "DE", "capacity": "4", "_source": "worldwide"}}, {"type": "node", "id": 13011561262, "lat": 51.051164, "lon": 10.242021, "tags": {"amenity": "charging_station", "access": "yes", "fee": "yes", "brand": "ChargeOne", "operator": "Heinemann", "name": "ChargeOne", "addr:country": "DE", "_source": "worldwide"}}, {"type": "node", "id": 10253467905, "lat": 51.496117, "lon": 10.78793, "tags": {"amenity": "charging_station", "fee": "yes", "network": "Ladenetz", "opening_hours": "24/7", "operator": "Energieversorgung Nordhausen", "name": "Energieversorgung Nordhausen - Ladenetz", "addr:country": "DE", "socket:type2": "2", "socket:type2:output": "22.0 kW", "charging_station:output": "22.0 kW", "capacity": "2", "authentication:none": "", "_source": "worldwide"}}, {"type": "node", "id": 10253544955, "lat": 51.49671, "lon": 10.786111, "tags": {"amenity": "charging_station", "fee": "yes", "brand": "EnBW", "network": "EnBW", "opening_hours": "24/7", "operator": "EnBW", "name": "EnBW - EnBW", "addr:country": "DE", "socket:type2_combo": "2", "socket:type2_combo:output": "300.0 kW", "charging_station:output": "300.0 kW", "capacity": "2", "_source": "worldwide"}}, {"type": "node", "id": 10634621774, "lat": 51.610519, "lon": 10.213116, "tags": {"amenity": "charging_station", "operator": "Harzenergie", "name": "Ladestation Harzenergie", "addr:country": "DE", "capacity": "2", "_source": "worldwide"}}, {"type": "node", "id": 10680661102, "lat": 51.791128, "lon": 10.954997, "tags": {"amenity": "charging_station", "operator": "Stadtwerke Blankenburg", "name": "Ladestation Stadtwerke Blankenburg", "addr:country": "DE", "capacity": "2", "_source": "worldwide"}}, {"type": "node", "id": 11465984865, "lat": 51.789681, "lon": 10.955158, "tags": {"amenity": "charging_station", "operator": "Stadtgespräch", "name": "Ladestation Stadtgespräch", "addr:country": "DE", "_source": "worldwide"}}, {"type": "node", "id": 10748612789, "lat": 51.960656, "lon": 10.011808, "tags": {"amenity": "charging_station", "addr:country": "DE", "_source": "worldwide"}}, {"type": "node", "id": 10874201393, "lat": 51.025096, "lon": 10.463418, "tags": {"amenity": "charging_station", "operator": "Hotel zum Herrenhaus", "name": "Ladestation Hotel zum Herrenhaus", "addr:country": "DE", "capacity": "2", "_source": "worldwide"}}, {"type": "node", "id": 10876163499, "lat": 51.50701, "lon": 10.268408, "tags": {"amenity": "charging_station", "addr:country": "DE", "_source": "worldwide"}}, {"type": "node", "id": 10891343146, "lat": 51.451966, "lon": 10.565872, "tags": {"amenity": "charging_station", "access": "yes", "fee": "yes", "brand": "Elli", "operator": "Elli VW Konzern", "name": "Elli (VW Group)", "addr:country": "DE", "capacity": "2", "_source": "worldwide"}}, {"type": "node", "id": 10891540314, "lat": 51.447029, "lon": 10.571767, "tags": {"amenity": "charging_station", "access": "yes", "fee": "yes", "brand": "Comfort Charge Ladestation", "operator": "Telekom", "name": "Comfort Charge Ladestation", "addr:country": "DE", "capacity": "3", "_source": "worldwide"}}, {"type": "node", "id": 10910911353, "lat": 51.927364, "lon": 10.423203, "tags": {"amenity": "charging_station", "fee": "yes", "addr:country": "DE", "_source": "worldwide"}}, {"type": "node", "id": 10911523254, "lat": 51.007144, "lon": 10.263029, "tags": {"amenity": "charging_station", "access": "customers", "addr:country": "DE", "_source": "worldwide"}}, {"type": "node", "id": 11006180914, "lat": 51.432504, "lon": 10.706297, "tags": {"amenity": "charging_station", "brand": "Liebram Elektotechnologien GmbH", "operator": "GSAB Elektrotechnik", "name": "GSAB Elektrotechnik - Liebram Elektotechnologien GmbH", "addr:country": "DE", "capacity": "2", "_source": "worldwide"}}, {"type": "node", "id": 11018656761, "lat": 51.911078, "lon": 10.421161, "tags": {"amenity": "charging_station", "fee": "yes", "operator": "ziegler", "name": "Ladestation ziegler", "addr:country": "DE", "capacity": "6", "_source": "worldwide"}}, {"type": "node", "id": 11046744338, "lat": 51.441326, "lon": 10.569819, "tags": {"amenity": "charging_station", "access": "yes", "fee": "yes", "brand": "Thüringer Energie AG", "opening_hours": "24/7", "operator": "TEAG Mobil", "name": "TEAG Mobil - Thüringer Energie AG", "addr:country": "DE", "socket:type2": "2", "socket:type2:output": "22 kW", "charging_station:output": "22 kW", "_source": "worldwide"}}, {"type": "node", "id": 13077879692, "lat": 51.442595, "lon": 10.578667, "tags": {"amenity": "charging_station", "fee": "yes", "opening_hours": "24/7", "operator": "TEAG Mobil", "name": "Ladestation TEAG Mobil", "addr:country": "DE", "socket:type2_combo": "2", "socket:type2_combo:output": "50 kW", "charging_station:output": "50 kW", "_source": "worldwide"}}, {"type": "node", "id": 11056212281, "lat": 51.206389, "lon": 10.468986, "tags": {"amenity": "charging_station", "access": "yes", "fee": "yes", "network": "Keba", "opening_hours": "24/7", "operator": "Keba", "name": "Ladestation Keba", "addr:country": "DE", "socket:type2": "1", "socket:type2:output": "22 kW", "charging_station:output": "22 kW", "capacity": "2", "_source": "worldwide"}}, {"type": "node", "id": 13046457167, "lat": 51.205444, "lon": 10.468905, "tags": {"amenity": "charging_station", "access": "yes", "fee": "yes", "brand": "EnBW", "opening_hours": "24/7", "operator": "EnBW", "name": "EnBW - EnBW", "addr:country": "DE", "socket:type2_combo": "8", "socket:type2_combo:output": "50 kW", "charging_station:output": "50 kW", "capacity": "8", "_source": "worldwide"}}, {"type": "node", "id": 11057219098, "lat": 51.39073, "lon": 10.342592, "tags": {"amenity": "charging_station", "access": "yes", "fee": "yes", "brand": "Ionity", "network": "Ionity", "opening_hours": "24/7", "operator": "IONITY", "name": "Ionity Leinefelde-Worbis", "addr:country": "DE", "socket:type2_combo": "6", "socket:type2_combo:output": "350.0 kW", "charging_station:output": "350.0 kW", "capacity": "6", "_source": "worldwide"}}, {"type": "node", "id": 11063213097, "lat": 51.86739, "lon": 10.880717, "tags": {"amenity": "charging_station", "fee": "yes", "operator": "Stadtwerke Blankenburg", "name": "Ladestation Stadtwerke Blankenburg", "addr:country": "DE", "socket:type2": "4", "socket:type2:output": "22.0 kW", "charging_station:output": "22.0 kW", "capacity": "4", "_source": "worldwide"}}, {"type": "node", "id": 11065201784, "lat": 51.839942, "lon": 10.772317, "tags": {"amenity": "charging_station", "fee": "no", "addr:country": "DE", "capacity": "4", "_source": "worldwide"}}, {"type": "node", "id": 11070978784, "lat": 51.216127, "lon": 10.463323, "tags": {"amenity": "charging_station", "access": "yes", "fee": "no", "network": "Total", "opening_hours": "24/7", "operator": "TotalEnergies", "name": "TotalEnergies - Total", "addr:country": "DE", "socket:type2_combo": "1", "socket:type2_combo:output": "50 kW", "socket:chademo": "1", "socket:chademo:output": "50 kW", "charging_station:output": "50 kW", "capacity": "2", "authentication:none": "", "_source": "worldwide"}}, {"type": "node", "id": 11085446440, "lat": 51.198884, "lon": 10.480498, "tags": {"amenity": "charging_station", "access": "yes", "fee": "yes", "network": "Cut Power", "opening_hours": "24/7", "operator": "Cut Power", "name": "Ladestation Cut Power", "addr:country": "DE", "socket:type2_combo": "1", "socket:type2_combo:output": "50 kW", "socket:chademo": "1", "socket:chademo:output": "50 kW", "charging_station:output": "50 kW", "capacity": "4", "_source": "worldwide"}}, {"type": "node", "id": 11112543514, "lat": 51.387657, "lon": 10.844596, "tags": {"amenity": "charging_station", "operator": "Stadtwerke Sondershausen", "name": "Burger King", "addr:country": "DE", "socket:type2_combo": "2", "socket:type2_combo:output": "300.0 kW", "charging_station:output": "300.0 kW", "capacity": "2", "_source": "worldwide"}}, {"type": "node", "id": 11167113358, "lat": 51.367404, "lon": 10.849851, "tags": {"amenity": "charging_station", "access": "yes", "operator": "Stadtwerke Sondershausen", "name": "Parkplatz Hagebau", "addr:country": "DE", "socket:type2_combo": "2", "socket:type2_combo:output": "150.0 kW", "charging_station:output": "150.0 kW", "capacity": "2", "_source": "worldwide"}}, {"type": "node", "id": 11199130325, "lat": 51.370257, "lon": 10.853106, "tags": {"amenity": "charging_station", "access": "yes", "operator": "EnBW", "name": "tegut", "addr:country": "DE", "socket:type2_combo": "2", "socket:type2_combo:output": "150.0 kW", "charging_station:output": "150.0 kW", "capacity": "2", "_source": "worldwide"}}, {"type": "node", "id": 11197591717, "lat": 51.362728, "lon": 10.895355, "tags": {"amenity": "charging_station", "addr:country": "DE", "capacity": "10", "_source": "worldwide"}}, {"type": "node", "id": 11199186050, "lat": 51.365217, "lon": 10.891529, "tags": {"amenity": "charging_station", "access": "yes", "operator": "Stadtwerke Sondershausen", "name": "OBI", "addr:country": "DE", "socket:type2_combo": "2", "socket:type2_combo:output": "150.0 kW", "charging_station:output": "150.0 kW", "capacity": "2", "_source": "worldwide"}}, {"type": "node", "id": 11198583462, "lat": 51.368658, "lon": 10.885688, "tags": {"amenity": "charging_station", "access": "permit", "addr:country": "DE", "capacity": "1", "_source": "worldwide"}}, {"type": "node", "id": 11199257429, "lat": 51.363181, "lon": 10.901392, "tags": {"amenity": "charging_station", "operator": "ChargePoint Germany", "name": "ISS GmbH", "addr:country": "DE", "socket:type2": "2", "socket:type2:output": "22.0 kW", "charging_station:output": "22.0 kW", "capacity": "2", "_source": "worldwide"}}, {"type": "node", "id": 11199499377, "lat": 51.803919, "lon": 10.44882, "tags": {"amenity": "charging_station", "fee": "yes", "operator": "Westfalen Weser Ladeservice", "name": "Ladestation Westfalen Weser Ladeservice", "addr:country": "DE", "capacity": "2", "_source": "worldwide"}}, {"type": "node", "id": 11220512380, "lat": 51.427066, "lon": 10.349757, "tags": {"amenity": "charging_station", "addr:country": "DE", "_source": "worldwide"}}, {"type": "node", "id": 11224683801, "lat": 51.804044, "lon": 10.442706, "tags": {"amenity": "charging_station", "operator": "Compleo Charging Technologies", "name": "Compleo Charging Technologies - Compleo Charging Technologies GmbH", "addr:country": "DE", "capacity": "2", "_source": "worldwide"}}, {"type": "node", "id": 11305110454, "lat": 51.907686, "lon": 10.51694, "tags": {"amenity": "charging_station", "access": "permissive", "brand": "reev", "operator": "Fleischerweg 12", "name": "Fleischerweg 12 - reev", "addr:country": "DE", "capacity": "4", "_source": "worldwide"}}, {"type": "node", "id": 11378414814, "lat": 51.742726, "lon": 10.888049, "tags": {"amenity": "charging_station", "operator": "Stadtwerke Wernigerode", "name": "Ladestation Stadtwerke Wernigerode", "addr:country": "DE", "socket:type2": "4", "socket:type2:output": "22.0 kW", "charging_station:output": "22.0 kW", "capacity": "4", "_source": "worldwide"}}, {"type": "node", "id": 11456250147, "lat": 51.788875, "lon": 10.952781, "tags": {"amenity": "charging_station", "access": "yes", "brand": "compleo", "name": "Ladestation compleo", "addr:country": "DE", "capacity": "2", "_source": "worldwide"}}, {"type": "node", "id": 11469937732, "lat": 51.882894, "lon": 10.055061, "tags": {"amenity": "charging_station", "access": "yes", "fee": "no", "brand": "LADE.Pünktchen", "opening_hours": "24/7", "operator": "Landjugend Heberbörde", "name": "Landjugend Heberbörde - LADE.Pünktchen", "addr:country": "DE", "_source": "worldwide"}}, {"type": "node", "id": 11470975646, "lat": 51.38576, "lon": 10.132947, "tags": {"amenity": "charging_station", "access": "yes", "fee": "yes", "network": "ladenetz.de", "operator": "Stadtwerke Heilbad Heiligenstadt", "name": "Stadtwerke Heilbad Heiligenstadt - ladenetz.de", "addr:country": "DE", "socket:type2_combo": "2", "socket:type2_combo:output": "300.0 kW", "charging_station:output": "300.0 kW", "capacity": "2", "_source": "worldwide"}}, {"type": "node", "id": 13011422004, "lat": 51.38622, "lon": 10.132203, "tags": {"amenity": "charging_station", "access": "yes", "fee": "yes", "brand": "ChargeOne", "operator": "Heinemann", "name": "Heinemann - ChargeOne", "addr:country": "DE", "_source": "worldwide"}}, {"type": "node", "id": 11587826748, "lat": 51.559775, "lon": 10.004253, "tags": {"amenity": "charging_station", "fee": "yes", "network": "Hubject", "opening_hours": "24/7", "operator": "Stadtwerke Göttingen", "name": "Venusring 31 Friedhof", "addr:country": "DE", "socket:type2": "2", "socket:type2:output": "22.0 kW", "charging_station:output": "22.0 kW", "capacity": "2", "_source": "worldwide"}}, {"type": "node", "id": 11640150405, "lat": 51.904869, "lon": 10.547388, "tags": {"amenity": "charging_station", "access": "customers", "fee": "no", "brand": "Wolkswagen", "name": "Ladestation Wolkswagen", "addr:country": "DE", "capacity": "1", "_source": "worldwide"}}, {"type": "node", "id": 11799281969, "lat": 51.381148, "lon": 10.136394, "tags": {"amenity": "charging_station", "addr:country": "DE", "_source": "worldwide"}}, {"type": "node", "id": 11903715058, "lat": 51.784658, "lon": 10.350382, "tags": {"amenity": "charging_station", "addr:country": "DE", "capacity": "4", "_source": "worldwide"}}, {"type": "node", "id": 11903715063, "lat": 51.872794, "lon": 10.692051, "tags": {"amenity": "charging_station", "access": "yes", "fee": "varies", "operator": "Edeka", "name": "Ladestation Edeka", "addr:country": "DE", "socket:type2_combo": "2", "socket:type2_combo:output": "150.0 kW", "charging_station:output": "150.0 kW", "capacity": "2", "_source": "worldwide"}}, {"type": "node", "id": 11903715064, "lat": 51.866294, "lon": 10.683103, "tags": {"amenity": "charging_station", "access": "yes", "fee": "varies", "operator": "Cafe & Kreativstube", "name": "Ladestation Cafe & Kreativstube", "addr:country": "DE", "socket:type2_combo": "2", "socket:type2_combo:output": "50.0 kW", "charging_station:output": "50.0 kW", "capacity": "2", "_source": "worldwide"}}, {"type": "node", "id": 11903715065, "lat": 51.845466, "lon": 10.721035, "tags": {"amenity": "charging_station", "access": "yes", "fee": "varies", "operator": "Stadtwerke Wernigerode", "name": "Ladestation Stadtwerke Wernigerode", "addr:country": "DE", "socket:type2": "2", "socket:type2:output": "22.0 kW", "charging_station:output": "22.0 kW", "capacity": "2", "_source": "worldwide"}}, {"type": "node", "id": 12014246824, "lat": 51.854931, "lon": 10.157742, "tags": {"amenity": "charging_station", "access": "yes", "fee": "no", "opening_hours": "24", "name": "Bike-energy", "addr:country": "DE", "socket:schuko": "1", "socket:schuko:output": "2.3 kW", "charging_station:output": "2.3 kW", "_source": "worldwide"}}, {"type": "node", "id": 12061154792, "lat": 51.204754, "lon": 10.438577, "tags": {"amenity": "charging_station", "access": "customers", "addr:country": "DE", "capacity": "2", "_source": "worldwide"}}, {"type": "node", "id": 12066359534, "lat": 51.714651, "lon": 10.521201, "tags": {"amenity": "charging_station", "operator": "TEAG Thüringer Energie", "name": "TEAG Thüringer Energie - TEAG Thüringer Energie AG", "addr:country": "DE", "capacity": "2", "_source": "worldwide"}}, {"type": "node", "id": 12077463669, "lat": 51.731489, "lon": 10.613035, "tags": {"amenity": "charging_station", "access": "yes", "fee": "yes", "opening_hours": "24/7", "operator": "Harz Energie", "name": "Harz Energie - Harz Energie GmbH & Co. KG", "addr:country": "DE", "socket:type2": "2", "socket:type2:output": "22.0 kW", "socket:schuko": "2", "socket:schuko:output": "2.3 kW", "charging_station:output": "22.0 kW", "capacity": "2", "_source": "worldwide"}}, {"type": "node", "id": 12174628983, "lat": 51.857017, "lon": 10.342789, "tags": {"amenity": "charging_station", "fee": "yes", "operator": "HarzEnergie", "name": "Ladestation HarzEnergie", "addr:country": "DE", "capacity": "2", "_source": "worldwide"}}, {"type": "node", "id": 12186520042, "lat": 51.732074, "lon": 10.243987, "tags": {"amenity": "charging_station", "access": "customers", "addr:country": "DE", "_source": "worldwide"}}, {"type": "node", "id": 12186559077, "lat": 51.72286, "lon": 10.250159, "tags": {"amenity": "charging_station", "fee": "yes", "addr:country": "DE", "socket:cee_blue": "7", "socket:cee_blue:output": "2400.0 kW", "charging_station:output": "2400.0 kW", "authentication:none": "yes", "_source": "worldwide"}}, {"type": "node", "id": 12186559570, "lat": 51.732746, "lon": 10.237269, "tags": {"amenity": "charging_station", "fee": "yes", "addr:country": "DE", "socket:type2_combo": "1", "socket:type2_combo:output": "50 kW", "charging_station:output": "50 kW", "_source": "worldwide"}}, {"type": "node", "id": 12616275444, "lat": 51.732875, "lon": 10.238357, "tags": {"amenity": "charging_station", "access": "customers", "fee": "no", "operator": "McDonald's Osterode", "name": "Ladestation McDonald's Osterode", "addr:country": "DE", "capacity": "2", "_source": "worldwide"}}, {"type": "node", "id": 12190134751, "lat": 51.202975, "lon": 10.431192, "tags": {"amenity": "charging_station", "access": "yes", "fee": "yes", "addr:country": "DE", "_source": "worldwide"}}, {"type": "node", "id": 12190138149, "lat": 51.494318, "lon": 10.38533, "tags": {"amenity": "charging_station", "access": "yes", "fee": "yes", "opening_hours": "24/7", "operator": "Eichfeldwerke", "name": "Ladestation Eichfeldwerke", "addr:country": "DE", "socket:type2": "2", "socket:type2:output": "22.0 kW", "charging_station:output": "22.0 kW", "_source": "worldwide"}}, {"type": "node", "id": 12190159464, "lat": 51.218157, "lon": 10.470972, "tags": {"amenity": "charging_station", "access": "yes", "fee": "yes", "addr:country": "DE", "_source": "worldwide"}}, {"type": "node", "id": 12211584877, "lat": 51.186504, "lon": 10.167055, "tags": {"amenity": "charging_station", "addr:country": "DE", "socket:cee_blue": "6", "socket:cee_blue:output": "3.7 kW", "charging_station:output": "3.7 kW", "_source": "worldwide"}}, {"type": "node", "id": 12231952664, "lat": 51.308313, "lon": 10.324408, "tags": {"amenity": "charging_station", "addr:country": "DE", "_source": "worldwide"}}, {"type": "node", "id": 12234434567, "lat": 51.847505, "lon": 10.811756, "tags": {"amenity": "charging_station", "access": "yes", "fee": "yes", "brand": "Allegro", "operator": "Allego", "name": "Allego - Allegro", "addr:country": "DE", "socket:type2_combo": "2", "socket:type2_combo:output": "150.0 kW", "charging_station:output": "150.0 kW", "capacity": "4", "_source": "worldwide"}}, {"type": "node", "id": 12323517082, "lat": 51.323441, "lon": 10.321578, "tags": {"amenity": "charging_station", "access": "yes", "fee": "no", "addr:country": "DE", "_source": "worldwide"}}, {"type": "node", "id": 12348613972, "lat": 51.803857, "lon": 10.535885, "tags": {"amenity": "charging_station", "operator": "HarzEnergie", "name": "Ladestation HarzEnergie", "addr:country": "DE", "capacity": "4", "_source": "worldwide"}}, {"type": "node", "id": 12374177854, "lat": 51.509081, "lon": 10.248463, "tags": {"amenity": "charging_station", "access": "customers", "addr:country": "DE", "_source": "worldwide"}}, {"type": "node", "id": 12374177911, "lat": 51.508749, "lon": 10.251107, "tags": {"amenity": "charging_station", "access": "customers", "addr:country": "DE", "capacity": "2", "_source": "worldwide"}}, {"type": "node", "id": 12423535609, "lat": 51.542562, "lon": 10.768738, "tags": {"amenity": "charging_station", "access": "unknown", "operator": "TEAG Mobil", "name": "Ladestation TEAG Mobil", "addr:country": "DE", "capacity": "4", "_source": "worldwide"}}, {"type": "node", "id": 12438315827, "lat": 51.012264, "lon": 10.988157, "tags": {"amenity": "charging_station", "fee": "yes", "network": "IONITY", "opening_hours": "24/7", "operator": "IONITY", "name": "IONITY Erfurt", "addr:country": "DE", "socket:type2_combo": "8", "socket:type2_combo:output": "50 kW", "charging_station:output": "50 kW", "capacity": "12", "_source": "worldwide"}}, {"type": "node", "id": 12441429061, "lat": 51.009201, "lon": 10.999802, "tags": {"amenity": "charging_station", "access": "yes", "fee": "yes", "opening_hours": "24/7", "operator": "TEAG Mobil", "name": "Ladestation TEAG Mobil", "addr:street": "Moskauer Platz 1", "addr:postcode": "99091", "capacity": "6", "_source": "worldwide"}}, {"type": "node", "id": 12474073644, "lat": 51.454003, "lon": 10.652312, "tags": {"amenity": "charging_station", "access": "yes", "fee": "yes", "brand": "ChargeOne", "operator": "Heinemann", "name": "Heinemann - ChargeOne", "addr:country": "DE", "socket:type2_combo": "2", "socket:type2_combo:output": "50 kW", "charging_station:output": "50 kW", "_source": "worldwide"}}, {"type": "node", "id": 12527528553, "lat": 51.599393, "lon": 10.546993, "tags": {"amenity": "charging_station", "fee": "yes", "opening_hours": "24/7", "addr:street": "Bismarckstraße 20", "capacity": "2", "_source": "worldwide"}}, {"type": "node", "id": 12644636163, "lat": 51.447248, "lon": 10.873769, "tags": {"amenity": "charging_station", "operator": "EnBW", "name": "EnBW - EnBW Energie Baden-Württemberg AG", "addr:country": "DE", "capacity": "2", "_source": "worldwide"}}, {"type": "node", "id": 12698058177, "lat": 51.827914, "lon": 10.277769, "tags": {"amenity": "charging_station", "addr:country": "DE", "capacity": "2", "_source": "worldwide"}}, {"type": "node", "id": 12699085715, "lat": 51.903251, "lon": 10.329866, "tags": {"amenity": "charging_station", "fee": "yes", "addr:country": "DE", "capacity": "2", "_source": "worldwide"}}, {"type": "node", "id": 12744598874, "lat": 51.58215, "lon": 10.620376, "tags": {"amenity": "charging_station", "operator": "HarzEnergie", "name": "Ladestation HarzEnergie", "addr:country": "DE", "_source": "worldwide"}}, {"type": "node", "id": 12757144525, "lat": 51.224128, "lon": 10.451799, "tags": {"amenity": "charging_station", "name": "Lidl / Kaufland", "addr:country": "DE", "_source": "worldwide"}}, {"type": "node", "id": 12826176841, "lat": 51.118426, "lon": 10.633995, "tags": {"amenity": "charging_station", "addr:country": "DE", "capacity": "2", "_source": "worldwide"}}, {"type": "node", "id": 12829868929, "lat": 51.94564, "lon": 10.130752, "tags": {"amenity": "charging_station", "addr:country": "DE", "_source": "worldwide"}}, {"type": "node", "id": 12844402620, "lat": 51.078006, "lon": 10.863113, "tags": {"amenity": "charging_station", "operator": "Compleo Charging Technologies", "name": "Compleo Charging Technologies - Compleo Charging Technologies GmbH", "addr:country": "DE", "capacity": "1", "_source": "worldwide"}}, {"type": "node", "id": 12848612213, "lat": 51.374489, "lon": 10.318018, "tags": {"amenity": "charging_station", "access": "yes", "addr:country": "DE", "socket:type2_combo": "6", "socket:type2_combo:output": "300.0 kW", "charging_station:output": "300.0 kW", "capacity": "6", "_source": "worldwide"}}, {"type": "node", "id": 13405893723, "lat": 51.375114, "lon": 10.324801, "tags": {"amenity": "charging_station", "operator": "Eichsfeldwerke", "name": "Ladestation Eichsfeldwerke", "addr:country": "DE", "capacity": "2", "_source": "worldwide"}}, {"type": "node", "id": 12882529809, "lat": 51.913107, "lon": 10.445425, "tags": {"amenity": "charging_station", "operator": "EWE Go", "name": "Ladestation EWE Go", "addr:country": "DE", "capacity": "2", "_source": "worldwide"}}, {"type": "node", "id": 12915495179, "lat": 51.667304, "lon": 10.429963, "tags": {"amenity": "charging_station", "fee": "no", "addr:country": "DE", "_source": "worldwide"}}, {"type": "node", "id": 12946998653, "lat": 51.956106, "lon": 10.002013, "tags": {"amenity": "charging_station", "brand": "EWE Go", "operator": "EWE Go", "name": "EWE Go - EWE Go", "addr:country": "DE", "capacity": "2", "_source": "worldwide"}}, {"type": "node", "id": 12955166574, "lat": 51.748207, "lon": 10.291013, "tags": {"amenity": "charging_station", "access": "customers", "fee": "yes", "addr:country": "DE", "capacity": "11", "_source": "worldwide"}}, {"type": "node", "id": 12997053216, "lat": 51.835733, "lon": 10.782279, "tags": {"amenity": "charging_station", "addr:country": "DE", "capacity": "2", "_source": "worldwide"}}, {"type": "node", "id": 13011387395, "lat": 51.190686, "lon": 10.048969, "tags": {"amenity": "charging_station", "access": "yes", "fee": "yes", "brand": "ChargeOne", "operator": "Heinemann", "name": "Heinemann - ChargeOne", "addr:country": "DE", "_source": "worldwide"}}, {"type": "node", "id": 13011554866, "lat": 51.119558, "lon": 10.842383, "tags": {"amenity": "charging_station", "access": "yes", "fee": "yes", "brand": "ChargeOne", "operator": "Heinemann", "name": "Heinemann - ChargeOne", "addr:country": "DE", "_source": "worldwide"}}, {"type": "node", "id": 13011585717, "lat": 51.519148, "lon": 10.769497, "tags": {"amenity": "charging_station", "access": "yes", "fee": "yes", "brand": "ChargeOne", "operator": "Heinemann", "name": "ChargeOne", "addr:country": "DE", "_source": "worldwide"}}, {"type": "node", "id": 13037979200, "lat": 51.854454, "lon": 10.721402, "tags": {"amenity": "charging_station", "addr:country": "DE", "_source": "worldwide"}}, {"type": "node", "id": 13055754923, "lat": 51.800179, "lon": 10.347635, "tags": {"amenity": "charging_station", "access": "yes", "fee": "yes", "brand": "ABL Wallbox eM4 Twin reev ready", "operator": "Westfalen Weser Ladeservice", "name": "Westfalen Weser Ladeservice - ABL Wallbox eM4 Twin reev ready", "addr:country": "DE", "socket:type2": "2", "socket:type2:output": "11.0 kW", "charging_station:output": "11.0 kW", "capacity": "2", "_source": "worldwide"}}, {"type": "node", "id": 13062065152, "lat": 51.510705, "lon": 10.272243, "tags": {"amenity": "charging_station", "opening_hours": "24/7", "addr:country": "DE", "_source": "worldwide"}}, {"type": "node", "id": 13067168921, "lat": 51.607626, "lon": 10.534809, "tags": {"amenity": "charging_station", "fee": "yes", "addr:country": "DE", "_source": "worldwide"}}, {"type": "node", "id": 13120349750, "lat": 51.848634, "lon": 10.736566, "tags": {"amenity": "charging_station", "addr:country": "DE", "capacity": "2", "_source": "worldwide"}}, {"type": "node", "id": 13147543749, "lat": 51.308563, "lon": 10.33597, "tags": {"amenity": "charging_station", "addr:country": "DE", "_source": "worldwide"}}, {"type": "node", "id": 13159397687, "lat": 51.715761, "lon": 10.973605, "tags": {"amenity": "charging_station", "fee": "yes", "operator": "Stadtwerke Blankenburg", "name": "Ladestation Stadtwerke Blankenburg", "addr:country": "DE", "capacity": "2", "_source": "worldwide"}}, {"type": "node", "id": 13159502103, "lat": 51.7915, "lon": 10.951932, "tags": {"amenity": "charging_station", "operator": "Stadtwerke Blankenburg", "name": "Ladestation Stadtwerke Blankenburg", "addr:country": "DE", "capacity": "2", "_source": "worldwide"}}, {"type": "node", "id": 13160506848, "lat": 51.856784, "lon": 10.356505, "tags": {"amenity": "charging_station", "addr:country": "DE", "_source": "worldwide"}}, {"type": "node", "id": 13182007266, "lat": 51.931731, "lon": 10.409664, "tags": {"amenity": "charging_station", "operator": "Allego", "name": "Ladestation Allego", "addr:country": "DE", "capacity": "2", "_source": "worldwide"}}, {"type": "node", "id": 13197215133, "lat": 51.832114, "lon": 10.668249, "tags": {"amenity": "charging_station", "access": "yes", "addr:country": "DE", "_source": "worldwide"}}, {"type": "node", "id": 13230529198, "lat": 51.453691, "lon": 10.343603, "tags": {"amenity": "charging_station", "addr:country": "DE", "capacity": "2", "_source": "worldwide"}}, {"type": "node", "id": 13241251188, "lat": 51.852514, "lon": 10.790141, "tags": {"amenity": "charging_station", "access": "yes", "fee": "yes", "brand": "EWE Go", "opening_hours": "24/7", "name": "Ladestation EWE Go", "addr:country": "DE", "socket:type2_combo": "2", "socket:type2_combo:output": "75.0 kW", "charging_station:output": "75.0 kW", "capacity": "2", "_source": "worldwide"}}, {"type": "node", "id": 13257862623, "lat": 51.078148, "lon": 10.327778, "tags": {"amenity": "charging_station", "access": "permit", "brand": "E3DC", "operator": "Michael Möbius", "name": "Michael Möbius - E3DC", "addr:country": "DE", "_source": "worldwide"}}, {"type": "node", "id": 13282578040, "lat": 51.910393, "lon": 10.435626, "tags": {"amenity": "charging_station", "name": "Ladestation", "addr:street": "Mauerstraße 69b", "_source": "worldwide"}}, {"type": "node", "id": 13308718434, "lat": 51.690388, "lon": 10.855132, "tags": {"amenity": "charging_station", "addr:country": "DE", "capacity": "2", "_source": "worldwide"}}, {"type": "node", "id": 13335396864, "lat": 51.797085, "lon": 10.03929, "tags": {"amenity": "charging_station", "fee": "yes", "opening_hours": "24/7", "addr:country": "DE", "capacity": "2", "_source": "worldwide"}}, {"type": "node", "id": 13335396866, "lat": 51.787906, "lon": 10.063083, "tags": {"amenity": "charging_station", "addr:country": "DE", "_source": "worldwide"}}, {"type": "node", "id": 13368779983, "lat": 51.908394, "lon": 10.475783, "tags": {"amenity": "charging_station", "operator": "Metallurgiepark Oker", "name": "Ladestation Metallurgiepark Oker", "addr:country": "DE", "capacity": "2", "_source": "worldwide"}}, {"type": "node", "id": 13386999277, "lat": 51.358188, "lon": 10.04616, "tags": {"amenity": "charging_station", "addr:country": "DE", "_source": "worldwide"}}, {"type": "node", "id": 13387537533, "lat": 51.333901, "lon": 10.225832, "tags": {"amenity": "charging_station", "addr:country": "DE", "_source": "worldwide"}}, {"type": "node", "id": 13395493468, "lat": 51.807045, "lon": 10.336359, "tags": {"amenity": "charging_station", "addr:country": "DE", "capacity": "2", "_source": "worldwide"}}, {"type": "node", "id": 13401611309, "lat": 51.315788, "lon": 10.097103, "tags": {"amenity": "charging_station", "operator": "Eichsfeldwerke", "name": "Ladestation Eichsfeldwerke", "addr:country": "DE", "capacity": "2", "_source": "worldwide"}}, {"type": "node", "id": 13408566790, "lat": 51.388277, "lon": 10.326383, "tags": {"amenity": "charging_station", "operator": "Eichsfeldwerke", "name": "Eichsfeldwerke - Eichsfeldwerke GmbH", "addr:country": "DE", "capacity": "2", "_source": "worldwide"}}, {"type": "node", "id": 13448491581, "lat": 51.483218, "lon": 10.805197, "tags": {"amenity": "charging_station", "access": "yes", "fee": "yes", "operator": "TEAG Mobil", "name": "Ladestation TEAG Mobil", "addr:country": "DE", "socket:type2_combo": "2", "socket:type2_combo:output": "50 kW", "charging_station:output": "50 kW", "_source": "worldwide"}}, {"type": "node", "id": 13468804082, "lat": 51.99822, "lon": 10.438148, "tags": {"amenity": "charging_station", "addr:country": "DE", "capacity": "1", "_source": "worldwide"}}, {"type": "node", "id": 13556307194, "lat": 51.931187, "lon": 10.43216, "tags": {"amenity": "charging_station", "operator": "Allego", "name": "Ladestation Allego", "addr:country": "DE", "capacity": "2", "_source": "worldwide"}}, {"type": "node", "id": 13567806633, "lat": 51.62937, "lon": 10.471323, "tags": {"amenity": "charging_station", "access": "yes", "addr:country": "DE", "socket:type2": "1", "socket:type2:output": "22 kW", "charging_station:output": "22 kW", "capacity": "1", "_source": "worldwide"}}, {"type": "node", "id": 13589030599, "lat": 51.889294, "lon": 10.195149, "tags": {"amenity": "charging_station", "access": "yes", "addr:country": "DE", "_source": "worldwide"}}, {"type": "node", "id": 13608554643, "lat": 51.523005, "lon": 10.084532, "tags": {"amenity": "charging_station", "addr:country": "DE", "socket:schuko": "4", "socket:schuko:output": "2.3 kW", "charging_station:output": "2.3 kW", "_source": "worldwide"}}, {"type": "node", "id": 13641882262, "lat": 51.317009, "lon": 10.319718, "tags": {"amenity": "charging_station", "access": "yes", "addr:country": "DE", "_source": "worldwide"}}, {"type": "node", "id": 13644919310, "lat": 51.839288, "lon": 10.885755, "tags": {"amenity": "charging_station", "fee": "yes", "brand": "Deutschlandnetz", "opening_hours": "24/7", "operator": "autostrom plus", "name": "Regensteinblick Süd", "addr:country": "DE", "capacity": "4", "_source": "worldwide"}}, {"type": "node", "id": 13694951748, "lat": 51.453375, "lon": 10.600143, "tags": {"amenity": "charging_station", "fee": "yes", "addr:country": "DE", "socket:type2_combo": "2", "socket:type2_combo:output": "50 kW", "charging_station:output": "50 kW", "_source": "worldwide"}}, {"type": "node", "id": 13694951749, "lat": 51.377704, "lon": 10.14685, "tags": {"amenity": "charging_station", "fee": "yes", "opening_hours": "24/7", "operator": "TEAG", "name": "Ladestation TEAG", "addr:country": "DE", "socket:type2_combo": "4", "socket:type2_combo:output": "50 kW", "charging_station:output": "50 kW", "_source": "worldwide"}}, {"type": "node", "id": 13694953983, "lat": 51.46341, "lon": 10.935916, "tags": {"amenity": "charging_station", "addr:country": "DE", "socket:type2": "2", "socket:type2:output": "22 kW", "charging_station:output": "22 kW", "_source": "worldwide"}}, {"type": "node", "id": 854247374, "lat": 51.712386, "lon": 10.597746, "tags": {"amenity": "charging_station", "access": "customers", "fee": "yes", "opening_hours": "Mo-Su 08:30-12:30,13:30-18:30", "operator": "Coen & Nienke la Croix", "name": "Camping Braunlage", "addr:street": "Am Campingplatz 1", "addr:postcode": "38700", "addr:city": "Braunlage", "_source": "worldwide"}}, {"type": "node", "id": 1292867617, "lat": 51.56717, "lon": 10.957824, "tags": {"amenity": "charging_station", "fee": "yes", "brand": "m8mit", "opening_hours": "24/7", "operator": "jetzt mobil", "name": "jetzt mobil - m8mit", "addr:street": "Thyratal 1", "socket:type2": "6", "socket:type2:output": "22.0 kW", "charging_station:output": "22.0 kW", "capacity": "6", "authentication:none": "", "_source": "worldwide"}}, {"type": "node", "id": 1355391897, "lat": 51.036489, "lon": 10.893104, "tags": {"amenity": "charging_station", "addr:country": "DE", "capacity": "2", "_source": "worldwide"}}, {"type": "node", "id": 1361728699, "lat": 51.785544, "lon": 10.210779, "tags": {"amenity": "charging_station", "fee": "yes", "operator": "EnBW ODR", "name": "Ladestation EnBW ODR", "addr:country": "DE", "capacity": "4", "_source": "worldwide"}}]}