{"id": "36--5", "latMin": 36, "lonMin": -5, "latMax": 37, "lonMax": -4, "generated": "2026-04-16T18:39:07.378Z", "count": 5, "pois": [{"type": "node", "id": 1122283134, "lat": 36.9336, "lon": -5.245983, "tags": {"amenity": "charging_station", "access": "yes", "fee": "no", "operator": "Hemegas", "name": "Ladestation Hemegas", "addr:country": "ES", "_source": "worldwide"}}, {"type": "node", "id": 1132492086, "lat": 36.934142, "lon": -5.254756, "tags": {"amenity": "charging_station", "fee": "yes", "brand": "Repsol", "operator": "Repsol", "name": "Repsol - Repsol", "addr:country": "ES", "_source": "worldwide"}}, {"type": "node", "id": 1433082318, "lat": 36.195456, "lon": -5.428905, "tags": {"amenity": "charging_station", "access": "customers", "operator": "Iberdrola", "name": "Ladestation Iberdrola", "addr:country": "ES", "capacity": "6", "_source": "worldwide"}}, {"type": "node", "id": 1453737176, "lat": 36.45718, "lon": -5.061501, "tags": {"amenity": "charging_station", "access": "yes", "fee": "yes", "brand": "Tesla Supercharger", "operator": "Tesla", "name": "Supercharger Estepona, Spain", "addr:country": "ES", "capacity": "8", "_source": "worldwide"}}, {"type": "node", "id": 1471907552, "lat": 36.202898, "lon": -5.927163, "tags": {"amenity": "charging_station", "brand": "Endesa", "operator": "Endesa", "name": "Endesa - Endesa", "addr:country": "ES", "capacity": "4", "_source": "worldwide"}}]}