{"id": "51-6", "latMin": 51, "lonMin": 6, "latMax": 52, "lonMax": 7, "generated": "2026-04-16T18:39:08.483Z", "count": 2149, "pois": [{"type": "node", "id": 7415136607, "lat": 51.457653, "lon": 6.998986, "tags": {"amenity": "charging_station", "fee": "yes", "brand": "Innogy", "opening_hours": "Mo-Su 08:00-18:00", "operator": "Innogy", "name": "Innogy", "addr:street": "Paul-Klinger-Straße 10", "addr:postcode": "45127", "addr:city": "Essen", "addr:country": "DE", "socket:type2": "2", "socket:type2:output": "22 kW", "charging_station:output": "22 kW", "capacity": "2", "_source": "worldwide"}}, {"type": "node", "id": 7415139001, "lat": 51.4564, "lon": 6.998628, "tags": {"amenity": "charging_station", "fee": "yes", "brand": "Innogy", "opening_hours": "Mo-Su 08:00-18:00", "operator": "Innogy", "name": "Innogy", "addr:country": "DE", "socket:type2": "2", "socket:type2:output": "22 kW", "charging_station:output": "22 kW", "capacity": "2", "_source": "worldwide"}}, {"type": "node", "id": 1271553623, "lat": 51.436554, "lon": 6.998947, "tags": {"amenity": "charging_station", "fee": "yes", "brand": "Innogy", "opening_hours": "Mo-Su 08:00-18:00", "operator": "Innogy", "name": "Innogy", "addr:street": "Zweigertstraße 52", "addr:postcode": "45130", "addr:city": "Essen", "addr:country": "DE", "socket:type2": "2", "socket:type2:output": "22 kW", "charging_station:output": "22 kW", "capacity": "2", "_source": "worldwide"}}, {"type": "node", "id": 12451368707, "lat": 51.435683, "lon": 6.999041, "tags": {"amenity": "charging_station", "opening_hours": "24/7", "operator": "EZE", "name": "Ladestation EZE", "addr:country": "DE", "socket:type2": "2", "socket:type2:output": "22 kW", "charging_station:output": "22 kW", "capacity": "2", "authentication:none": "", "_source": "worldwide"}}, {"type": "node", "id": 7398294468, "lat": 51.431199, "lon": 6.999264, "tags": {"amenity": "charging_station", "fee": "yes", "opening_hours": "24/7", "operator": "allego", "name": "Ladestation allego", "addr:street": "Messeplatz 2", "addr:postcode": "45131", "addr:city": "Essen", "addr:country": "DE", "socket:type2": "1", "socket:type2:output": "43.0 kW", "socket:type2_combo": "1", "socket:type2_combo:output": "50.0 kW", "socket:chademo": "1", "socket:chademo:output": "50.0 kW", "charging_station:output": "50.0 kW", "capacity": "2", "_source": "worldwide"}}, {"type": "node", "id": 7458173429, "lat": 51.428613, "lon": 6.998448, "tags": {"amenity": "charging_station", "fee": "yes", "brand": "Innogy", "opening_hours": "Mo-Su 08:00-18:00", "operator": "innogy", "name": "Innogy", "addr:country": "DE", "socket:type2": "2", "socket:type2:output": "22 kW", "charging_station:output": "22 kW", "capacity": "2", "_source": "worldwide"}}, {"type": "node", "id": 12433379895, "lat": 51.440092, "lon": 6.999503, "tags": {"amenity": "charging_station", "access": "yes", "fee": "yes", "brand": "qwello", "operator": "Qwello", "name": "Qwello - qwello", "addr:country": "DE", "capacity": "2", "_source": "worldwide"}}, {"type": "node", "id": 13205482384, "lat": 51.061364, "lon": 6.998438, "tags": {"amenity": "charging_station", "fee": "yes", "addr:country": "DE", "_source": "worldwide"}}, {"type": "node", "id": 8464021664, "lat": 51.422096, "lon": 6.999676, "tags": {"amenity": "charging_station", "fee": "yes", "opening_hours": "Mo-Su 08:00-18:00", "operator": "allego", "name": "Ladestation allego", "addr:country": "DE", "socket:type2": "2", "socket:type2:output": "22.0 kW", "charging_station:output": "22.0 kW", "capacity": "2", "_source": "worldwide"}}, {"type": "node", "id": 9335407529, "lat": 51.38789, "lon": 6.999833, "tags": {"amenity": "charging_station", "brand": "Innogy", "operator": "Innogy", "name": "eBike-Ladestation", "addr:country": "DE", "_source": "worldwide"}}, {"type": "node", "id": 726821052, "lat": 51.407343, "lon": 6.869998, "tags": {"amenity": "charging_station", "opening_hours": "24/7", "operator": "RWE-Effizienz", "name": "Ladestation RWE-Effizienz", "addr:country": "DE", "capacity": "2", "_source": "worldwide"}}, {"type": "node", "id": 10607828780, "lat": 51.405834, "lon": 6.873773, "tags": {"amenity": "charging_station", "access": "yes", "fee": "yes", "operator": "medl", "name": "Ladestation medl", "addr:country": "DE", "socket:type2": "1", "socket:type2:output": "22 kW", "charging_station:output": "22 kW", "capacity": "1", "_source": "worldwide"}}, {"type": "node", "id": 13516589106, "lat": 51.405447, "lon": 6.874501, "tags": {"amenity": "charging_station", "access": "yes", "fee": "yes", "addr:country": "DE", "capacity": "2", "_source": "worldwide"}}, {"type": "node", "id": 13664998663, "lat": 51.409579, "lon": 6.869404, "tags": {"amenity": "charging_station", "brand": "Ionity", "operator": "IONITY", "name": "IONITY - Ionity", "addr:country": "DE", "_source": "worldwide"}}, {"type": "node", "id": 1430502738, "lat": 51.405929, "lon": 6.870416, "tags": {"amenity": "charging_station", "addr:country": "DE", "capacity": "2", "_source": "worldwide"}}, {"type": "node", "id": 860025642, "lat": 51.946628, "lon": 6.70625, "tags": {"amenity": "charging_station", "addr:country": "DE", "_source": "worldwide"}}, {"type": "node", "id": 885207569, "lat": 51.424596, "lon": 6.863619, "tags": {"amenity": "charging_station", "brand": "RWE", "opening_hours": "24/7", "operator": "RWE-Effizienz", "name": "RWE-Effizienz - RWE", "addr:country": "DE", "socket:type2": "2", "socket:type2:output": "22.0 kW", "charging_station:output": "22.0 kW", "capacity": "2", "_source": "worldwide"}}, {"type": "node", "id": 1271476894, "lat": 51.157632, "lon": 6.448192, "tags": {"amenity": "charging_station", "operator": "NVV", "name": "Ladestation NVV", "addr:street": "Odenkirchener Straße 201", "addr:postcode": "41236", "addr:city": "Mönchengladbach", "addr:country": "DE", "_source": "worldwide"}}, {"type": "node", "id": 1454883795, "lat": 51.157004, "lon": 6.448931, "tags": {"amenity": "charging_station", "operator": "NEW", "name": "Ladestation NEW", "addr:country": "DE", "_source": "worldwide"}}, {"type": "node", "id": 1271476934, "lat": 51.003358, "lon": 6.424935, "tags": {"amenity": "charging_station", "operator": "EWV", "name": "Ladestation EWV", "addr:street": "Landstraße 4", "addr:postcode": "52445", "addr:city": "Titz", "addr:country": "DE", "capacity": "2", "_source": "worldwide"}}, {"type": "node", "id": 1271553590, "lat": 51.516197, "lon": 6.322608, "tags": {"amenity": "charging_station", "operator": "Stadtwerke Geldern", "name": "Ladestation Stadtwerke Geldern", "addr:street": "Markt 25", "addr:postcode": "47608", "addr:city": "Geldern", "addr:country": "DE", "capacity": "2", "_source": "worldwide"}}, {"type": "node", "id": 10246362103, "lat": 51.516408, "lon": 6.324263, "tags": {"amenity": "charging_station", "access": "yes", "operator": "Hotel Engels Ratskeller", "name": "E-Bike-Ladestation", "addr:country": "DE", "_source": "worldwide"}}, {"type": "node", "id": 10246362106, "lat": 51.518382, "lon": 6.323905, "tags": {"amenity": "charging_station", "access": "yes", "operator": "Sanitätshaus Kessels", "name": "E-Bike-Ladestation", "addr:country": "DE", "_source": "worldwide"}}, {"type": "node", "id": 10246362107, "lat": 51.519125, "lon": 6.326754, "tags": {"amenity": "charging_station", "access": "yes", "operator": "Spielwaren Laumann", "name": "E-Bike-Ladestation", "addr:country": "DE", "_source": "worldwide"}}, {"type": "node", "id": 11456249201, "lat": 51.517189, "lon": 6.321484, "tags": {"amenity": "charging_station", "operator": "Stadtwerke Geldern", "name": "Stadtwerke Geldern - Stadtwerke Geldern GmbH", "addr:country": "DE", "socket:type2": "2", "socket:type2:output": "22 kW", "charging_station:output": "22 kW", "capacity": "2", "_source": "worldwide"}}, {"type": "node", "id": 1271553600, "lat": 51.438677, "lon": 6.532694, "tags": {"amenity": "charging_station", "operator": "Enni / RWE", "name": "Ladestation Enni / RWE", "addr:country": "DE", "_source": "worldwide"}}, {"type": "node", "id": 1271553611, "lat": 51.498267, "lon": 6.835756, "tags": {"amenity": "charging_station", "operator": "ADAC", "name": "Ladestation ADAC", "addr:street": "Lessingstraße 2", "addr:postcode": "46149", "addr:city": "Oberhausen", "addr:country": "DE", "capacity": "2", "_source": "worldwide"}}, {"type": "node", "id": 11971942220, "lat": 51.49725, "lon": 6.84178, "tags": {"amenity": "charging_station", "access": "yes", "brand": "Mennekes", "operator": "EVO Energieversorgung Oberhausen", "name": "EVO Energieversorgung Oberhausen - Mennekes", "addr:country": "DE", "capacity": "22", "_source": "worldwide"}}, {"type": "node", "id": 1271553625, "lat": 51.327934, "lon": 6.533283, "tags": {"amenity": "charging_station", "operator": "SW Krefeld", "name": "Ladestation SW Krefeld", "addr:street": "Sankt Töniser Straße 270", "addr:postcode": "47804", "addr:city": "Krefeld", "addr:country": "DE", "capacity": "2", "_source": "worldwide"}}, {"type": "node", "id": 1271553645, "lat": 51.433083, "lon": 6.925304, "tags": {"amenity": "charging_station", "operator": "RWE-Effizienz", "name": "Ladestation RWE-Effizienz", "addr:country": "DE", "_source": "worldwide"}}, {"type": "node", "id": 1271553652, "lat": 51.426267, "lon": 6.881827, "tags": {"amenity": "charging_station", "operator": "RWE-Effizienz", "name": "Ladestation RWE-Effizienz", "addr:country": "DE", "capacity": "2", "_source": "worldwide"}}, {"type": "node", "id": 11408489816, "lat": 51.424997, "lon": 6.882042, "tags": {"amenity": "charging_station", "operator": "medl", "name": "Ladestation medl", "addr:country": "DE", "capacity": "2", "_source": "worldwide"}}, {"type": "node", "id": 1271553655, "lat": 51.450875, "lon": 6.859575, "tags": {"amenity": "charging_station", "operator": "RWE-Effizienz", "name": "Ladestation RWE-Effizienz", "addr:street": "Oberhausener Straße 172", "addr:postcode": "45476", "addr:city": "Mülheim an der Ruhr", "addr:country": "DE", "_source": "worldwide"}}, {"type": "node", "id": 1271553672, "lat": 51.42764, "lon": 6.981064, "tags": {"amenity": "charging_station", "fee": "yes", "brand": "Innogy", "operator": "innogy", "name": "Innogy", "addr:country": "DE", "socket:type2": "2", "socket:type2:output": "22 kW", "charging_station:output": "22 kW", "capacity": "2", "_source": "worldwide"}}, {"type": "node", "id": 1271553677, "lat": 51.43015, "lon": 6.882217, "tags": {"amenity": "charging_station", "operator": "RWE-Effizienz", "name": "Ladestation RWE-Effizienz", "addr:country": "DE", "_source": "worldwide"}}, {"type": "node", "id": 1271553749, "lat": 51.427661, "lon": 6.885229, "tags": {"amenity": "charging_station", "operator": "RWE-Effizienz", "name": "Ladestation RWE-Effizienz", "addr:country": "DE", "capacity": "2", "_source": "worldwide"}}, {"type": "node", "id": 1271553775, "lat": 51.428667, "lon": 6.887961, "tags": {"amenity": "charging_station", "operator": "RWE-Effizienz", "name": "Ladestation RWE-Effizienz", "addr:street": "Dickswall 12", "addr:postcode": "45468", "addr:city": "Mülheim an der Ruhr", "addr:country": "DE", "_source": "worldwide"}}, {"type": "node", "id": 1271553786, "lat": 51.430002, "lon": 6.887124, "tags": {"amenity": "charging_station", "operator": "RWE-Effizienz", "name": "Ladestation RWE-Effizienz", "addr:street": "Am Hauptbahnhof 2", "addr:postcode": "45468", "addr:city": "Mülheim an der Ruhr", "addr:country": "DE", "_source": "worldwide"}}, {"type": "node", "id": 5892959816, "lat": 51.429772, "lon": 6.877662, "tags": {"amenity": "charging_station", "access": "yes", "fee": "no", "brand": "Innogy", "operator": "Innogy", "name": "Innogy", "addr:country": "DE", "capacity": "3", "_source": "worldwide"}}, {"type": "node", "id": 1271553688, "lat": 51.446475, "lon": 6.994328, "tags": {"amenity": "charging_station", "opening_hours": "24/7", "operator": "ETEC", "name": "Ladestation ETEC", "addr:street": "Kruppstraße 94", "addr:postcode": "45145", "addr:city": "Essen", "addr:country": "DE", "socket:type2": "2", "socket:type2:output": "22 kW", "charging_station:output": "22 kW", "capacity": "2", "_source": "worldwide"}}, {"type": "node", "id": 10049045621, "lat": 51.444675, "lon": 6.996424, "tags": {"amenity": "charging_station", "operator": "qwello", "name": "Ladestation qwello", "addr:country": "DE", "capacity": "1", "_source": "worldwide"}}, {"type": "node", "id": 13031409638, "lat": 51.447848, "lon": 6.996436, "tags": {"amenity": "charging_station", "access": "private", "fee": "yes", "brand": "Comfort Charge", "operator": "Comfortcharge", "name": "Comfortcharge - Comfort Charge", "addr:country": "DE", "capacity": "6", "_source": "worldwide"}}, {"type": "node", "id": 1271553696, "lat": 51.393333, "lon": 6.875278, "tags": {"amenity": "charging_station", "operator": "PVS", "name": "Ladestation PVS", "addr:street": "Remscheider Straße 16", "addr:postcode": "45481", "addr:city": "Mülheim an der Ruhr", "addr:country": "DE", "_source": "worldwide"}}, {"type": "node", "id": 1271553709, "lat": 51.45022, "lon": 6.882837, "tags": {"amenity": "charging_station", "operator": "ADAC", "name": "RWE Autostrom", "addr:street": "Mellinghofer Straße 165", "addr:postcode": "45473", "addr:city": "Mülheim an der Ruhr", "addr:country": "DE", "capacity": "2", "_source": "worldwide"}}, {"type": "node", "id": 1271553714, "lat": 51.329108, "lon": 6.538839, "tags": {"amenity": "charging_station", "operator": "SW Krefeld", "name": "Ladestation SW Krefeld", "addr:street": "Sankt Töniser Straße 124", "addr:postcode": "47804", "addr:city": "Krefeld", "addr:country": "DE", "socket:type2": "4", "socket:type2:output": "22 kW", "charging_station:output": "22 kW", "capacity": "4", "_source": "worldwide"}}, {"type": "node", "id": 6354698681, "lat": 51.330266, "lon": 6.544318, "tags": {"amenity": "charging_station", "brand": "bike-energy", "operator": "bike-energy", "name": "bike-energy", "addr:street": "Sankt Töniser Straße 60", "addr:postcode": "47803", "addr:city": "Krefeld", "addr:country": "DE", "capacity": "2", "_source": "worldwide"}}, {"type": "node", "id": 1271553744, "lat": 51.471069, "lon": 6.860977, "tags": {"amenity": "charging_station", "operator": "EVO / RWE", "name": "Ladestation EVO / RWE", "addr:street": "Christian-Steger-Straße 65", "addr:postcode": "46045", "addr:city": "Oberhausen", "addr:country": "DE", "_source": "worldwide"}}, {"type": "node", "id": 11623578218, "lat": 51.473453, "lon": 6.860073, "tags": {"amenity": "charging_station", "access": "yes", "fee": "yes", "operator": "EVO", "name": "Ladestation EVO", "addr:country": "DE", "capacity": "2", "_source": "worldwide"}}, {"type": "node", "id": 11657089281, "lat": 51.473866, "lon": 6.866012, "tags": {"amenity": "charging_station", "operator": "Hochtief", "name": "Ladestation Hochtief", "addr:country": "DE", "capacity": "2", "_source": "worldwide"}}, {"type": "node", "id": 12059322158, "lat": 51.475443, "lon": 6.863627, "tags": {"amenity": "charging_station", "access": "yes", "fee": "yes", "operator": "Hochtief", "name": "Ladestation Hochtief", "addr:country": "DE", "capacity": "2", "_source": "worldwide"}}, {"type": "node", "id": 12579283672, "lat": 51.47631, "lon": 6.858867, "tags": {"amenity": "charging_station", "access": "yes", "fee": "yes", "operator": "Hochtief", "name": "Ladestation Hochtief", "addr:country": "DE", "capacity": "2", "_source": "worldwide"}}, {"type": "node", "id": 1271553755, "lat": 51.220003, "lon": 6.816114, "tags": {"amenity": "charging_station", "operator": "ADAC", "name": "Ladestation ADAC", "addr:country": "DE", "_source": "worldwide"}}, {"type": "node", "id": 2770710110, "lat": 51.220032, "lon": 6.818111, "tags": {"amenity": "charging_station", "brand": "Innogy", "operator": "Innogy", "name": "Innogy", "addr:country": "DE", "capacity": "2", "_source": "worldwide"}}, {"type": "node", "id": 5967424691, "lat": 51.221118, "lon": 6.822483, "tags": {"amenity": "charging_station", "operator": "Mennekes", "name": "Ladestation Mennekes", "addr:country": "DE", "capacity": "2", "_source": "worldwide"}}, {"type": "node", "id": 10221422774, "lat": 51.218734, "lon": 6.816333, "tags": {"amenity": "charging_station", "fee": "no", "opening_hours": "Mo-Sa 08:00-21:00;Su, PH off", "operator": "ALDI Süd", "name": "Ladestation ALDI Süd", "addr:country": "DE", "_source": "worldwide"}}, {"type": "node", "id": 12108214589, "lat": 51.222726, "lon": 6.812562, "tags": {"amenity": "charging_station", "access": "yes", "operator": "Stadtwerke Düsseldorf", "name": "Ladestation Stadtwerke Düsseldorf", "addr:country": "DE", "capacity": "2", "_source": "worldwide"}}, {"type": "node", "id": 12112562418, "lat": 51.221804, "lon": 6.820593, "tags": {"amenity": "charging_station", "operator": "Stadtwerke Düsseldorf", "name": "Ladestation Stadtwerke Düsseldorf", "addr:country": "DE", "capacity": "2", "_source": "worldwide"}}, {"type": "node", "id": 1271553768, "lat": 51.451164, "lon": 6.624589, "tags": {"amenity": "charging_station", "operator": "Enni / RWE", "name": "Ladestation Enni / RWE", "addr:street": "Meerstraße", "addr:postcode": "47441", "addr:city": "Moers", "addr:country": "DE", "capacity": "2", "_source": "worldwide"}}, {"type": "node", "id": 6484130625, "lat": 51.454302, "lon": 6.624422, "tags": {"amenity": "charging_station", "operator": "Enni", "name": "Ladestation Enni", "addr:country": "DE", "capacity": "2", "_source": "worldwide"}}, {"type": "node", "id": 1271553792, "lat": 51.205046, "lon": 6.68911, "tags": {"amenity": "charging_station", "operator": "westenergie", "name": "Ladestation westenergie", "addr:country": "DE", "capacity": "2", "_source": "worldwide"}}, {"type": "node", "id": 12073982592, "lat": 51.203913, "lon": 6.686158, "tags": {"amenity": "charging_station", "fee": "yes", "operator": "Stadtwerke Neuss", "name": "Ladestation Stadtwerke Neuss", "addr:country": "DE", "socket:type2": "2", "socket:type2:output": "22 kW", "charging_station:output": "22 kW", "capacity": "2", "_source": "worldwide"}}, {"type": "node", "id": 1271567489, "lat": 51.573055, "lon": 6.987884, "tags": {"amenity": "charging_station", "fee": "yes", "brand": "Innogy", "opening_hours": "24/7", "operator": "Emscher Lippe Energie", "name": "Emscher Lippe Energie - Innogy", "addr:country": "DE", "socket:type2": "2", "socket:type2:output": "22.0 kW", "charging_station:output": "22.0 kW", "capacity": "2", "authentication:none": "", "_source": "worldwide"}}, {"type": "node", "id": 9463412996, "lat": 51.571242, "lon": 6.994891, "tags": {"amenity": "charging_station", "fee": "yes", "brand": "Innogy", "opening_hours": "24/7", "operator": "Emscher Lippe Energie", "name": "Emscher Lippe Energie - Innogy", "addr:country": "DE", "socket:type2": "2", "socket:type2:output": "22.0 kW", "charging_station:output": "22.0 kW", "capacity": "2", "authentication:none": "", "_source": "worldwide"}}, {"type": "node", "id": 9463444588, "lat": 51.571662, "lon": 6.988525, "tags": {"amenity": "charging_station", "fee": "yes", "brand": "Innogy", "opening_hours": "24/7", "operator": "Emscher Lippe Energie", "name": "Emscher Lippe Energie - Innogy", "addr:country": "DE", "socket:type2": "2", "socket:type2:output": "22.0 kW", "charging_station:output": "22.0 kW", "capacity": "2", "authentication:none": "", "_source": "worldwide"}}, {"type": "node", "id": 10140284952, "lat": 51.574987, "lon": 6.992848, "tags": {"amenity": "charging_station", "fee": "yes", "brand": "Innogy", "network": "innogy", "opening_hours": "24/7", "operator": "Emscher Lippe Energie", "name": "Emscher Lippe Energie - Innogy", "addr:country": "DE", "socket:type2": "1", "socket:type2:output": "22.0 kW", "socket:type2_combo": "1", "socket:type2_combo:output": "50.0 kW", "socket:chademo": "1", "socket:chademo:output": "50.0 kW", "charging_station:output": "50.0 kW", "capacity": "2", "authentication:none": "", "_source": "worldwide"}}, {"type": "node", "id": 1286713393, "lat": 51.181641, "lon": 6.678634, "tags": {"amenity": "charging_station", "brand": "Stadtwerke Neuss", "operator": "Stadtwerke Neuss", "name": "Stadtwerke Neuss - Stadtwerke Neuss", "addr:country": "DE", "capacity": "2", "_source": "worldwide"}}, {"type": "node", "id": 8361537667, "lat": 51.184062, "lon": 6.67803, "tags": {"amenity": "charging_station", "operator": "Stadtwerke Neuss Energie und Wasser", "name": "Stadtwerke Neuss Energie und Wasser - Stadtwerke Neuss Energie und Wasser GmbH", "addr:street": "Jülicher Landstraße", "_source": "worldwide"}}, {"type": "node", "id": 8361537668, "lat": 51.183559, "lon": 6.678592, "tags": {"amenity": "charging_station", "fee": "yes", "network": "EnBW", "opening_hours": "24/7", "operator": "EnBW", "name": "Ladestation EnBW", "addr:country": "DE", "socket:type2_combo": "2", "socket:type2_combo:output": "250.0 kW", "socket:chademo": "1", "socket:chademo:output": "50.0 kW", "charging_station:output": "250.0 kW", "capacity": "2", "authentication:none": "yes", "_source": "worldwide"}}, {"type": "node", "id": 8392058353, "lat": 51.180265, "lon": 6.6772, "tags": {"amenity": "charging_station", "operator": "Stadtwerke Neuss Energie und Wasser", "name": "Auto Ladestation", "addr:country": "DE", "_source": "worldwide"}}, {"type": "node", "id": 1353584965, "lat": 51.152999, "lon": 6.887458, "tags": {"amenity": "charging_station", "operator": "Stadtwerke Düsseldorf", "name": "Ladestation Stadtwerke Düsseldorf", "addr:country": "DE", "capacity": "2", "_source": "worldwide"}}, {"type": "node", "id": 1565805035, "lat": 51.996188, "lon": 6.84577, "tags": {"amenity": "charging_station", "addr:country": "DE", "_source": "worldwide"}}, {"type": "node", "id": 1565805110, "lat": 51.994482, "lon": 6.915749, "tags": {"amenity": "charging_station", "addr:country": "DE", "_source": "worldwide"}}, {"type": "node", "id": 9355316806, "lat": 51.992842, "lon": 6.916362, "tags": {"amenity": "charging_station", "operator": "LokalWerke Westmünsterland", "name": "Ladestation Rezepterstraße", "addr:country": "DE", "_source": "worldwide"}}, {"type": "node", "id": 12832277029, "lat": 51.996727, "lon": 6.914866, "tags": {"amenity": "charging_station", "access": "yes", "fee": "yes", "network": "elli", "opening_hours": "24/7", "operator": "Knubel", "name": "Knubel - elli", "addr:country": "DE", "socket:type2": "1", "socket:type2:output": "11.0 kW", "charging_station:output": "11.0 kW", "capacity": "2", "authentication:none": "yes", "_source": "worldwide"}}, {"type": "node", "id": 1599132653, "lat": 51.241482, "lon": 6.794945, "tags": {"amenity": "charging_station", "fee": "yes", "opening_hours": "24/7", "operator": "Stadtwerke Düsseldorf", "name": "Ladestation Stadtwerke Düsseldorf", "addr:country": "DE", "socket:type2": "2", "socket:type2:output": "22.0 kW", "socket:schuko": "2", "socket:schuko:output": "2.3 kW", "charging_station:output": "22.0 kW", "capacity": "2", "_source": "worldwide"}}, {"type": "node", "id": 11594866221, "lat": 51.242654, "lon": 6.789795, "tags": {"amenity": "charging_station", "access": "yes", "operator": "Stadtwerke Düsseldorf", "name": "Ladestation Stadtwerke Düsseldorf", "addr:country": "DE", "capacity": "2", "_source": "worldwide"}}, {"type": "node", "id": 12031582419, "lat": 51.242979, "lon": 6.794811, "tags": {"amenity": "charging_station", "operator": "Stadtwerke Düsseldorf", "name": "Ladestation Stadtwerke Düsseldorf", "addr:country": "DE", "capacity": "2", "_source": "worldwide"}}, {"type": "node", "id": 13088866377, "lat": 51.240383, "lon": 6.799541, "tags": {"amenity": "charging_station", "operator": "Stadtwerke Düsseldorf", "name": "Ladestation Stadtwerke Düsseldorf", "addr:country": "DE", "capacity": "4", "_source": "worldwide"}}, {"type": "node", "id": 1601578705, "lat": 51.167285, "lon": 6.933623, "tags": {"amenity": "charging_station", "operator": "Stadtwerke Hilden", "name": "Ladestation Stadtwerke Hilden", "addr:country": "DE", "capacity": "2", "_source": "worldwide"}}, {"type": "node", "id": 1712787145, "lat": 51.790296, "lon": 6.138307, "tags": {"amenity": "charging_station", "fee": "yes", "opening_hours": "24/7", "operator": "Stadtwerke Kleve", "name": "Stadtwerke Kleve - Stadtwerke Kleve GmbH", "addr:country": "DE", "socket:type2": "1", "socket:type2:output": "22 kW", "socket:type2_combo": "1", "socket:type2_combo:output": "50 kW", "socket:chademo": "1", "socket:chademo:output": "50 kW", "charging_station:output": "50 kW", "capacity": "2", "authentication:none": "yes", "_source": "worldwide"}}, {"type": "node", "id": 2943226814, "lat": 51.79457, "lon": 6.1397, "tags": {"amenity": "charging_station", "fee": "no", "opening_hours": "Mo-Fr 08:00-18:00; Sa 08:00-15:00", "operator": "Stadtwerke Kleve", "name": "Solar-Tankstelle", "addr:country": "DE", "socket:type2": "2", "socket:type2:output": "22 kW", "socket:schuko": "2", "socket:schuko:output": "2.3 kW", "charging_station:output": "22 kW", "capacity": "2", "_source": "worldwide"}}, {"type": "node", "id": 13148686089, "lat": 51.792918, "lon": 6.139738, "tags": {"amenity": "charging_station", "operator": "Edeka", "name": "Ladestation Edeka", "addr:country": "DE", "capacity": "4", "_source": "worldwide"}}, {"type": "node", "id": 1756990607, "lat": 51.865348, "lon": 6.054397, "tags": {"amenity": "charging_station", "addr:country": "DE", "_source": "worldwide"}}, {"type": "node", "id": 1777264494, "lat": 51.181052, "lon": 6.854815, "tags": {"amenity": "charging_station", "operator": "Blum", "name": "Ladestation Blum", "addr:country": "DE", "_source": "worldwide"}}, {"type": "node", "id": 1907075967, "lat": 51.363334, "lon": 6.470858, "tags": {"amenity": "charging_station", "name": "Haus Bellen", "addr:country": "DE", "_source": "worldwide"}}, {"type": "node", "id": 7177538685, "lat": 51.123692, "lon": 6.851144, "tags": {"amenity": "charging_station", "fee": "yes", "network": "TankE", "opening_hours": "24/7", "operator": "evd energieversorgung dormagen", "name": "evd energieversorgung dormagen - TankE", "addr:country": "DE", "socket:type2": "2", "socket:type2:output": "22.0 kW", "socket:schuko": "2", "socket:schuko:output": "2.3 kW", "charging_station:output": "22.0 kW", "capacity": "2", "authentication:none": "", "_source": "worldwide"}}, {"type": "node", "id": 12117252293, "lat": 51.124294, "lon": 6.845572, "tags": {"amenity": "charging_station", "fee": "yes", "network": "EnBW", "opening_hours": "24/7", "operator": "EnBW", "name": "Ladestation EnBW", "addr:country": "DE", "socket:type2": "1", "socket:type2:output": "22.0 kW", "socket:type2_combo": "2", "socket:type2_combo:output": "150.0 kW", "charging_station:output": "150.0 kW", "capacity": "2", "authentication:none": "yes", "_source": "worldwide"}}, {"type": "node", "id": 12995526067, "lat": 51.120507, "lon": 6.851676, "tags": {"amenity": "charging_station", "addr:country": "DE", "_source": "worldwide"}}, {"type": "node", "id": 12995526068, "lat": 51.123083, "lon": 6.850774, "tags": {"amenity": "charging_station", "addr:country": "DE", "_source": "worldwide"}}, {"type": "node", "id": 1935850464, "lat": 51.662179, "lon": 6.585737, "tags": {"amenity": "charging_station", "fee": "yes", "opening_hours": "24/7", "operator": "RTGW", "name": "Ladestation RTGW", "addr:country": "DE", "socket:schuko": "6", "socket:schuko:output": "2.3 kW", "charging_station:output": "2.3 kW", "_source": "worldwide"}}, {"type": "node", "id": 1944734245, "lat": 51.462674, "lon": 6.961954, "tags": {"amenity": "charging_station", "fee": "yes", "brand": "Innogy", "opening_hours": "24/7", "operator": "Innogy", "name": "Innogy", "addr:street": "Wüstenhöferstraße 1", "addr:postcode": "45355", "addr:city": "Essen", "addr:country": "DE", "socket:type2": "2", "socket:type2:output": "22 kW", "charging_station:output": "22 kW", "capacity": "2", "_source": "worldwide"}}, {"type": "node", "id": 11691368014, "lat": 51.462166, "lon": 6.958098, "tags": {"amenity": "charging_station", "fee": "yes", "opening_hours": "24/7", "operator": "On Charge (OC);Wirelane", "name": "Ladestation On Charge (OC);Wirelane", "addr:country": "DE", "socket:type2": "2", "socket:type2:output": "22 kW", "charging_station:output": "22 kW", "capacity": "2", "_source": "worldwide"}}, {"type": "node", "id": 1955230531, "lat": 51.201578, "lon": 6.719424, "tags": {"amenity": "charging_station", "name": "E-Bike Ladestation", "addr:country": "DE", "_source": "worldwide"}}, {"type": "node", "id": 1472341016, "lat": 51.200924, "lon": 6.713843, "tags": {"amenity": "charging_station", "access": "yes", "fee": "yes", "brand": "Tesla Supercharger", "opening_hours": "24/7", "operator": "Tesla", "name": "Tesla Supercharger", "addr:country": "DE", "socket:type2_combo": "12", "socket:type2_combo:output": "250.0 kW", "charging_station:output": "250.0 kW", "capacity": "12", "_source": "worldwide"}}, {"type": "node", "id": 1972107553, "lat": 51.236913, "lon": 6.825781, "tags": {"amenity": "charging_station", "brand": "Innogy", "operator": "Innogy", "name": "Innogy", "addr:country": "DE", "_source": "worldwide"}}, {"type": "node", "id": 11832683874, "lat": 51.239629, "lon": 6.823742, "tags": {"amenity": "charging_station", "operator": "Stadtwerke Düsseldorf", "name": "Ladestation Stadtwerke Düsseldorf", "addr:country": "DE", "capacity": "2", "_source": "worldwide"}}, {"type": "node", "id": 2015100663, "lat": 51.256682, "lon": 6.750945, "tags": {"amenity": "charging_station", "fee": "no", "operator": "Stadtwerke Düsseldorf", "name": "Ladestation Stadtwerke Düsseldorf", "addr:country": "DE", "socket:schuko": "4", "socket:schuko:output": "2.3 kW", "charging_station:output": "2.3 kW", "capacity": "4", "_source": "worldwide"}}, {"type": "node", "id": 2214668966, "lat": 51.093097, "lon": 6.820049, "tags": {"amenity": "charging_station", "fee": "yes", "network": "TankE", "opening_hours": "24/7", "operator": "evd energieversorgung dormagen", "name": "evd energieversorgung dormagen - TankE", "addr:country": "DE", "socket:type2": "2", "socket:type2:output": "22.0 kW", "socket:schuko": "2", "socket:schuko:output": "2.3 kW", "charging_station:output": "22.0 kW", "capacity": "2", "authentication:none": "", "_source": "worldwide"}}, {"type": "node", "id": 8859261186, "lat": 51.094069, "lon": 6.812992, "tags": {"amenity": "charging_station", "fee": "yes", "network": "TankE", "opening_hours": "24/7", "operator": "evd energieversorgung dormagen", "name": "evd energieversorgung dormagen - TankE", "addr:country": "DE", "socket:type2_combo": "1", "socket:type2_combo:output": "50.0 kW", "socket:chademo": "1", "socket:chademo:output": "50.0 kW", "charging_station:output": "50.0 kW", "capacity": "2", "authentication:none": "", "_source": "worldwide"}}, {"type": "node", "id": 9330310228, "lat": 51.094776, "lon": 6.816256, "tags": {"amenity": "charging_station", "fee": "yes", "network": "ALDI SÜD", "opening_hours": "Mo-Su 06:00-22:00", "operator": "Aldi", "name": "Aldi - ALDI SÜD", "addr:country": "DE", "socket:type2": "1", "socket:type2:output": "22 kW", "socket:type2_combo": "2", "socket:type2_combo:output": "100.0 kW", "charging_station:output": "100.0 kW", "capacity": "2", "authentication:none": "yes", "_source": "worldwide"}}, {"type": "node", "id": 12092011448, "lat": 51.093171, "lon": 6.813575, "tags": {"amenity": "charging_station", "access": "yes", "fee": "yes", "network": "EWE", "opening_hours": "24/7", "operator": "EWE Go", "name": "EWE Go - EWE", "addr:country": "DE", "socket:type2_combo": "2", "socket:type2_combo:output": "300.0 kW", "charging_station:output": "300.0 kW", "capacity": "2", "authentication:none": "", "_source": "worldwide"}}, {"type": "node", "id": 2311695329, "lat": 51.6269, "lon": 6.585323, "tags": {"amenity": "charging_station", "addr:country": "DE", "socket:schuko": "3", "socket:schuko:output": "2.3 kW", "charging_station:output": "2.3 kW", "_source": "worldwide"}}, {"type": "node", "id": 11872517568, "lat": 51.629667, "lon": 6.581674, "tags": {"amenity": "charging_station", "fee": "yes", "operator": "Stadtwerke Wesel", "name": "Ladestation Stadtwerke Wesel", "addr:country": "DE", "socket:type2": "2", "socket:type2:output": "22 kW", "charging_station:output": "22 kW", "capacity": "2", "_source": "worldwide"}}, {"type": "node", "id": 11872553770, "lat": 51.629089, "lon": 6.580942, "tags": {"amenity": "charging_station", "fee": "yes", "addr:country": "DE", "socket:type2": "2", "socket:type2:output": "22 kW", "charging_station:output": "22 kW", "capacity": "2", "_source": "worldwide"}}, {"type": "node", "id": 2348894156, "lat": 51.83456, "lon": 6.461787, "tags": {"amenity": "charging_station", "access": "yes", "fee": "no", "opening_hours": "24/7", "operator": "Bocholter Energie- und Wasserversorgung", "name": "Ladestation Bocholter Energie- und Wasserversorgung", "addr:country": "DE", "socket:schuko": "1", "socket:schuko:output": "2.3 kW", "charging_station:output": "2.3 kW", "capacity": "1", "_source": "worldwide"}}, {"type": "node", "id": 4429371556, "lat": 51.834139, "lon": 6.464135, "tags": {"amenity": "charging_station", "operator": "RWE", "name": "Ladestation RWE", "addr:country": "DE", "socket:schuko": "2", "socket:schuko:output": "2.3 kW", "charging_station:output": "2.3 kW", "_source": "worldwide"}}, {"type": "node", "id": 2348914407, "lat": 51.84663, "lon": 6.427524, "tags": {"amenity": "charging_station", "addr:country": "DE", "_source": "worldwide"}}, {"type": "node", "id": 6981723554, "lat": 51.847582, "lon": 6.42916, "tags": {"amenity": "charging_station", "fee": "yes", "opening_hours": "24/7", "operator": "innogy", "name": "innogy - innogy SE", "addr:country": "DE", "socket:type2": "2", "socket:type2:output": "22.0 kW", "charging_station:output": "22.0 kW", "capacity": "2", "authentication:none": "yes", "_source": "worldwide"}}, {"type": "node", "id": 12686996676, "lat": 51.849948, "lon": 6.435548, "tags": {"amenity": "charging_station", "fee": "yes", "opening_hours": "24/7", "operator": "Westenergie Metering", "name": "Westenergie Metering - Westenergie Metering GmbH", "addr:country": "DE", "socket:type2": "2", "socket:type2:output": "22.0 kW", "charging_station:output": "22.0 kW", "capacity": "2", "authentication:none": "yes", "_source": "worldwide"}}, {"type": "node", "id": 2378206357, "lat": 51.814704, "lon": 6.452853, "tags": {"amenity": "charging_station", "name": "E-Bike Ladestation", "addr:country": "DE", "_source": "worldwide"}}, {"type": "node", "id": 2429962988, "lat": 51.829914, "lon": 6.241098, "tags": {"amenity": "charging_station", "access": "yes", "fee": "no", "operator": "Wirtschaftsförderungs- und Stadtmarketing Gesellschaft Emmerich am Rhein mbH", "name": "Ladestation Wirtschaftsförderungs- und Stadtmarketing Gesellschaft Emmerich am Rhein mbH", "addr:country": "DE", "socket:schuko": "8", "socket:schuko:output": "2.3 kW", "charging_station:output": "2.3 kW", "capacity": "4", "authentication:none": "yes", "_source": "worldwide"}}, {"type": "node", "id": 4379469161, "lat": 51.831744, "lon": 6.246958, "tags": {"amenity": "charging_station", "fee": "no", "opening_hours": "24/7", "operator": "Stadtwerke Emmerich", "name": "Emmerich Raiffeisenplatz", "addr:country": "DE", "socket:type2": "2", "socket:type2:output": "22 kW", "socket:schuko": "2", "socket:schuko:output": "2.3 kW", "charging_station:output": "22 kW", "capacity": "2", "_source": "worldwide"}}, {"type": "node", "id": 2451762098, "lat": 51.836277, "lon": 6.248058, "tags": {"amenity": "charging_station", "operator": "Stadtwerke Emmerich", "name": "Ladestation Stadtwerke Emmerich", "addr:country": "DE", "_source": "worldwide"}}, {"type": "node", "id": 1377196881, "lat": 51.83584, "lon": 6.248356, "tags": {"amenity": "charging_station", "operator": "Stadtwerke Emmerich", "name": "Ladestation Stadtwerke Emmerich", "addr:country": "DE", "capacity": "4", "_source": "worldwide"}}, {"type": "node", "id": 2476861271, "lat": 51.311333, "lon": 6.252747, "tags": {"amenity": "charging_station", "operator": "Stadtwerke Nettetal", "name": "Ladestation E-Bike", "addr:country": "DE", "_source": "worldwide"}}, {"type": "node", "id": 2497613612, "lat": 51.483109, "lon": 6.537835, "tags": {"amenity": "charging_station", "addr:country": "DE", "_source": "worldwide"}}, {"type": "node", "id": 2516759250, "lat": 51.235406, "lon": 6.774462, "tags": {"amenity": "charging_station", "operator": "E.ON", "name": "Ladestation E.ON", "addr:country": "DE", "socket:type2": "1", "socket:type2:output": "22 kW", "socket:schuko": "1", "socket:schuko:output": "2.3 kW", "charging_station:output": "22 kW", "capacity": "2", "_source": "worldwide"}}, {"type": "node", "id": 2525603571, "lat": 51.493842, "lon": 6.37715, "tags": {"amenity": "charging_station", "access": "yes", "operator": "Restaurant \"Zur Dorfschmiede\"", "name": "E-Bike-Ladestation", "addr:country": "DE", "socket:schuko": "4", "socket:schuko:output": "2.3 kW", "charging_station:output": "2.3 kW", "authentication:none": "yes", "_source": "worldwide"}}, {"type": "node", "id": 12070984354, "lat": 51.497992, "lon": 6.37514, "tags": {"amenity": "charging_station", "operator": "Stadtwerke Geldern", "name": "Ladestation Stadtwerke Geldern", "addr:country": "DE", "capacity": "2", "_source": "worldwide"}}, {"type": "node", "id": 2562504749, "lat": 51.361892, "lon": 6.417771, "tags": {"amenity": "charging_station", "fee": "no", "name": "Solar E-Rad-Tankstelle", "addr:country": "DE", "socket:schuko": "4", "socket:schuko:output": "2.3 kW", "charging_station:output": "2.3 kW", "capacity": "4", "_source": "worldwide"}}, {"type": "node", "id": 6210539491, "lat": 51.366208, "lon": 6.421688, "tags": {"amenity": "charging_station", "access": "yes", "fee": "yes", "brand": "Stadtwerke Kempen", "opening_hours": "24/7", "operator": "Stadtwerke Kempen", "name": "Stadtwerke Kempen - Stadtwerke Kempen", "addr:country": "DE", "socket:type2": "2", "socket:type2:output": "22.0 kW", "charging_station:output": "22.0 kW", "capacity": "2", "_source": "worldwide"}}, {"type": "node", "id": 6210539493, "lat": 51.364893, "lon": 6.423803, "tags": {"amenity": "charging_station", "operator": "Stadtwerke Kempen", "name": "Ladestation Stadtwerke Kempen", "addr:country": "DE", "capacity": "2", "_source": "worldwide"}}, {"type": "node", "id": 12128376119, "lat": 51.364684, "lon": 6.418653, "tags": {"amenity": "charging_station", "access": "yes", "fee": "no", "brand": "E-Bike-Ladestation", "operator": "Stadt Kempen", "name": "Stadt Kempen - E-Bike-Ladestation", "addr:country": "DE", "socket:schuko": "4", "socket:schuko:output": "2.3 kW", "charging_station:output": "2.3 kW", "capacity": "4", "_source": "worldwide"}}, {"type": "node", "id": 2602102274, "lat": 51.757691, "lon": 6.396437, "tags": {"amenity": "charging_station", "access": "yes", "fee": "no", "brand": "E-BIKES ON TOUR", "opening_hours": "24/7", "operator": "RWE", "name": "E-Bike-Ladestation", "addr:country": "DE", "socket:schuko": "2", "socket:schuko:output": "2.3 kW", "charging_station:output": "2.3 kW", "capacity": "2", "authentication:none": "yes", "_source": "worldwide"}}, {"type": "node", "id": 4379469165, "lat": 51.757607, "lon": 6.397155, "tags": {"amenity": "charging_station", "fee": "yes", "opening_hours": "24/7", "operator": "RWE-Effizienz", "name": "Rees Rathaus", "addr:country": "DE", "socket:type2": "2", "socket:type2:output": "22 kW", "charging_station:output": "22 kW", "capacity": "2", "_source": "worldwide"}}, {"type": "node", "id": 6044343128, "lat": 51.759872, "lon": 6.400982, "tags": {"amenity": "charging_station", "fee": "yes", "opening_hours": "24/7", "operator": "innogy", "name": "innogy - innogy SE", "addr:country": "DE", "capacity": "2", "_source": "worldwide"}}, {"type": "node", "id": 12481600285, "lat": 51.759468, "lon": 6.39573, "tags": {"amenity": "charging_station", "addr:country": "DE", "socket:schuko": "3", "socket:schuko:output": "2.3 kW", "charging_station:output": "2.3 kW", "capacity": "3", "_source": "worldwide"}}, {"type": "node", "id": 2604616867, "lat": 51.831802, "lon": 6.238125, "tags": {"amenity": "charging_station", "fee": "no", "opening_hours": "24/7", "operator": "Stadtwerke Emmerich", "name": "Emmerich Geistmarkt", "addr:country": "DE", "socket:type2": "2", "socket:type2:output": "22 kW", "socket:schuko": "2", "socket:schuko:output": "2.3 kW", "charging_station:output": "22 kW", "capacity": "2", "_source": "worldwide"}}, {"type": "node", "id": 12167387498, "lat": 51.833402, "lon": 6.233991, "tags": {"amenity": "charging_station", "operator": "KLK Oleo", "name": "Ladestation KLK Oleo", "addr:country": "DE", "capacity": "4", "_source": "worldwide"}}, {"type": "node", "id": 2604740516, "lat": 51.790366, "lon": 6.005467, "tags": {"amenity": "charging_station", "access": "yes", "fee": "no", "operator": "Gemeinde Kranenburg", "name": "E-Bike-Ladestation", "addr:country": "DE", "socket:schuko": "2", "socket:schuko:output": "2.3 kW", "charging_station:output": "2.3 kW", "authentication:none": "yes", "_source": "worldwide"}}, {"type": "node", "id": 2626496424, "lat": 51.326712, "lon": 6.968779, "tags": {"amenity": "charging_station", "brand": "Innogy", "operator": "innogy", "name": "innogy - Innogy", "addr:country": "DE", "socket:type2": "2", "socket:type2:output": "22.0 kW", "charging_station:output": "22.0 kW", "capacity": "2", "_source": "worldwide"}}, {"type": "node", "id": 5338010812, "lat": 51.3277, "lon": 6.967488, "tags": {"amenity": "charging_station", "access": "private", "fee": "no", "opening_hours": "24/7", "addr:country": "DE", "socket:type2": "2", "socket:type2:output": "22 kW", "charging_station:output": "22 kW", "capacity": "2", "_source": "worldwide"}}, {"type": "node", "id": 9437939838, "lat": 51.32623, "lon": 6.966508, "tags": {"amenity": "charging_station", "access": "yes", "addr:country": "DE", "capacity": "2", "_source": "worldwide"}}, {"type": "node", "id": 2638860952, "lat": 51.763272, "lon": 6.827861, "tags": {"amenity": "charging_station", "addr:country": "DE", "socket:schuko": "2", "socket:schuko:output": "2.3 kW", "charging_station:output": "2.3 kW", "capacity": "2", "authentication:none": "yes", "_source": "worldwide"}}, {"type": "node", "id": 9159162196, "lat": 51.762438, "lon": 6.828205, "tags": {"amenity": "charging_station", "fee": "yes", "operator": "AC innogy eMobility Solutions", "name": "AC innogy eMobility Solutions - AC innogy eMobility Solutions GmbH", "addr:country": "DE", "socket:type2": "2", "socket:type2:output": "22.0 kW", "charging_station:output": "22.0 kW", "capacity": "2", "authentication:none": "yes", "_source": "worldwide"}}, {"type": "node", "id": 12675591579, "lat": 51.766944, "lon": 6.830804, "tags": {"amenity": "charging_station", "fee": "yes", "operator": "Wachtmeister Naturparkhotel Raesfeld", "name": "Wachtmeister Naturparkhotel Raesfeld - Wachtmeister Naturparkhotel Raesfeld GmbH & Co. KG", "addr:country": "DE", "socket:type2": "2", "socket:type2:output": "22.0 kW", "charging_station:output": "22.0 kW", "capacity": "2", "authentication:none": "yes", "_source": "worldwide"}}, {"type": "node", "id": 2638860956, "lat": 51.780111, "lon": 6.82892, "tags": {"amenity": "charging_station", "operator": "Vennekenhof", "name": "Ladestation Vennekenhof", "addr:country": "DE", "socket:schuko": "6", "socket:schuko:output": "2.3 kW", "charging_station:output": "2.3 kW", "authentication:none": "yes", "_source": "worldwide"}}, {"type": "node", "id": 2686606995, "lat": 51.628057, "lon": 6.997028, "tags": {"amenity": "charging_station", "brand": "Innogy", "operator": "RWE", "name": "e-Bike Ladestation", "addr:country": "DE", "capacity": "3", "_source": "worldwide"}}, {"type": "node", "id": 2686609264, "lat": 51.665697, "lon": 6.966982, "tags": {"amenity": "charging_station", "operator": "RWE", "name": "e-Bike Ladestation", "addr:country": "DE", "_source": "worldwide"}}, {"type": "node", "id": 7902217576, "lat": 51.663675, "lon": 6.968242, "tags": {"amenity": "charging_station", "fee": "yes", "brand": "Innogy", "opening_hours": "24/7", "operator": "Westenergie Metering", "name": "Westenergie Metering - Innogy", "addr:country": "DE", "socket:type2": "2", "socket:type2:output": "22.0 kW", "charging_station:output": "22.0 kW", "capacity": "2", "authentication:none": "", "_source": "worldwide"}}, {"type": "node", "id": 2828417520, "lat": 51.515774, "lon": 6.851205, "tags": {"amenity": "charging_station", "operator": "EVO", "name": "Ladestation EVO", "addr:country": "DE", "_source": "worldwide"}}, {"type": "node", "id": 13056416651, "lat": 51.519176, "lon": 6.851124, "tags": {"amenity": "charging_station", "access": "yes", "fee": "yes", "operator": "EVO", "name": "Ladestation EVO", "addr:country": "DE", "capacity": "2", "_source": "worldwide"}}, {"type": "node", "id": 2832196956, "lat": 51.729541, "lon": 6.47724, "tags": {"amenity": "charging_station", "access": "yes", "operator": "Gasthof \"Zum Hirsch\"", "name": "E-Bike-Ladestation", "addr:country": "DE", "socket:schuko": "2", "socket:schuko:output": "2.3 kW", "charging_station:output": "2.3 kW", "_source": "worldwide"}}, {"type": "node", "id": 2834378818, "lat": 51.757846, "lon": 6.392508, "tags": {"amenity": "charging_station", "access": "yes", "operator": "Hotel Rheinpark", "name": "E-Bike-Ladestation", "addr:country": "DE", "socket:schuko": "2", "socket:schuko:output": "2.3 kW", "charging_station:output": "2.3 kW", "_source": "worldwide"}}, {"type": "node", "id": 2843686737, "lat": 51.730266, "lon": 6.588908, "tags": {"amenity": "charging_station", "addr:country": "DE", "socket:schuko": "2", "socket:schuko:output": "2.3 kW", "charging_station:output": "2.3 kW", "_source": "worldwide"}}, {"type": "node", "id": 2845545782, "lat": 51.510833, "lon": 6.967041, "tags": {"amenity": "charging_station", "operator": "Emscher Lippe Energie", "name": "Charging Station ELE", "addr:country": "DE", "capacity": "2", "wheelchair": "yes", "_source": "worldwide"}}, {"type": "node", "id": 2866892531, "lat": 51.788605, "lon": 6.065848, "tags": {"amenity": "charging_station", "access": "yes", "fee": "no", "operator": "Gemeinde Kranenburg", "name": "E-Bike-Ladestation", "addr:country": "DE", "socket:schuko": "3", "socket:schuko:output": "2.3 kW", "charging_station:output": "2.3 kW", "_source": "worldwide"}}, {"type": "node", "id": 2871051873, "lat": 51.940616, "lon": 6.081812, "tags": {"amenity": "charging_station", "access": "yes", "fee": "yes", "brand": "Tesla Supercharger", "opening_hours": "24/7", "operator": "Tesla", "name": "Zevenaar Supercharger", "addr:street": "Doesburgseweg 43", "addr:postcode": "6902PL", "addr:city": "Zevenaar", "addr:country": "NL", "socket:type2_combo": "8", "socket:type2_combo:output": "150.0 kW", "socket:tesla_supercharger": "8", "socket:tesla_supercharger:output": "150.0 kW", "charging_station:output": "150.0 kW", "capacity": "3", "_source": "worldwide"}}, {"type": "node", "id": 1472991709, "lat": 51.938295, "lon": 6.086398, "tags": {"amenity": "charging_station", "access": "yes", "fee": "yes", "operator": "Shell Recharge", "name": "Shell Recharge - Shell Recharge Solutions", "addr:country": "DE", "socket:type2_combo": "4", "socket:type2_combo:output": "175.0 kW", "socket:chademo": "4", "socket:chademo:output": "70.0 kW", "charging_station:output": "175.0 kW", "capacity": "4", "_source": "worldwide"}}, {"type": "node", "id": 2878863113, "lat": 51.093599, "lon": 6.841132, "tags": {"amenity": "charging_station", "fee": "no", "operator": "evd energieversorgung dormagen", "name": "Ladestation evd energieversorgung dormagen", "addr:country": "DE", "socket:schuko": "8", "socket:schuko:output": "2.3 kW", "charging_station:output": "2.3 kW", "authentication:none": "yes", "_source": "worldwide"}}, {"type": "node", "id": 8996597398, "lat": 51.093638, "lon": 6.844036, "tags": {"amenity": "charging_station", "fee": "yes", "network": "TankE", "opening_hours": "24/7", "operator": "evd energieversorgung dormagen", "name": "evd energieversorgung dormagen - TankE", "addr:country": "DE", "socket:type2_combo": "1", "socket:type2_combo:output": "50.0 kW", "socket:chademo": "1", "socket:chademo:output": "50.0 kW", "charging_station:output": "50.0 kW", "capacity": "2", "authentication:none": "", "_source": "worldwide"}}, {"type": "node", "id": 9008582905, "lat": 51.093296, "lon": 6.83587, "tags": {"amenity": "charging_station", "fee": "yes", "network": "TankE", "opening_hours": "24/7", "operator": "evd energieversorgung dormagen", "name": "evd energieversorgung dormagen - TankE", "addr:country": "DE", "socket:type2_combo": "1", "socket:type2_combo:output": "50.0 kW", "socket:chademo": "1", "socket:chademo:output": "50.0 kW", "charging_station:output": "50.0 kW", "capacity": "2", "authentication:none": "", "_source": "worldwide"}}, {"type": "node", "id": 10967929058, "lat": 51.092302, "lon": 6.840998, "tags": {"amenity": "charging_station", "fee": "yes", "network": "TankE", "opening_hours": "24/7", "operator": "TankE", "name": "Ladestation TankE", "addr:country": "DE", "socket:type2": "2", "socket:type2:output": "22.0 kW", "charging_station:output": "22.0 kW", "capacity": "2", "authentication:none": "", "_source": "worldwide"}}, {"type": "node", "id": 2918451001, "lat": 51.863534, "lon": 6.280379, "tags": {"amenity": "charging_station", "access": "yes", "operator": "Mu Cafe", "name": "E-Bike-Ladestation", "addr:country": "DE", "_source": "worldwide"}}, {"type": "node", "id": 3008599801, "lat": 51.65676, "lon": 6.947301, "tags": {"amenity": "charging_station", "fee": "yes", "opening_hours": "24/7", "operator": "Westfalen", "name": "Westfalen - Westfalen AG", "addr:country": "DE", "socket:type2_combo": "1", "socket:type2_combo:output": "75.0 kW", "charging_station:output": "75.0 kW", "capacity": "1", "authentication:none": "", "_source": "worldwide"}}, {"type": "node", "id": 3008599802, "lat": 51.670262, "lon": 6.969171, "tags": {"amenity": "charging_station", "brand": "Innogy", "operator": "Innogy", "name": "Innogy", "addr:country": "DE", "socket:type2": "2", "socket:type2:output": "22.0 kW", "charging_station:output": "22.0 kW", "capacity": "2", "_source": "worldwide"}}, {"type": "node", "id": 8967733327, "lat": 51.670845, "lon": 6.968975, "tags": {"amenity": "charging_station", "operator": "Windor", "name": "Windor - Windor GmbH", "addr:country": "DE", "socket:type2": "2", "socket:type2:output": "3.7 kW", "charging_station:output": "3.7 kW", "capacity": "2", "_source": "worldwide"}}, {"type": "node", "id": 9704060096, "lat": 51.670274, "lon": 6.975159, "tags": {"amenity": "charging_station", "fee": "yes", "brand": "EnBW", "network": "EnBW", "operator": "EnBW", "name": "EnBW - EnBW", "addr:country": "DE", "socket:type2": "1", "socket:type2:output": "22.0 kW", "socket:type2_combo": "2", "socket:type2_combo:output": "150.0 kW", "charging_station:output": "150.0 kW", "capacity": "2", "authentication:none": "", "_source": "worldwide"}}, {"type": "node", "id": 3008600898, "lat": 51.658639, "lon": 6.966245, "tags": {"amenity": "charging_station", "fee": "yes", "brand": "Innogy", "opening_hours": "24/7", "operator": "Westenergie Metering", "name": "Westenergie Metering - Innogy", "addr:country": "DE", "socket:type2": "2", "socket:type2:output": "22.0 kW", "charging_station:output": "22.0 kW", "capacity": "2", "authentication:none": "", "_source": "worldwide"}}, {"type": "node", "id": 9383963028, "lat": 51.658691, "lon": 6.971209, "tags": {"amenity": "charging_station", "operator": "Stadt Dorsten", "name": "Ladestation Stadt Dorsten", "addr:country": "DE", "socket:type2": "2", "socket:type2:output": "22 kW", "charging_station:output": "22 kW", "capacity": "2", "_source": "worldwide"}}, {"type": "node", "id": 13155679730, "lat": 51.659042, "lon": 6.970235, "tags": {"amenity": "charging_station", "brand": "ecotap", "name": "Ladestation ecotap", "addr:country": "DE", "_source": "worldwide"}}, {"type": "node", "id": 3120756081, "lat": 51.099797, "lon": 6.817416, "tags": {"amenity": "charging_station", "access": "yes", "fee": "yes", "network": "TankE", "opening_hours": "24/7", "operator": "evd energieversorgung dormagen", "name": "evd energieversorgung dormagen - TankE", "addr:country": "DE", "socket:type2": "2", "socket:type2:output": "22.0 kW", "socket:schuko": "2", "socket:schuko:output": "2.3 kW", "charging_station:output": "22.0 kW", "capacity": "2", "authentication:none": "", "_source": "worldwide"}}, {"type": "node", "id": 3158434366, "lat": 51.099336, "lon": 6.815557, "tags": {"amenity": "charging_station", "fee": "no", "operator": "evd energieversorgung dormagen", "name": "Ladestation evd energieversorgung dormagen", "addr:country": "DE", "socket:schuko": "24", "socket:schuko:output": "2.3 kW", "charging_station:output": "2.3 kW", "authentication:none": "yes", "_source": "worldwide"}}, {"type": "node", "id": 3163564380, "lat": 51.340137, "lon": 6.576441, "tags": {"amenity": "charging_station", "operator": "stadtmobil carsharing", "name": "Ladestation stadtmobil carsharing", "addr:country": "DE", "socket:type2": "2", "socket:type2:output": "22 kW", "charging_station:output": "22 kW", "capacity": "2", "_source": "worldwide"}}, {"type": "node", "id": 3163564381, "lat": 51.346026, "lon": 6.618687, "tags": {"amenity": "charging_station", "operator": "stadtmobil carsharing", "name": "Ladestation stadtmobil carsharing", "addr:country": "DE", "socket:type2": "2", "socket:type2:output": "22 kW", "charging_station:output": "22 kW", "capacity": "2", "_source": "worldwide"}}, {"type": "node", "id": 11027891710, "lat": 51.193807, "lon": 6.813229, "tags": {"amenity": "charging_station", "brand": "Shell", "name": "Ladestation Shell", "addr:country": "DE", "socket:type2_combo": "2", "socket:type2_combo:output": "75.0 kW", "charging_station:output": "75.0 kW", "capacity": "2", "_source": "worldwide"}}, {"type": "node", "id": 3243432396, "lat": 51.444449, "lon": 6.265232, "tags": {"amenity": "charging_station", "operator": "RWE-Effizienz", "name": "Ladestation RWE-Effizienz", "addr:country": "DE", "socket:type2": "2", "socket:type2:output": "22 kW", "charging_station:output": "22 kW", "capacity": "2", "_source": "worldwide"}}, {"type": "node", "id": 10246927815, "lat": 51.446044, "lon": 6.267843, "tags": {"amenity": "charging_station", "access": "yes", "operator": "Zweiradcenter van de Stay", "name": "E-Bike-Ladestation", "addr:country": "DE", "_source": "worldwide"}}, {"type": "node", "id": 10246927816, "lat": 51.447668, "lon": 6.26693, "tags": {"amenity": "charging_station", "access": "yes", "operator": "Ferienwohnung \"Hermans\"", "name": "E-Bike-Ladestation", "addr:country": "DE", "_source": "worldwide"}}, {"type": "node", "id": 10246927817, "lat": 51.444928, "lon": 6.265934, "tags": {"amenity": "charging_station", "access": "yes", "operator": "Kaffe Krone", "name": "E-Bike-Ladestation", "addr:country": "DE", "_source": "worldwide"}}, {"type": "node", "id": 10723146776, "lat": 51.445472, "lon": 6.265927, "tags": {"amenity": "charging_station", "access": "yes", "operator": "Stadt Straelen", "name": "Ladestation Stadt Straelen", "addr:country": "DE", "_source": "worldwide"}}, {"type": "node", "id": 11383640955, "lat": 51.444521, "lon": 6.269755, "tags": {"amenity": "charging_station", "addr:country": "DE", "capacity": "2", "_source": "worldwide"}}, {"type": "node", "id": 11383640956, "lat": 51.443938, "lon": 6.265395, "tags": {"amenity": "charging_station", "addr:country": "DE", "_source": "worldwide"}}, {"type": "node", "id": 3260609254, "lat": 51.225687, "lon": 6.770666, "tags": {"amenity": "charging_station", "operator": "Stadtwerke Düsseldorf", "name": "Ladestation Stadtwerke Düsseldorf", "addr:country": "DE", "_source": "worldwide"}}, {"type": "node", "id": 12519030582, "lat": 51.224955, "lon": 6.778364, "tags": {"amenity": "charging_station", "access": "yes", "fee": "yes", "brand": "Stadtwerke Düsseldorf", "operator": "Stadtwerke Düsseldorf", "name": "Stadtwerke Düsseldorf - Stadtwerke Düsseldorf", "addr:country": "DE", "socket:type2": "2", "socket:type2:output": "22.0 kW", "charging_station:output": "22.0 kW", "capacity": "2", "_source": "worldwide"}}, {"type": "node", "id": 3269258871, "lat": 51.843376, "lon": 6.856046, "tags": {"amenity": "charging_station", "fee": "yes", "opening_hours": "24/7", "operator": "Stadtwerke Borken/Westf.", "name": "Stadtwerke Borken/Westf. - Stadtwerke Borken/Westf. GmbH", "addr:country": "DE", "socket:type2": "2", "socket:type2:output": "22.0 kW", "charging_station:output": "22.0 kW", "capacity": "2", "authentication:none": "yes", "_source": "worldwide"}}, {"type": "node", "id": 5586618079, "lat": 51.843698, "lon": 6.85793, "tags": {"amenity": "charging_station", "fee": "no", "opening_hours": "24/7", "operator": "Stadtwerke Borken", "name": "Ladestation Stadtwerke Borken", "addr:country": "DE", "socket:schuko": "4", "socket:schuko:output": "1.4 kW", "charging_station:output": "1.4 kW", "capacity": "4", "authentication:none": "yes", "_source": "worldwide"}}, {"type": "node", "id": 12649160304, "lat": 51.844003, "lon": 6.860867, "tags": {"amenity": "charging_station", "fee": "yes", "opening_hours": "24/7", "operator": "EMERGY Führungs- und Servicegesellschaft mbH", "name": "Ladestation EMERGY Führungs- und Servicegesellschaft mbH", "addr:country": "DE", "socket:type2": "2", "socket:type2:output": "22.0 kW", "charging_station:output": "22.0 kW", "authentication:none": "yes", "_source": "worldwide"}}, {"type": "node", "id": 12650794207, "lat": 51.842766, "lon": 6.860565, "tags": {"amenity": "charging_station", "fee": "yes", "opening_hours": "24/7", "operator": "EMERGY Führungs- und Servicegesellschaft mbH", "name": "Ladestation EMERGY Führungs- und Servicegesellschaft mbH", "addr:country": "DE", "socket:type2_combo": "2", "socket:type2_combo:output": "300.0 kW", "charging_station:output": "300.0 kW", "capacity": "2", "authentication:none": "yes", "_source": "worldwide"}}, {"type": "node", "id": 13021692181, "lat": 51.841171, "lon": 6.861899, "tags": {"amenity": "charging_station", "fee": "yes", "opening_hours": "24/7", "operator": "EMERGY Führungs- und Servicegesellschaft mbH", "name": "Ladestation EMERGY Führungs- und Servicegesellschaft mbH", "addr:country": "DE", "socket:type2": "1", "socket:type2:output": "22.0 kW", "charging_station:output": "22.0 kW", "capacity": "2", "authentication:none": "yes", "_source": "worldwide"}}, {"type": "node", "id": 3330075826, "lat": 51.170523, "lon": 6.951078, "tags": {"amenity": "charging_station", "operator": "Ihr Bäcker Schüren", "name": "Ladestation Ihr Bäcker Schüren", "addr:country": "DE", "socket:type2": "14", "socket:type2:output": "22 kW", "socket:schuko": "14", "socket:schuko:output": "2.3 kW", "charging_station:output": "22 kW", "capacity": "14", "_source": "worldwide"}}, {"type": "node", "id": 10929710721, "lat": 51.174156, "lon": 6.944742, "tags": {"amenity": "charging_station", "fee": "yes", "brand": "ChargePoint", "network": "ladenetz.de", "operator": "ChargePoint", "name": "ChargePoint", "addr:country": "DE", "socket:type2": "1", "socket:type2:output": "22 kW", "charging_station:output": "22 kW", "capacity": "2", "_source": "worldwide"}}, {"type": "node", "id": 13623690586, "lat": 51.169644, "lon": 6.951768, "tags": {"amenity": "charging_station", "addr:country": "DE", "_source": "worldwide"}}, {"type": "node", "id": 3358575758, "lat": 51.109636, "lon": 6.950505, "tags": {"amenity": "charging_station", "operator": "Schüren", "name": "Ladestation Schüren", "addr:country": "DE", "socket:type2": "2", "socket:type2:output": "22 kW", "socket:schuko": "2", "socket:schuko:output": "2.3 kW", "charging_station:output": "22 kW", "capacity": "2", "_source": "worldwide"}}, {"type": "node", "id": 6653837949, "lat": 51.112937, "lon": 6.953322, "tags": {"amenity": "charging_station", "fee": "yes", "operator": "Stadtwerke Langenfeld", "name": "Ladestation Stadtwerke Langenfeld", "addr:country": "DE", "socket:type2": "2", "socket:type2:output": "22.0 kW", "charging_station:output": "22.0 kW", "capacity": "2", "_source": "worldwide"}}, {"type": "node", "id": 3431547396, "lat": 51.573134, "lon": 6.970989, "tags": {"amenity": "charging_station", "fee": "yes", "brand": "Innogy", "opening_hours": "24/7", "operator": "Emscher Lippe Energie", "name": "Emscher Lippe Energie - Innogy", "addr:country": "DE", "socket:type2": "2", "socket:type2:output": "22.0 kW", "charging_station:output": "22.0 kW", "capacity": "2", "authentication:none": "", "_source": "worldwide"}}, {"type": "node", "id": 3437834790, "lat": 51.663949, "lon": 6.964505, "tags": {"amenity": "charging_station", "addr:country": "DE", "socket:cee_blue": "2", "socket:cee_blue:output": "3.7 kW", "charging_station:output": "3.7 kW", "_source": "worldwide"}}, {"type": "node", "id": 3439560368, "lat": 51.788477, "lon": 6.011146, "tags": {"amenity": "charging_station", "access": "yes", "fee": "no", "operator": "Gemeinde Kranenburg", "name": "E-Bike-Ladestation", "addr:country": "DE", "socket:schuko": "2", "socket:schuko:output": "2.3 kW", "charging_station:output": "2.3 kW", "_source": "worldwide"}}, {"type": "node", "id": 9994401432, "lat": 51.789465, "lon": 6.012858, "tags": {"amenity": "charging_station", "operator": "Stadtwerke Goch", "name": "Ladestation Stadtwerke Goch", "addr:country": "DE", "socket:type2": "4", "socket:type2:output": "22 kW", "charging_station:output": "22 kW", "capacity": "4", "_source": "worldwide"}}, {"type": "node", "id": 10723146774, "lat": 51.788951, "lon": 6.010316, "tags": {"amenity": "charging_station", "access": "customers", "operator": "Schnellrestaurant Peters", "name": "Ladestation Schnellrestaurant Peters", "addr:country": "DE", "_source": "worldwide"}}, {"type": "node", "id": 3470086532, "lat": 51.125107, "lon": 6.659528, "tags": {"amenity": "charging_station", "operator": "Gaststätte \"Zur Post\"", "name": "Ladestation Gaststätte \"Zur Post\"", "addr:country": "DE", "socket:schuko": "3", "socket:schuko:output": "2.3 kW", "charging_station:output": "2.3 kW", "capacity": "6", "_source": "worldwide"}}, {"type": "node", "id": 3500920816, "lat": 51.655155, "lon": 6.627515, "tags": {"amenity": "charging_station", "operator": "RWE", "name": "Ladestation RWE", "addr:country": "DE", "_source": "worldwide"}}, {"type": "node", "id": 3503084087, "lat": 51.656866, "lon": 6.622918, "tags": {"amenity": "charging_station", "operator": "Standwerke Wesel", "name": "Fahrradtankstelle 1", "addr:country": "DE", "capacity": "3", "_source": "worldwide"}}, {"type": "node", "id": 3503086426, "lat": 51.657599, "lon": 6.616623, "tags": {"amenity": "charging_station", "fee": "yes", "operator": "Stadtwerke Wesel", "name": "Fahrradtankstelle 2", "addr:country": "DE", "capacity": "3", "_source": "worldwide"}}, {"type": "node", "id": 3507182250, "lat": 51.674904, "lon": 6.626764, "tags": {"amenity": "charging_station", "operator": "RWE", "name": "Ladestation RWE", "addr:country": "DE", "capacity": "2", "_source": "worldwide"}}, {"type": "node", "id": 3507611649, "lat": 51.474151, "lon": 6.178838, "tags": {"amenity": "charging_station", "fee": "no", "operator": "Alt Arce", "name": "Ladestation Alt Arce", "addr:country": "DE", "socket:schuko": "4", "socket:schuko:output": "2.3 kW", "charging_station:output": "2.3 kW", "authentication:none": "yes", "_source": "worldwide"}}, {"type": "node", "id": 10804374951, "lat": 51.472434, "lon": 6.184887, "tags": {"amenity": "charging_station", "access": "yes", "fee": "no", "opening_hours": "24/7", "addr:country": "DE", "capacity": "6", "authentication:none": "yes", "_source": "worldwide"}}, {"type": "node", "id": 3507688084, "lat": 51.392579, "lon": 6.325475, "tags": {"amenity": "charging_station", "access": "yes", "operator": "Café Kälberstall", "name": "E-Bike-Ladestation", "addr:country": "DE", "_source": "worldwide"}}, {"type": "node", "id": 3512206954, "lat": 51.656531, "lon": 6.611941, "tags": {"amenity": "charging_station", "operator": "Stadtwerke Wesel", "name": "Fahrradtankstelle 3", "addr:country": "DE", "capacity": "3", "_source": "worldwide"}}, {"type": "node", "id": 3522289401, "lat": 51.731863, "lon": 6.736138, "tags": {"amenity": "charging_station", "addr:country": "DE", "socket:schuko": "2", "socket:schuko:output": "2.3 kW", "charging_station:output": "2.3 kW", "capacity": "2", "_source": "worldwide"}}, {"type": "node", "id": 3522289413, "lat": 51.739858, "lon": 6.765595, "tags": {"amenity": "charging_station", "addr:country": "DE", "socket:schuko": "4", "socket:schuko:output": "2.3 kW", "charging_station:output": "2.3 kW", "capacity": "4", "_source": "worldwide"}}, {"type": "node", "id": 3522307152, "lat": 51.768063, "lon": 6.83822, "tags": {"amenity": "charging_station", "fee": "yes", "brand": "Innogy", "operator": "Innogy", "name": "Innogy", "addr:country": "DE", "socket:type2": "2", "socket:type2:output": "22.0 kW", "charging_station:output": "22.0 kW", "capacity": "2", "authentication:none": "yes", "_source": "worldwide"}}, {"type": "node", "id": 12675591574, "lat": 51.771283, "lon": 6.837292, "tags": {"amenity": "charging_station", "fee": "yes", "network": "Elli", "opening_hours": "24/7", "operator": "Autohaus Josef Gudel", "name": "Autohaus Josef Gudel - Elli", "addr:country": "DE", "socket:type2": "1", "socket:type2:output": "11.0 kW", "socket:type2_combo": "1", "socket:type2_combo:output": "23.0 kW", "charging_station:output": "23.0 kW", "capacity": "2", "authentication:none": "yes", "_source": "worldwide"}}, {"type": "node", "id": 3523615169, "lat": 51.262701, "lon": 6.780885, "tags": {"amenity": "charging_station", "opening_hours": "Mo-Sa 08:00-21:00", "operator": "Aldi", "name": "Ladestation Aldi", "addr:country": "DE", "socket:type2": "1", "socket:type2:output": "22 kW", "socket:type2_combo": "1", "socket:type2_combo:output": "50 kW", "socket:chademo": "1", "socket:chademo:output": "50 kW", "socket:schuko": "3", "socket:schuko:output": "2.3 kW", "charging_station:output": "50 kW", "authentication:none": "yes", "_source": "worldwide"}}, {"type": "node", "id": 3557137721, "lat": 51.666726, "lon": 6.609248, "tags": {"amenity": "charging_station", "access": "yes", "brand": "Innogy", "operator": "Innogy", "name": "Innogy", "addr:country": "DE", "socket:type2": "2", "socket:type2:output": "22 kW", "charging_station:output": "22 kW", "_source": "worldwide"}}, {"type": "node", "id": 3558249953, "lat": 51.659605, "lon": 6.611277, "tags": {"amenity": "charging_station", "fee": "yes", "network": "Ladenetz", "opening_hours": "24/7", "operator": "Stadtwerke Wesel", "name": "Stadtwerke Wesel - Ladenetz", "addr:country": "DE", "socket:type2": "2", "socket:type2:output": "22.0 kW", "socket:schuko": "2", "socket:schuko:output": "2.3 kW", "charging_station:output": "22.0 kW", "capacity": "2", "authentication:none": "", "_source": "worldwide"}}, {"type": "node", "id": 3652377209, "lat": 51.788049, "lon": 6.54379, "tags": {"amenity": "charging_station", "fee": "no", "operator": "RWE", "name": "Ladestation RWE", "addr:country": "DE", "_source": "worldwide"}}, {"type": "node", "id": 3667131749, "lat": 51.321727, "lon": 6.540396, "tags": {"amenity": "charging_station", "access": "yes", "fee": "no", "addr:country": "DE", "capacity": "1", "_source": "worldwide"}}, {"type": "node", "id": 3717101636, "lat": 51.313111, "lon": 6.385986, "tags": {"amenity": "charging_station", "fee": "no", "opening_hours": "24/7", "name": "Auffelder Bauerncafe", "addr:country": "DE", "socket:schuko": "6", "socket:schuko:output": "2.3 kW", "charging_station:output": "2.3 kW", "capacity": "6", "_source": "worldwide"}}, {"type": "node", "id": 5523677817, "lat": 51.274946, "lon": 6.743725, "tags": {"amenity": "charging_station", "fee": "no", "opening_hours": "24/7", "operator": "Stadtwerke Düsseldorf", "name": "Ladestation Stadtwerke Düsseldorf", "addr:country": "DE", "socket:type2": "2", "socket:type2:output": "22 kW", "socket:schuko": "2", "socket:schuko:output": "2.3 kW", "charging_station:output": "22 kW", "capacity": "2", "_source": "worldwide"}}, {"type": "node", "id": 3721554633, "lat": 51.17134, "lon": 6.648556, "tags": {"amenity": "charging_station", "access": "yes", "fee": "no", "operator": "Prechters Elektrotechnik Neuss", "name": "Prechters Elektrotechnik Neuss - Prechters Elektrotechnik Neuss GmbH", "addr:country": "DE", "socket:schuko": "4", "socket:schuko:output": "2.3 kW", "charging_station:output": "2.3 kW", "capacity": "4", "_source": "worldwide"}}, {"type": "node", "id": 12343147529, "lat": 51.170728, "lon": 6.6493, "tags": {"amenity": "charging_station", "access": "yes", "fee": "no", "operator": "Prechters Elektrotechnik Neuss", "name": "Prechters Elektrotechnik Neuss - Prechters Elektrotechnik Neuss GmbH", "addr:country": "DE", "socket:schuko": "4", "socket:schuko:output": "2.3 kW", "charging_station:output": "2.3 kW", "capacity": "4", "_source": "worldwide"}}, {"type": "node", "id": 1498328306, "lat": 51.172379, "lon": 6.650243, "tags": {"amenity": "charging_station", "access": "customers", "addr:country": "DE", "capacity": "26", "_source": "worldwide"}}, {"type": "node", "id": 3726532288, "lat": 51.58176, "lon": 6.247134, "tags": {"amenity": "charging_station", "access": "yes", "operator": "Wallfahrtsstadt Kevelaer", "name": "Ladestation Wallfahrtsstadt Kevelaer", "addr:country": "DE", "socket:schuko": "6", "socket:schuko:output": "2.3 kW", "charging_station:output": "2.3 kW", "authentication:none": "yes", "_source": "worldwide"}}, {"type": "node", "id": 10240460691, "lat": 51.582229, "lon": 6.251189, "tags": {"amenity": "charging_station", "operator": "NiersStrom", "name": "Ladestation NiersStrom", "addr:country": "DE", "capacity": "2", "_source": "worldwide"}}, {"type": "node", "id": 10248346185, "lat": 51.58179, "lon": 6.246085, "tags": {"amenity": "charging_station", "access": "yes", "operator": "Stadt Kevelaer", "name": "E-Bike-Ladestation", "addr:country": "DE", "_source": "worldwide"}}, {"type": "node", "id": 10248346187, "lat": 51.582739, "lon": 6.245952, "tags": {"amenity": "charging_station", "access": "yes", "operator": "Zweirad Peters", "name": "E-Bike-Ladestation", "addr:country": "DE", "_source": "worldwide"}}, {"type": "node", "id": 10733381500, "lat": 51.584982, "lon": 6.240367, "tags": {"amenity": "charging_station", "addr:country": "DE", "socket:type2_combo": "1", "socket:type2_combo:output": "50 kW", "socket:chademo": "1", "socket:chademo:output": "50 kW", "charging_station:output": "50 kW", "capacity": "2", "_source": "worldwide"}}, {"type": "node", "id": 3733077785, "lat": 51.337986, "lon": 6.453901, "tags": {"amenity": "charging_station", "name": "Gartenpark Borghof", "addr:country": "DE", "socket:schuko": "2", "socket:schuko:output": "2.3 kW", "charging_station:output": "2.3 kW", "capacity": "2", "_source": "worldwide"}}, {"type": "node", "id": 3739512673, "lat": 51.397648, "lon": 6.491968, "tags": {"amenity": "charging_station", "fee": "no", "opening_hours": "24/7", "name": "Cafe Kornblume", "addr:country": "DE", "socket:schuko": "5", "socket:schuko:output": "2.3 kW", "charging_station:output": "2.3 kW", "capacity": "5", "_source": "worldwide"}}, {"type": "node", "id": 3746050911, "lat": 51.963587, "lon": 6.292592, "tags": {"amenity": "charging_station", "addr:country": "DE", "capacity": "2", "_source": "worldwide"}}, {"type": "node", "id": 3755859127, "lat": 51.510979, "lon": 6.844769, "tags": {"amenity": "charging_station", "operator": "STOAG", "name": "Ladestation STOAG", "addr:country": "DE", "capacity": "1", "_source": "worldwide"}}, {"type": "node", "id": 12206947159, "lat": 51.5126, "lon": 6.844738, "tags": {"amenity": "charging_station", "access": "yes", "fee": "yes", "operator": "EVO", "name": "Ladestation EVO", "addr:country": "DE", "capacity": "2", "_source": "worldwide"}}, {"type": "node", "id": 3755859130, "lat": 51.516002, "lon": 6.842484, "tags": {"amenity": "charging_station", "operator": "STOAG", "name": "Ladestation STOAG", "addr:country": "DE", "capacity": "1", "_source": "worldwide"}}, {"type": "node", "id": 3757606505, "lat": 51.117218, "lon": 6.64668, "tags": {"amenity": "charging_station", "addr:country": "DE", "socket:schuko": "3", "socket:schuko:output": "2.3 kW", "charging_station:output": "2.3 kW", "_source": "worldwide"}}, {"type": "node", "id": 3781757851, "lat": 51.836602, "lon": 6.614469, "tags": {"amenity": "charging_station", "access": "yes", "fee": "no", "operator": "Bocholter Energie- und Wasserversorgung", "name": "Ladestation Bocholter Energie- und Wasserversorgung", "addr:country": "DE", "_source": "worldwide"}}, {"type": "node", "id": 3811031727, "lat": 51.835606, "lon": 6.614141, "tags": {"amenity": "charging_station", "opening_hours": "Mo-Sa 09:30-18:00; Su off", "addr:country": "DE", "capacity": "2", "_source": "worldwide"}}, {"type": "node", "id": 3908872368, "lat": 51.83406, "lon": 6.616267, "tags": {"amenity": "charging_station", "access": "yes", "fee": "no", "opening_hours": "24/7", "operator": "Bocholter Energie- und Wasserversorgung", "name": "Ladestation Bocholter Energie- und Wasserversorgung", "addr:country": "DE", "socket:schuko": "1", "socket:schuko:output": "2.3 kW", "charging_station:output": "2.3 kW", "capacity": "1", "_source": "worldwide"}}, {"type": "node", "id": 3908872369, "lat": 51.834609, "lon": 6.616136, "tags": {"amenity": "charging_station", "access": "yes", "fee": "no", "opening_hours": "24/7", "operator": "Bocholter Energie- und Wasserversorgung", "name": "Ladestation Bocholter Energie- und Wasserversorgung", "addr:country": "DE", "socket:schuko": "1", "socket:schuko:output": "2.3 kW", "charging_station:output": "2.3 kW", "capacity": "1", "_source": "worldwide"}}, {"type": "node", "id": 6205559127, "lat": 51.834382, "lon": 6.616987, "tags": {"amenity": "charging_station", "access": "private", "fee": "yes", "addr:country": "DE", "socket:type2": "1", "socket:type2:output": "22 kW", "charging_station:output": "22 kW", "capacity": "1", "_source": "worldwide"}}, {"type": "node", "id": 6221903112, "lat": 51.838942, "lon": 6.618036, "tags": {"amenity": "charging_station", "access": "yes", "fee": "yes", "brand": "WattExtra", "opening_hours": "24/7", "operator": "Bocholter Energie- und Wasserversorgung", "name": "Bocholter Energie- und Wasserversorgung - WattExtra", "addr:country": "DE", "socket:type2": "2", "socket:type2:output": "22.0 kW", "charging_station:output": "22.0 kW", "capacity": "2", "authentication:none": "yes", "_source": "worldwide"}}, {"type": "node", "id": 9950781671, "lat": 51.835842, "lon": 6.616787, "tags": {"amenity": "charging_station", "access": "yes", "fee": "yes", "operator": "Stadtsparkasse Bocholt", "name": "Ladestation Stadtsparkasse Bocholt", "addr:country": "DE", "socket:type2": "2", "socket:type2:output": "22.0 kW", "charging_station:output": "22.0 kW", "capacity": "2", "authentication:none": "yes", "_source": "worldwide"}}, {"type": "node", "id": 10726857463, "lat": 51.837421, "lon": 6.620873, "tags": {"amenity": "charging_station", "access": "yes", "fee": "yes", "brand": "WattExtra", "opening_hours": "24/7", "operator": "Bocholter Energie- und Wasserversorgung", "name": "Bocholter Energie- und Wasserversorgung - WattExtra", "addr:country": "DE", "socket:type2": "2", "socket:type2:output": "22.0 kW", "charging_station:output": "22.0 kW", "capacity": "2", "authentication:none": "yes", "_source": "worldwide"}}, {"type": "node", "id": 10726857482, "lat": 51.837777, "lon": 6.616492, "tags": {"amenity": "charging_station", "access": "yes", "fee": "yes", "brand": "WattExtra", "opening_hours": "24/7", "operator": "Bocholter Energie- und Wasserversorgung", "name": "Bocholter Energie- und Wasserversorgung - WattExtra", "addr:country": "DE", "socket:type2": "4", "socket:type2:output": "22.0 kW", "charging_station:output": "22.0 kW", "capacity": "4", "authentication:none": "yes", "_source": "worldwide"}}, {"type": "node", "id": 12690617731, "lat": 51.838355, "lon": 6.614463, "tags": {"amenity": "charging_station", "access": "yes", "fee": "no", "operator": "Bocholter Energie- und Wasserversorgung", "name": "Ladestation Bocholter Energie- und Wasserversorgung", "addr:country": "DE", "_source": "worldwide"}}, {"type": "node", "id": 3817825912, "lat": 51.423231, "lon": 6.576763, "tags": {"amenity": "charging_station", "name": "Neue Mühle", "addr:country": "DE", "socket:schuko": "4", "socket:schuko:output": "2.3 kW", "charging_station:output": "2.3 kW", "capacity": "4", "authentication:none": "yes", "_source": "worldwide"}}, {"type": "node", "id": 3822417664, "lat": 51.217687, "lon": 6.782736, "tags": {"amenity": "charging_station", "operator": "Stadtwerke Düsseldorf", "name": "Ladestation Stadtwerke Düsseldorf", "addr:country": "DE", "capacity": "2", "_source": "worldwide"}}, {"type": "node", "id": 10704972508, "lat": 51.218002, "lon": 6.778839, "tags": {"amenity": "charging_station", "access": "yes", "fee": "yes", "operator": "Stadtwerke Düsseldorf", "name": "Ladestation Stadtwerke Düsseldorf", "addr:country": "DE", "socket:type2": "2", "socket:type2:output": "22.0 kW", "charging_station:output": "22.0 kW", "capacity": "2", "_source": "worldwide"}}, {"type": "node", "id": 11009944153, "lat": 51.214271, "lon": 6.787431, "tags": {"amenity": "charging_station", "fee": "yes", "operator": "Stadtwerke Düsseldorf", "name": "Ladestation Stadtwerke Düsseldorf", "addr:country": "DE", "socket:type2": "2", "socket:type2:output": "22.0 kW", "charging_station:output": "22.0 kW", "capacity": "2", "_source": "worldwide"}}, {"type": "node", "id": 11112715820, "lat": 51.214851, "lon": 6.786875, "tags": {"amenity": "charging_station", "fee": "yes", "operator": "Stadtwerke Düsseldorf", "name": "Ladestation Stadtwerke Düsseldorf", "addr:country": "DE", "socket:type2": "2", "socket:type2:output": "22.0 kW", "charging_station:output": "22.0 kW", "capacity": "2", "_source": "worldwide"}}, {"type": "node", "id": 12063725779, "lat": 51.216721, "lon": 6.783838, "tags": {"amenity": "charging_station", "operator": "Stadtwerke Düsseldorf", "name": "Ladestation Stadtwerke Düsseldorf", "addr:country": "DE", "capacity": "2", "_source": "worldwide"}}, {"type": "node", "id": 12745151613, "lat": 51.218185, "lon": 6.785659, "tags": {"amenity": "charging_station", "operator": "Stadtwerke Düsseldorf", "name": "Ladestation Stadtwerke Düsseldorf", "addr:country": "DE", "capacity": "2", "_source": "worldwide"}}, {"type": "node", "id": 13720729374, "lat": 51.217817, "lon": 6.781247, "tags": {"amenity": "charging_station", "access": "customers", "fee": "yes", "network": "Vattenfall InCharge", "opening_hours": "24/7", "operator": "Vattenfall Smarter Living", "name": "Vattenfall Smarter Living - Vattenfall InCharge", "addr:country": "DE", "socket:type2": "1", "socket:type2:output": "11.0 kW", "charging_station:output": "11.0 kW", "capacity": "1", "authentication:none": "yes", "_source": "worldwide"}}, {"type": "node", "id": 1311357516, "lat": 51.213658, "lon": 6.78498, "tags": {"amenity": "charging_station", "fee": "yes", "operator": "Stadtwerke Düsseldorf", "name": "Ladestation Stadtwerke Düsseldorf", "addr:country": "DE", "capacity": "4", "_source": "worldwide"}}, {"type": "node", "id": 3834715477, "lat": 51.322905, "lon": 6.376378, "tags": {"amenity": "charging_station", "fee": "yes", "addr:country": "DE", "socket:cee_blue": "4", "socket:cee_blue:output": "3.7 kW", "charging_station:output": "3.7 kW", "capacity": "4", "_source": "worldwide"}}, {"type": "node", "id": 3890677970, "lat": 51.754011, "lon": 6.240925, "tags": {"amenity": "charging_station", "access": "yes", "fee": "no", "operator": "Gemeinde Bedburg-Hau", "name": "E-Bike-Ladestation", "addr:country": "DE", "_source": "worldwide"}}, {"type": "node", "id": 3926546547, "lat": 51.675607, "lon": 6.169275, "tags": {"amenity": "charging_station", "operator": "Stadtwerke Goch", "name": "Ladestation Stadtwerke Goch", "addr:country": "DE", "_source": "worldwide"}}, {"type": "node", "id": 10293014539, "lat": 51.675265, "lon": 6.166763, "tags": {"amenity": "charging_station", "access": "yes", "fee": "yes", "operator": "Stadtwerke Goch", "name": "Stadtwerke Goch - Stadtwerke Goch GmbH", "addr:country": "DE", "capacity": "2", "_source": "worldwide"}}, {"type": "node", "id": 4032828411, "lat": 51.453181, "lon": 6.626221, "tags": {"amenity": "charging_station", "opening_hours": "24/7", "operator": "Sparkasse Moers", "name": "E-Bike Ladestation", "addr:country": "DE", "socket:schuko": "6", "socket:schuko:output": "2.3 kW", "charging_station:output": "2.3 kW", "capacity": "3", "authentication:none": "yes", "_source": "worldwide"}}, {"type": "node", "id": 4516564945, "lat": 51.44971, "lon": 6.629592, "tags": {"amenity": "charging_station", "fee": "no", "opening_hours": "24/7", "operator": "Volksbank Moers", "name": "E-Bike Ladestation", "addr:country": "DE", "socket:schuko": "4", "socket:schuko:output": "2.3 kW", "charging_station:output": "2.3 kW", "capacity": "4", "authentication:none": "yes", "_source": "worldwide"}}, {"type": "node", "id": 4032828436, "lat": 51.447785, "lon": 6.632338, "tags": {"amenity": "charging_station", "addr:country": "DE", "capacity": "2", "_source": "worldwide"}}, {"type": "node", "id": 8984034245, "lat": 51.445773, "lon": 6.635014, "tags": {"amenity": "charging_station", "fee": "no", "opening_hours": "Mo-Sa 08:00-21:00; Su off", "operator": "wikipedia=hu:Aldi Süd", "name": "Schnellladestation ALDI Süd Uerdinger Straße Moers", "addr:street": "Uerdinger Straße 67", "socket:type2": "1", "socket:type2:output": "22.0 kW", "socket:type2_combo": "2", "socket:type2_combo:output": "150.0 kW", "charging_station:output": "150.0 kW", "capacity": "2", "_source": "worldwide"}}, {"type": "node", "id": 4054961000, "lat": 51.356864, "lon": 6.930904, "tags": {"amenity": "charging_station", "brand": "Innogy", "operator": "RWE", "name": "Innogy", "addr:country": "DE", "socket:schuko": "3", "socket:schuko:output": "2.3 kW", "charging_station:output": "2.3 kW", "capacity": "3", "_source": "worldwide"}}, {"type": "node", "id": 9317288429, "lat": 51.384276, "lon": 6.450632, "tags": {"amenity": "charging_station", "fee": "yes", "network": "TankE", "opening_hours": "24/7", "operator": "Stadtwerke Kempen", "name": "Stadtwerke Kempen - TankE", "addr:country": "DE", "socket:type2": "2", "socket:type2:output": "22.0 kW", "charging_station:output": "22.0 kW", "capacity": "2", "authentication:none": "", "_source": "worldwide"}}, {"type": "node", "id": 10295567467, "lat": 51.384662, "lon": 6.459066, "tags": {"amenity": "charging_station", "fee": "yes", "network": "TankE", "opening_hours": "24/7", "operator": "Stadtwerke Kempen", "name": "Stadtwerke Kempen - TankE", "addr:country": "DE", "socket:type2": "2", "socket:type2:output": "22.0 kW", "charging_station:output": "22.0 kW", "capacity": "2", "authentication:none": "", "_source": "worldwide"}}, {"type": "node", "id": 4120852787, "lat": 51.08915, "lon": 6.589814, "tags": {"amenity": "charging_station", "operator": "GWG", "name": "Ladestation GWG", "addr:country": "DE", "socket:schuko": "3", "socket:schuko:output": "2.3 kW", "charging_station:output": "2.3 kW", "capacity": "3", "_source": "worldwide"}}, {"type": "node", "id": 8194639367, "lat": 51.089135, "lon": 6.586251, "tags": {"amenity": "charging_station", "addr:country": "DE", "_source": "worldwide"}}, {"type": "node", "id": 11348686131, "lat": 51.086571, "lon": 6.590615, "tags": {"amenity": "charging_station", "addr:country": "DE", "socket:type2": "2", "socket:type2:output": "22 kW", "charging_station:output": "22 kW", "capacity": "2", "_source": "worldwide"}}, {"type": "node", "id": 4122830261, "lat": 51.703331, "lon": 6.416218, "tags": {"amenity": "charging_station", "name": "E-Bike", "addr:country": "DE", "capacity": "3", "_source": "worldwide"}}, {"type": "node", "id": 4128288033, "lat": 51.276635, "lon": 6.790339, "tags": {"amenity": "charging_station", "operator": "Stadtwerke Düsseldorf", "name": "Ladestation Stadtwerke Düsseldorf", "addr:country": "DE", "socket:type2": "2", "socket:type2:output": "22 kW", "socket:schuko": "2", "socket:schuko:output": "2.3 kW", "charging_station:output": "22 kW", "capacity": "2", "_source": "worldwide"}}, {"type": "node", "id": 4219129289, "lat": 51.264861, "lon": 6.734233, "tags": {"amenity": "charging_station", "addr:country": "DE", "_source": "worldwide"}}, {"type": "node", "id": 4242440915, "lat": 51.762452, "lon": 6.187811, "tags": {"amenity": "charging_station", "operator": "RWE-Effizienz", "name": "Ladestation RWE-Effizienz", "addr:country": "DE", "socket:type2": "2", "socket:type2:output": "22 kW", "charging_station:output": "22 kW", "capacity": "2", "_source": "worldwide"}}, {"type": "node", "id": 4318820489, "lat": 51.632697, "lon": 6.692322, "tags": {"amenity": "charging_station", "operator": "LGI", "name": "Ladestation LGI", "addr:country": "DE", "_source": "worldwide"}}, {"type": "node", "id": 4319249369, "lat": 51.72991, "lon": 6.593064, "tags": {"amenity": "charging_station", "fee": "yes", "opening_hours": "24/7", "operator": "westenergie", "name": "Ladestation westenergie", "addr:country": "DE", "socket:type2": "2", "socket:type2:output": "22.0 kW", "charging_station:output": "22.0 kW", "capacity": "2", "_source": "worldwide"}}, {"type": "node", "id": 6379325302, "lat": 51.730485, "lon": 6.593504, "tags": {"amenity": "charging_station", "operator": "westenergie", "name": "Ladestation westenergie", "addr:country": "DE", "capacity": "2", "_source": "worldwide"}}, {"type": "node", "id": 4375825138, "lat": 51.611849, "lon": 6.374277, "tags": {"amenity": "charging_station", "fee": "yes", "operator": "RWE", "name": "Ladestation RWE", "addr:country": "DE", "socket:type2": "2", "socket:type2:output": "22 kW", "charging_station:output": "22 kW", "capacity": "2", "_source": "worldwide"}}, {"type": "node", "id": 11357214304, "lat": 51.608848, "lon": 6.376156, "tags": {"amenity": "charging_station", "addr:country": "DE", "_source": "worldwide"}}, {"type": "node", "id": 4379469162, "lat": 51.739287, "lon": 6.293235, "tags": {"amenity": "charging_station", "fee": "yes", "opening_hours": "24/7", "operator": "RWE-Effizienz", "name": "Kalkar Grabenstraße", "addr:country": "DE", "socket:type2": "2", "socket:type2:output": "22 kW", "charging_station:output": "22 kW", "capacity": "2", "_source": "worldwide"}}, {"type": "node", "id": 11559655281, "lat": 51.738058, "lon": 6.289608, "tags": {"amenity": "charging_station", "fee": "yes", "opening_hours": "24/7", "operator": "Stadt Kalkar", "name": "Ladestation Stadt Kalkar", "addr:country": "DE", "socket:type2": "2", "socket:type2:output": "22 kW", "charging_station:output": "22 kW", "capacity": "2", "_source": "worldwide"}}, {"type": "node", "id": 13021728747, "lat": 51.73582, "lon": 6.287507, "tags": {"amenity": "charging_station", "access": "yes", "fee": "yes", "network": "EnBW mobility+", "opening_hours": "24/7", "operator": "EnBW mobility+ AG und Co.KG", "name": "EnBW mobility+ AG und Co.KG - EnBW mobility+", "addr:country": "DE", "socket:type2_combo": "2", "socket:type2_combo:output": "200.0 kW", "charging_station:output": "200.0 kW", "capacity": "2", "authentication:none": "yes", "_source": "worldwide"}}, {"type": "node", "id": 4379475239, "lat": 51.427282, "lon": 6.89919, "tags": {"amenity": "charging_station", "fee": "no", "operator": "ALDI Süd", "name": "Ladestation ALDI Süd", "addr:country": "DE", "socket:type2": "1", "socket:type2:output": "22 kW", "socket:type2_combo": "2", "socket:type2_combo:output": "50 kW", "socket:chademo": "1", "socket:chademo:output": "50 kW", "charging_station:output": "50 kW", "capacity": "1", "_source": "worldwide"}}, {"type": "node", "id": 12730429778, "lat": 51.427723, "lon": 6.898664, "tags": {"amenity": "charging_station", "fee": "yes", "operator": "Lidl", "name": "Ladestation Lidl", "addr:country": "DE", "capacity": "3", "_source": "worldwide"}}, {"type": "node", "id": 12730429779, "lat": 51.430791, "lon": 6.898567, "tags": {"amenity": "charging_station", "fee": "yes", "opening_hours": "24/7", "operator": "wirelane", "name": "Ladestation wirelane", "addr:country": "DE", "socket:type2": "2", "socket:type2:output": "22.0 kW", "charging_station:output": "22.0 kW", "capacity": "2", "_source": "worldwide"}}, {"type": "node", "id": 4393076787, "lat": 51.258759, "lon": 6.390086, "tags": {"amenity": "charging_station", "fee": "no", "opening_hours": "Mo-Sa 09:00-22:00; Su 10:00-22:00", "operator": "NEW", "name": "Ladestation NEW", "addr:country": "DE", "socket:schuko": "6", "socket:schuko:output": "2.3 kW", "charging_station:output": "2.3 kW", "capacity": "6", "_source": "worldwide"}}, {"type": "node", "id": 5555967339, "lat": 51.259006, "lon": 6.393377, "tags": {"amenity": "charging_station", "fee": "no", "opening_hours": "24/7", "operator": "NEW", "name": "Ladestation NEW", "addr:country": "DE", "socket:type2": "2", "socket:type2:output": "22 kW", "charging_station:output": "22 kW", "capacity": "2", "_source": "worldwide"}}, {"type": "node", "id": 8560683783, "lat": 51.260882, "lon": 6.393335, "tags": {"amenity": "charging_station", "operator": "NEW", "name": "Ladestation NEW", "addr:country": "DE", "socket:type2": "2", "socket:type2:output": "22 kW", "charging_station:output": "22 kW", "_source": "worldwide"}}, {"type": "node", "id": 4402175031, "lat": 51.665119, "lon": 6.4536, "tags": {"amenity": "charging_station", "fee": "yes", "opening_hours": "24/7", "operator": "innogy", "name": "innogy Ladesäule Rheinstraße", "addr:country": "DE", "socket:type2": "2", "socket:type2:output": "22 kW", "charging_station:output": "22 kW", "capacity": "2", "_source": "worldwide"}}, {"type": "node", "id": 4402185487, "lat": 51.57507, "lon": 6.512809, "tags": {"amenity": "charging_station", "fee": "no", "opening_hours": "24/7", "addr:country": "DE", "socket:schuko": "2", "socket:schuko:output": "2.3 kW", "charging_station:output": "2.3 kW", "capacity": "2", "_source": "worldwide"}}, {"type": "node", "id": 13516977012, "lat": 51.575256, "lon": 6.513736, "tags": {"amenity": "charging_station", "operator": "Aldi", "name": "Ladestation Aldi", "addr:country": "DE", "_source": "worldwide"}}, {"type": "node", "id": 13516977029, "lat": 51.574546, "lon": 6.510485, "tags": {"amenity": "charging_station", "addr:country": "DE", "_source": "worldwide"}}, {"type": "node", "id": 4402193600, "lat": 51.505347, "lon": 6.544963, "tags": {"amenity": "charging_station", "fee": "yes", "opening_hours": "24/7", "operator": "Stadtwerke Kamp-Lintfort", "name": "Stadtwerke Kamp-Lintfort Wilhelmstraße", "addr:country": "DE", "socket:type2": "2", "socket:type2:output": "22 kW", "charging_station:output": "22 kW", "capacity": "2", "_source": "worldwide"}}, {"type": "node", "id": 9464552622, "lat": 51.504344, "lon": 6.547765, "tags": {"amenity": "charging_station", "operator": "Stadtwerke_Kali", "name": "Ladestation Stadtwerke_Kali", "addr:country": "DE", "_source": "worldwide"}}, {"type": "node", "id": 13369294907, "lat": 51.507583, "lon": 6.546694, "tags": {"amenity": "charging_station", "addr:country": "DE", "_source": "worldwide"}}, {"type": "node", "id": 4433190205, "lat": 51.79231, "lon": 6.338179, "tags": {"amenity": "charging_station", "access": "yes", "name": "E-Bike-Ladestation", "addr:country": "DE", "socket:schuko": "2", "socket:schuko:output": "2.3 kW", "charging_station:output": "2.3 kW", "_source": "worldwide"}}, {"type": "node", "id": 4438283636, "lat": 51.45617, "lon": 6.374553, "tags": {"amenity": "charging_station", "operator": "innogy", "name": "Ladestation innogy", "addr:country": "DE", "socket:type2": "2", "socket:type2:output": "22 kW", "charging_station:output": "22 kW", "capacity": "2", "_source": "worldwide"}}, {"type": "node", "id": 10246741810, "lat": 51.456947, "lon": 6.3761, "tags": {"amenity": "charging_station", "access": "yes", "operator": "Landgasthaus Wolters", "name": "E-Bike-Ladestation", "addr:country": "DE", "_source": "worldwide"}}, {"type": "node", "id": 13026831181, "lat": 51.456688, "lon": 6.379755, "tags": {"amenity": "charging_station", "fee": "yes", "brand": "Edeka Brüggemeier", "operator": "Frischecenter Brüggemeier", "name": "Frischecenter Brüggemeier - Edeka Brüggemeier", "addr:country": "DE", "socket:type2": "1", "socket:type2:output": "22.0 kW", "socket:type2_combo": "1", "socket:type2_combo:output": "50.0 kW", "socket:chademo": "1", "socket:chademo:output": "50.0 kW", "charging_station:output": "50.0 kW", "capacity": "2", "authentication:none": "yes", "_source": "worldwide"}}, {"type": "node", "id": 4441175269, "lat": 51.260958, "lon": 6.404105, "tags": {"amenity": "charging_station", "fee": "no", "opening_hours": "24/7", "operator": "NEW RWE", "name": "Ladestation NEW RWE", "addr:country": "DE", "socket:type2": "2", "socket:type2:output": "22 kW", "charging_station:output": "22 kW", "capacity": "2", "_source": "worldwide"}}, {"type": "node", "id": 12368055743, "lat": 51.256743, "lon": 6.404292, "tags": {"amenity": "charging_station", "access": "yes", "fee": "yes", "addr:country": "DE", "socket:type2": "2", "socket:type2:output": "22 kW", "charging_station:output": "22 kW", "capacity": "2", "_source": "worldwide"}}, {"type": "node", "id": 4518013469, "lat": 51.24723, "lon": 6.776992, "tags": {"amenity": "charging_station", "fee": "yes", "operator": "Stadtwerke Düsseldorf", "name": "Ladestation Stadtwerke Düsseldorf", "addr:country": "DE", "socket:type2": "2", "socket:type2:output": "22.0 kW", "charging_station:output": "22.0 kW", "capacity": "2", "_source": "worldwide"}}, {"type": "node", "id": 8702580669, "lat": 51.245785, "lon": 6.778, "tags": {"amenity": "charging_station", "fee": "yes", "operator": "Stadtwerke Düsseldorf", "name": "Ladestation Stadtwerke Düsseldorf", "addr:country": "DE", "socket:type2": "2", "socket:type2:output": "22.0 kW", "charging_station:output": "22.0 kW", "capacity": "2", "_source": "worldwide"}}, {"type": "node", "id": 12599154602, "lat": 51.250321, "lon": 6.777678, "tags": {"amenity": "charging_station", "fee": "yes", "operator": "Stadtwerke Düsseldorf", "name": "Ladestation Stadtwerke Düsseldorf", "addr:country": "DE", "socket:type2": "2", "socket:type2:output": "22.0 kW", "charging_station:output": "22.0 kW", "capacity": "2", "_source": "worldwide"}}, {"type": "node", "id": 13527828825, "lat": 51.246521, "lon": 6.768601, "tags": {"amenity": "charging_station", "access": "yes", "fee": "yes", "operator": "EQE", "name": "Ladestation EQE", "addr:country": "DE", "socket:type2": "2", "socket:type2:output": "22 kW", "charging_station:output": "22 kW", "capacity": "2", "_source": "worldwide"}}, {"type": "node", "id": 4524280315, "lat": 51.033633, "lon": 6.918925, "tags": {"amenity": "charging_station", "access": "yes", "fee": "yes", "brand": "TankE", "opening_hours": "24/7", "operator": "TankE", "name": "TankE - TankE", "addr:country": "DE", "socket:type2": "2", "socket:type2:output": "22.0 kW", "charging_station:output": "22.0 kW", "capacity": "2", "authentication:none": "", "_source": "worldwide"}}, {"type": "node", "id": 11382642800, "lat": 51.03272, "lon": 6.919849, "tags": {"amenity": "charging_station", "fee": "yes", "brand": "Aral pulse", "opening_hours": "24/7", "operator": "BP Europa", "name": "BP Europa - Aral pulse", "addr:country": "DE", "socket:type2_combo": "2", "socket:type2_combo:output": "300.0 kW", "socket:chademo": "1", "socket:chademo:output": "100.0 kW", "charging_station:output": "300.0 kW", "capacity": "2", "authentication:none": "yes", "_source": "worldwide"}}, {"type": "node", "id": 4530382084, "lat": 51.441808, "lon": 6.611964, "tags": {"amenity": "charging_station", "access": "yes", "fee": "yes", "brand": "Tesla Supercharger", "opening_hours": "24/7", "operator": "Tesla", "name": "Moers Supercharger", "addr:street": "Krefelder Straße 169", "addr:postcode": "47447", "addr:city": "Moers", "addr:country": "DE", "socket:type2_combo": "12", "socket:type2_combo:output": "150.0 kW", "socket:tesla_supercharger": "12", "socket:tesla_supercharger:output": "150.0 kW", "charging_station:output": "150.0 kW", "capacity": "12", "_source": "worldwide"}}, {"type": "node", "id": 4605754939, "lat": 51.5242, "lon": 6.925952, "tags": {"amenity": "charging_station", "operator": "ELE", "name": "Ladestation Luise-Hensel-Straße", "addr:country": "DE", "capacity": "2", "_source": "worldwide"}}, {"type": "node", "id": 7925809828, "lat": 51.52468, "lon": 6.928546, "tags": {"amenity": "charging_station", "operator": "ELE", "name": "Ladestation ELE", "addr:country": "DE", "_source": "worldwide"}}, {"type": "node", "id": 4618683100, "lat": 51.125351, "lon": 6.786066, "tags": {"amenity": "charging_station", "fee": "no", "addr:country": "DE", "socket:schuko": "6", "socket:schuko:output": "2.3 kW", "charging_station:output": "2.3 kW", "capacity": "6", "_source": "worldwide"}}, {"type": "node", "id": 4693811628, "lat": 51.21563, "lon": 6.762062, "tags": {"amenity": "charging_station", "operator": "Stadtwerke Düsseldorf", "name": "Stadtwerke Düsseldorf Stromtanke", "addr:country": "DE", "capacity": "2", "_source": "worldwide"}}, {"type": "node", "id": 4782909026, "lat": 51.218117, "lon": 6.762387, "tags": {"amenity": "charging_station", "access": "limited", "fee": "no", "operator": "Stadtwerke Düsseldorf", "name": "Ladestation Stadtwerke Düsseldorf", "addr:country": "DE", "capacity": "4", "_source": "worldwide"}}, {"type": "node", "id": 8065958019, "lat": 51.215368, "lon": 6.760275, "tags": {"amenity": "charging_station", "access": "yes", "fee": "yes", "operator": "Stadtwerke Düsseldorf", "name": "Ladestation Stadtwerke Düsseldorf", "addr:country": "DE", "capacity": "2", "_source": "worldwide"}}, {"type": "node", "id": 12875024941, "lat": 51.215811, "lon": 6.758699, "tags": {"amenity": "charging_station", "access": "yes", "fee": "yes", "network": "Ladenetz.de", "opening_hours": "24/7", "operator": "Stadtwerke Düsseldorf", "name": "Stadtwerke Düsseldorf - Ladenetz.de", "addr:country": "DE", "socket:type2_combo": "2", "socket:type2_combo:output": "300.0 kW", "charging_station:output": "300.0 kW", "capacity": "2", "authentication:none": "yes", "_source": "worldwide"}}, {"type": "node", "id": 4695140728, "lat": 51.661649, "lon": 6.452109, "tags": {"amenity": "charging_station", "fee": "yes", "opening_hours": "24/7", "operator": "innogy", "name": "innogy Ladesäule Klever Straße", "addr:country": "DE", "socket:type2": "2", "socket:type2:output": "22 kW", "charging_station:output": "22 kW", "capacity": "2", "_source": "worldwide"}}, {"type": "node", "id": 7873799371, "lat": 51.660861, "lon": 6.451616, "tags": {"amenity": "charging_station", "fee": "yes", "opening_hours": "24/7", "operator": "innogy", "name": "innogy Ladesäule", "addr:country": "DE", "socket:type2": "2", "socket:type2:output": "22 kW", "charging_station:output": "22 kW", "capacity": "2", "_source": "worldwide"}}, {"type": "node", "id": 4700175613, "lat": 51.357088, "lon": 6.7456, "tags": {"amenity": "charging_station", "opening_hours": "24/7", "operator": "Stadtwerke Duisburg", "name": "Ladestation Stadtwerke Duisburg", "addr:country": "DE", "socket:type2": "2", "socket:type2:output": "22 kW", "socket:schuko": "2", "socket:schuko:output": "2.3 kW", "charging_station:output": "22 kW", "capacity": "2", "_source": "worldwide"}}, {"type": "node", "id": 4704772829, "lat": 51.226792, "lon": 6.950797, "tags": {"amenity": "charging_station", "brand": "Innogy", "operator": "RWE", "name": "Innogy", "addr:country": "DE", "_source": "worldwide"}}, {"type": "node", "id": 10052908250, "lat": 51.225688, "lon": 6.950764, "tags": {"amenity": "charging_station", "fee": "yes", "brand": "Allego", "operator": "Allego", "name": "Allego - Allego", "addr:country": "DE", "socket:type2": "2", "socket:type2:output": "22.0 kW", "charging_station:output": "22.0 kW", "capacity": "4", "_source": "worldwide"}}, {"type": "node", "id": 12883392122, "lat": 51.228156, "lon": 6.954337, "tags": {"amenity": "charging_station", "access": "yes", "addr:country": "DE", "_source": "worldwide"}}, {"type": "node", "id": 4714983286, "lat": 51.268061, "lon": 6.535362, "tags": {"amenity": "charging_station", "operator": "Restaurant Willicher Hof", "name": "Ladestation Restaurant Willicher Hof", "addr:country": "DE", "_source": "worldwide"}},