{"id": "43-27", "latMin": 43, "lonMin": 27, "latMax": 44, "lonMax": 28, "generated": "2026-04-16T18:39:07.989Z", "count": 3478, "pois": [{"type": "node", "id": 4718144276, "lat": 43.0005508, "lon": 27.1706718, "tags": {"amenity": "drinking_water"}}, {"type": "node", "id": 4718144277, "lat": 43.0003566, "lon": 27.1712243, "tags": {"fireplace": "yes", "tourism": "picnic_site"}}, {"type": "node", "id": 4718144279, "lat": 43.0005802, "lon": 27.1707361, "tags": {"fireplace": "yes", "tourism": "picnic_site"}}, {"type": "node", "id": 4718144275, "lat": 43.0003056, "lon": 27.1716266, "tags": {"amenity": "drinking_water"}}, {"type": "node", "id": 4718144278, "lat": 43.0003291, "lon": 27.1715944, "tags": {"fireplace": "yes", "tourism": "picnic_site"}}, {"type": "node", "id": 2576005374, "lat": 43.0196822, "lon": 27.0499223, "tags": {"amenity": "parking"}}, {"type": "node", "id": 1737098643, "lat": 43.0568241, "lon": 27.0397008, "tags": {"amenity": "fuel", "brand": "Петрол", "brand:en": "Petrol", "brand:wikidata": "Q24315", "name": "Петрол", "name:en": "Petrol", "operator": "Петрол АД"}}, {"type": "node", "id": 4485201098, "lat": 43.0644206, "lon": 27.0165538, "tags": {"amenity": "atm", "brand": "Банка ДСК", "brand:bg": "Банка ДСК", "brand:en": "DSK Bank", "brand:wikidata": "Q5206146", "operator": "Банка ДСК", "operator:wikidata": "Q5206146"}}, {"type": "node", "id": 4485200991, "lat": 43.0633799, "lon": 27.0229992, "tags": {"name": "Маркет \"КАРИНА\"", "name:bg": "Маркет \"КАРИНА\"", "name:en": "Market \"KARINA\"", "opening_hours": "Mo-Su 07:00-20:00", "shop": "supermarket"}}, {"type": "node", "id": 7857156407, "lat": 43.0763058, "lon": 27.0308948, "tags": {"amenity": "restaurant", "name": "Хан \"Кабината\""}}, {"type": "node", "id": 10014274940, "lat": 43.0923251, "lon": 27.0473582, "tags": {"amenity": "drinking_water"}}, {"type": "node", "id": 6615156915, "lat": 43.1202131, "lon": 27.0184428, "tags": {"amenity": "fuel"}}, {"type": "node", "id": 8086299020, "lat": 43.1359828, "lon": 27.0348085, "tags": {"man_made": "water_well"}}, {"type": "node", "id": 7857133908, "lat": 43.1821524, "lon": 27.0056874, "tags": {"shop": "convenience"}}, {"type": "node", "id": 9846869779, "lat": 43.1830246, "lon": 27.0097737, "tags": {"description": "military", "historic": "memorial", "memorial": "plaque", "wikimedia_commons": "File:Радко Димитриево ВСВ.jpg"}}, {"type": "node", "id": 9846869780, "lat": 43.1830559, "lon": 27.0097831, "tags": {"historic": "memorial", "memorial": "bust"}}, {"type": "node", "id": 9846865814, "lat": 43.1853002, "lon": 27.0341483, "tags": {"historic": "memorial"}}, {"type": "node", "id": 10039917781, "lat": 43.0799943, "lon": 27.0779525, "tags": {"amenity": "drinking_water"}}, {"type": "node", "id": 5256335427, "lat": 43.1056594, "lon": 27.1456531, "tags": {"amenity": "drinking_water"}}, {"type": "node", "id": 2429904808, "lat": 43.0354911, "lon": 27.2007003, "tags": {"amenity": "restaurant", "cuisine": "regional", "internet_access": "wlan", "internet_access:fee": "no", "name": "Странноприемница Гюрлата"}}, {"type": "node", "id": 2429905490, "lat": 43.0354438, "lon": 27.2007823, "tags": {"internet_access": "wlan", "name": "Гюрлата", "tourism": "hotel"}}, {"type": "node", "id": 11097180540, "lat": 43.0102339, "lon": 27.2487785, "tags": {"amenity": "drinking_water"}}, {"type": "node", "id": 11097170994, "lat": 43.0097132, "lon": 27.2499216, "tags": {"amenity": "drinking_water"}}, {"type": "node", "id": 10778039205, "lat": 43.0453415, "lon": 27.2322278, "tags": {"name": "Козя Пещера", "name:en": "Goat Cave", "tourism": "attraction"}}, {"type": "node", "id": 10046435421, "lat": 43.0552779, "lon": 27.2443959, "tags": {"email": "info@carpediembg.com", "internet_access": "yes", "name": "Carpe Diem", "phone": "+359 88 350 5017", "tourism": "hotel", "website": "https://carpediembg.com/"}}, {"type": "node", "id": 9846991689, "lat": 43.2058933, "lon": 27.0976335, "tags": {"description": "WWI", "historic": "memorial", "memorial": "war_memorial", "wikimedia_commons": "File:Ovcharovo 4.jpg"}}, {"type": "node", "id": 2707041705, "lat": 43.1773874, "lon": 27.1581266, "tags": {"amenity": "drinking_water"}}, {"type": "node", "id": 11465814129, "lat": 43.2048809, "lon": 27.2598572, "tags": {"historic": "memorial", "memorial": "obelisk"}}, {"type": "node", "id": 11642022283, "lat": 43.0164954, "lon": 27.2849992, "tags": {"amenity": "parking"}}, {"type": "node", "id": 3624819631, "lat": 43.0107481, "lon": 27.2925964, "tags": {"amenity": "drinking_water"}}, {"type": "node", "id": 2194503224, "lat": 43.0309097, "lon": 27.292921, "tags": {"amenity": "parking"}}, {"type": "node", "id": 2194503227, "lat": 43.0309648, "lon": 27.2927317, "tags": {"amenity": "parking"}}, {"type": "node", "id": 9894782293, "lat": 43.0522876, "lon": 27.2816544, "tags": {"amenity": "drinking_water"}}, {"type": "node", "id": 11109034521, "lat": 43.0503233, "lon": 27.3265239, "tags": {"amenity": "fuel"}}, {"type": "node", "id": 12105656044, "lat": 43.0495709, "lon": 27.3424726, "tags": {"brand": "Бурлекс", "brand:wikidata": "Q124736705", "name": "Бурлекс", "shop": "supermarket"}}, {"type": "node", "id": 2397490935, "lat": 43.0515076, "lon": 27.3631588, "tags": {"amenity": "fuel", "brand": "Петрол", "fuel:diesel": "yes", "fuel:octane_95": "yes", "note": "No discounts", "shop": "kiosk"}}, {"type": "node", "id": 11097085037, "lat": 43.0512627, "lon": 27.3621276, "tags": {"amenity": "drinking_water"}}, {"type": "node", "id": 11096962935, "lat": 43.0337788, "lon": 27.4370808, "tags": {"amenity": "drinking_water", "disabled": "true"}}, {"type": "node", "id": 11462936171, "lat": 43.0301722, "lon": 27.439457, "tags": {"historic": "memorial", "memorial": "statue"}}, {"type": "node", "id": 11096999236, "lat": 43.0343659, "lon": 27.4364349, "tags": {"man_made": "water_well"}}, {"type": "node", "id": 11463829552, "lat": 43.1429755, "lon": 27.279329, "tags": {"historic": "memorial"}}, {"type": "node", "id": 2674834250, "lat": 43.1999446, "lon": 27.3260061, "tags": {"amenity": "drinking_water", "name": "Атанасова чешма"}}, {"type": "node", "id": 2459756931, "lat": 43.1951242, "lon": 27.3300411, "tags": {"name": "Horemag", "shop": "supermarket"}}, {"type": "node", "id": 11135828485, "lat": 43.1255208, "lon": 27.4717721, "tags": {"amenity": "parking", "name": "Провадия - солницата", "parking": "surface", "surface": "ground"}}, {"type": "node", "id": 11135828427, "lat": 43.1305077, "lon": 27.4681377, "tags": {"tourism": "viewpoint"}}, {"type": "node", "id": 9724589052, "lat": 43.1643397, "lon": 27.4414123, "tags": {"shop": "convenience"}}, {"type": "node", "id": 11171713635, "lat": 43.1598226, "lon": 27.4445512, "tags": {"amenity": "fuel", "brand": "Петрол", "brand:en": "Petrol", "brand:wikidata": "Q24315", "name": "Петрол", "name:en": "Petrol", "opening_hours": "24/7", "phone": "+359 88 530 3675"}}, {"type": "node", "id": 11463828287, "lat": 43.1954446, "lon": 27.3936649, "tags": {"historic": "memorial"}}, {"type": "node", "id": 9724589054, "lat": 43.1682161, "lon": 27.4428948, "tags": {"name": "Моят магазин", "shop": "convenience"}}, {"type": "node", "id": 9724589055, "lat": 43.1704142, "lon": 27.4427077, "tags": {"shop": "convenience"}}, {"type": "node", "id": 9699611822, "lat": 43.1752898, "lon": 27.4371594, "tags": {"amenity": "hospital", "healthcare": "hospital", "name": "ДКЦ Провадия"}}, {"type": "node", "id": 9699611855, "lat": 43.1742052, "lon": 27.4371927, "tags": {"amenity": "hospital", "healthcare": "hospital", "name": "ЦСМП Провадия"}}, {"type": "node", "id": 4295595390, "lat": 43.174189, "lon": 27.4453444, "tags": {"amenity": "restaurant", "internet_access": "wlan", "name": "Ресторант Овеч", "name:en": "Ovech Restaurant"}}, {"type": "node", "id": 4295595391, "lat": 43.1747364, "lon": 27.4456407, "tags": {"name": "Западен вход на крепостта Овеч", "name:en": "West Entrance Ovech Fortress", "tourism": "information"}}, {"type": "node", "id": 7572739514, "lat": 43.1744851, "lon": 27.4453846, "tags": {"amenity": "parking"}}, {"type": "node", "id": 9689041381, "lat": 43.1779564, "lon": 27.4439326, "tags": {"amenity": "hospital", "healthcare": "hospital", "name": "МЦ ПроваМед"}}, {"type": "node", "id": 9689041415, "lat": 43.1779696, "lon": 27.4444386, "tags": {"access": "private", "amenity": "parking"}}, {"type": "node", "id": 9689056393, "lat": 43.1768269, "lon": 27.4447172, "tags": {"amenity": "parking"}}, {"type": "node", "id": 9689924138, "lat": 43.1776473, "lon": 27.4430294, "tags": {"brand": "CBA", "brand:wikidata": "Q779845", "name": "CBA", "shop": "supermarket"}}, {"type": "node", "id": 9689924139, "lat": 43.1779496, "lon": 27.4427262, "tags": {"name": "Градски хали", "shop": "supermarket"}}, {"type": "node", "id": 9689924293, "lat": 43.1774938, "lon": 27.4429068, "tags": {"amenity": "atm", "brand": "Fibank", "brand:bg": "Първа инвестиционна банка", "brand:en": "Fibank", "brand:wikidata": "Q3367065", "operator": "Fibank", "operator:wikidata": "Q3367065"}}, {"type": "node", "id": 9689924294, "lat": 43.1777218, "lon": 27.4435985, "tags": {"amenity": "cafe", "name": "Пианото"}}, {"type": "node", "id": 9689924295, "lat": 43.1781329, "lon": 27.4432218, "tags": {"amenity": "restaurant", "name": "Войводи"}}, {"type": "node", "id": 9690068582, "lat": 43.1726803, "lon": 27.4436388, "tags": {"amenity": "restaurant", "name": "Механа \"Бракониерски спомени\""}}, {"type": "node", "id": 9690098727, "lat": 43.172898, "lon": 27.444026, "tags": {"name": "Ламбова къща - Вароша", "tourism": "museum"}}, {"type": "node", "id": 9691049661, "lat": 43.1751151, "lon": 27.4426948, "tags": {"name": "Художествена галерия Провадия", "tourism": "gallery"}}, {"type": "node", "id": 9694768221, "lat": 43.1757927, "lon": 27.4414708, "tags": {"name": "Исторически музей Провадия", "tourism": "museum"}}, {"type": "node", "id": 9694768238, "lat": 43.1739885, "lon": 27.4418052, "tags": {"name": "Музейна експозиция", "tourism": "museum"}}, {"type": "node", "id": 9694768239, "lat": 43.1722508, "lon": 27.4430677, "tags": {"amenity": "parking"}}, {"type": "node", "id": 9724589056, "lat": 43.1731368, "lon": 27.4427705, "tags": {"name": "Тали Йълми", "shop": "convenience"}}, {"type": "node", "id": 2620723861, "lat": 43.1797212, "lon": 27.444672, "tags": {"access": "no", "amenity": "parking"}}, {"type": "node", "id": 9686450439, "lat": 43.1801854, "lon": 27.4429413, "tags": {"name": "Мерчо", "shop": "convenience"}}, {"type": "node", "id": 9689924141, "lat": 43.1785507, "lon": 27.4433492, "tags": {"amenity": "fast_food", "name": "RIVA"}}, {"type": "node", "id": 9689924296, "lat": 43.1790934, "lon": 27.4446194, "tags": {"amenity": "cafe", "name": "Refresh - Cafe&Bar"}}, {"type": "node", "id": 9689924297, "lat": 43.1792471, "lon": 27.4443044, "tags": {"amenity": "atm", "brand": "Банка ДСК", "brand:bg": "Банка ДСК", "brand:en": "DSK Bank", "brand:wikidata": "Q5206146", "operator": "Банка ДСК", "operator:wikidata": "Q5206146"}}, {"type": "node", "id": 9689924307, "lat": 43.1793335, "lon": 27.444013, "tags": {"amenity": "pharmacy", "dispensing": "yes", "healthcare": "pharmacy", "name": "Аптека Йорданова"}}, {"type": "node", "id": 9724588896, "lat": 43.1802975, "lon": 27.4443482, "tags": {"amenity": "pharmacy", "dispensing": "yes", "healthcare": "pharmacy", "name": "Равиа"}}, {"type": "node", "id": 9724589057, "lat": 43.1822356, "lon": 27.4414424, "tags": {"name": "Анна анонс 90", "shop": "convenience"}}, {"type": "node", "id": 7572739513, "lat": 43.1857294, "lon": 27.4431449, "tags": {"amenity": "restaurant", "check_date": "2025-01-26", "dog": "no", "name": "La Scala", "smoking": "outside", "toilets": "yes"}}, {"type": "node", "id": 9724654059, "lat": 43.1888178, "lon": 27.4434415, "tags": {"amenity": "fuel", "name": "Smax self-service", "self_service": "yes"}}, {"type": "node", "id": 9724654079, "lat": 43.1889152, "lon": 27.4446858, "tags": {"amenity": "fast_food", "brand": "GO Grill", "brand:wikidata": "Q137165486", "cuisine": "burger;grill", "name": "GO Grill", "takeaway": "yes"}}, {"type": "node", "id": 9724654093, "lat": 43.1906648, "lon": 27.4446698, "tags": {"amenity": "fuel", "brand": "Петрол", "brand:en": "Petrol", "brand:wikidata": "Q24315", "name": "Петрол", "name:en": "Petrol"}}, {"type": "node", "id": 11137650044, "lat": 43.1858302, "lon": 27.4429116, "tags": {"access": "customers", "amenity": "parking", "fee": "no", "parking": "surface"}}, {"type": "node", "id": 3107986335, "lat": 43.1752613, "lon": 27.4481732, "tags": {"name": "Източен вход на крепост Овеч", "tourism": "information"}}, {"type": "node", "id": 3107986406, "lat": 43.1753346, "lon": 27.4483153, "tags": {"amenity": "parking"}}, {"type": "node", "id": 13389385619, "lat": 43.1977959, "lon": 27.443684, "tags": {"access": "yes", "amenity": "charging_station", "authentication:app": "yes", "brand": "Fines Charging", "brand:wikidata": "Q128904354", "capacity": "2", "covered": "no", "description": "2x 180kW DC CCS2", "fee": "yes", "manufacturer": "Sungrow", "motorcar": "yes", "name": "Fines - Provadia Avtotransport", "name:en": "Fines - Provadia Avtotransport", "opening_hours": "24/7", "operator": "Финес Енерджи ООД", "operator:wikidata": "Q128904354", "parking:fee": "no", "payment:app": "yes", "socket:type2_combo": "2", "socket:type2_combo:output": "180", "website": "https://finescharging.com/location/LV-PROVADIA-NAID62"}}, {"type": "node", "id": 11217300722, "lat": 43.1983333, "lon": 27.4434376, "tags": {"amenity": "fuel", "fuel:diesel": "yes", "fuel:octane_92": "yes", "fuel:octane_95": "yes", "opening_hours": "24/7"}}, {"type": "node", "id": 1148015332, "lat": 43.2056824, "lon": 27.4414455, "tags": {"amenity": "fuel", "fuel:diesel": "yes", "fuel:lpg": "yes", "fuel:octane_95": "yes", "name": "Атол"}}, {"type": "node", "id": 3744111898, "lat": 43.1921421, "lon": 27.4544824, "tags": {"name": "Скален Манастир Шашкъните", "tourism": "attraction"}}, {"type": "node", "id": 12750192710, "lat": 43.217215, "lon": 27.4698987, "tags": {"natural": "spring"}}, {"type": "node", "id": 5733547521, "lat": 43.0293653, "lon": 27.5403158, "tags": {"historic": "memorial", "name": "Партизански паметник", "name:en": "Soviet monument"}}, {"type": "node", "id": 11096947854, "lat": 43.0294527, "lon": 27.5407282, "tags": {"amenity": "drinking_water"}}, {"type": "node", "id": 11462934926, "lat": 43.1031121, "lon": 27.4768536, "tags": {"historic": "memorial"}}, {"type": "node", "id": 11509518795, "lat": 43.090051, "lon": 27.570004, "tags": {"historic": "memorial", "memorial": "plaque"}}, {"type": "node", "id": 11509518796, "lat": 43.0900539, "lon": 27.5699249, "tags": {"historic": "memorial", "memorial": "bust"}}, {"type": "node", "id": 2299672420, "lat": 43.0131713, "lon": 27.6679199, "tags": {"amenity": "parking"}}, {"type": "node", "id": 9866660334, "lat": 43.1089453, "lon": 27.6048566, "tags": {"historic": "memorial"}}, {"type": "node", "id": 5646457921, "lat": 43.0960251, "lon": 27.6767196, "tags": {"name": "Скален манастир \"Благовещение\"", "name:en": "Cave monastery", "tourism": "attraction"}}, {"type": "node", "id": 7566734232, "lat": 43.0950662, "lon": 27.67746, "tags": {"amenity": "drinking_water", "name": "Стефанова чешма"}}, {"type": "node", "id": 7566734233, "lat": 43.0959162, "lon": 27.676414, "tags": {"leisure": "picnic_table"}}, {"type": "node", "id": 9866586332, "lat": 43.1268207, "lon": 27.5266327, "tags": {"historic": "memorial"}}, {"type": "node", "id": 9891612969, "lat": 43.160932, "lon": 27.5736062, "tags": {"historic": "memorial", "memorial": "statue"}}, {"type": "node", "id": 12197487146, "lat": 43.1778592, "lon": 27.518, "tags": {"shop": "convenience"}}, {"type": "node", "id": 12750192711, "lat": 43.2167156, "lon": 27.4754816, "tags": {"natural": "spring"}}, {"type": "node", "id": 7851292936, "lat": 43.1972373, "lon": 27.5052859, "tags": {"leisure": "picnic_table", "name": "Беседка"}}, {"type": "node", "id": 7851372806, "lat": 43.2027287, "lon": 27.5069628, "tags": {"amenity": "drinking_water", "name": "Иванчова чешма"}}, {"type": "node", "id": 7851330389, "lat": 43.2150656, "lon": 27.4992205, "tags": {"amenity": "drinking_water", "fee": "no"}}, {"type": "node", "id": 7851367034, "lat": 43.2155972, "lon": 27.5007091, "tags": {"amenity": "drinking_water", "fee": "no"}}, {"type": "node", "id": 11171730658, "lat": 43.1192695, "lon": 27.595679, "tags": {"amenity": "fuel", "brand": "Петрол", "brand:en": "Petrol", "brand:wikidata": "Q24315", "name": "Петрол", "name:en": "Petrol"}}, {"type": "node", "id": 1445444342, "lat": 43.1417287, "lon": 27.6316223, "tags": {"tourism": "picnic_site"}}, {"type": "node", "id": 4795647905, "lat": 43.1512558, "lon": 27.640692, "tags": {"amenity": "drinking_water"}}, {"type": "node", "id": 1445444131, "lat": 43.15369, "lon": 27.64152, "tags": {"name": "Хижа Петрича", "tourism": "hotel"}}, {"type": "node", "id": 1445444875, "lat": 43.1602546, "lon": 27.6388436, "tags": {"amenity": "drinking_water"}}, {"type": "node", "id": 8153465417, "lat": 43.162339, "lon": 27.6429392, "tags": {"name": "Крепост Петрича", "name:en": "Petricha fortress", "tourism": "attraction"}}, {"type": "node", "id": 1445445049, "lat": 43.16679, "lon": 27.63933, "tags": {"amenity": "drinking_water"}}, {"type": "node", "id": 2299489158, "lat": 43.1959722, "lon": 27.646793, "tags": {"amenity": "parking"}}, {"type": "node", "id": 4899615023, "lat": 43.1928785, "lon": 27.649318, "tags": {"historic": "memorial", "name": "ULUSLARARASI GEMİ LIMANI", "name:bg": "ULUSLARARASI GEMİ LIMANI"}}, {"type": "node", "id": 9775547297, "lat": 43.2034974, "lon": 27.660306, "tags": {"amenity": "parking"}}, {"type": "node", "id": 9775547307, "lat": 43.2036004, "lon": 27.6610986, "tags": {"amenity": "parking"}}, {"type": "node", "id": 11270684600, "lat": 43.2110743, "lon": 27.6795298, "tags": {"tourism": "viewpoint"}}, {"type": "node", "id": 11270698325, "lat": 43.2075139, "lon": 27.6798785, "tags": {"tourism": "viewpoint"}}, {"type": "node", "id": 2906082128, "lat": 43.0404338, "lon": 27.7595647, "tags": {"tourism": "picnic_site"}}, {"type": "node", "id": 2906082129, "lat": 43.0405342, "lon": 27.759397, "tags": {"amenity": "drinking_water"}}, {"type": "node", "id": 1863907117, "lat": 43.05306, "lon": 27.77477, "tags": {"amenity": "drinking_water"}}, {"type": "node", "id": 1863907118, "lat": 43.0712336, "lon": 27.7521234, "tags": {"amenity": "drinking_water"}}, {"type": "node", "id": 9939995133, "lat": 43.0215549, "lon": 27.8246704, "tags": {"access": "customers", "amenity": "parking", "capacity:disabled": "no", "capacity:parent": "no", "capacity:women": "no", "fee": "no", "parking": "street_side", "smoothness": "good", "supervised": "no", "surface": "asphalt"}}, {"type": "node", "id": 9939995134, "lat": 43.0214215, "lon": 27.8246221, "tags": {"amenity": "restaurant", "cuisine": "frozen_yogurt", "delivery": "no", "name": "Пода", "opening_hours": "Tu-Su 10:00-18:00; Mo off", "outdoor_seating": "yes", "reservation": "no", "smoking": "outside", "takeaway": "yes"}}, {"type": "node", "id": 8909921222, "lat": 43.0584858, "lon": 27.8103478, "tags": {"name": "Селският Супермаркет", "shop": "supermarket"}}, {"type": "node", "id": 9865496818, "lat": 43.0195024, "lon": 27.8792869, "tags": {"addr:street": "Верхняя Камчийская улица", "amenity": "restaurant", "cuisine": "balkan", "name": "Нимфа", "name:en": "Nimpf", "opening_hours": "Mo-Su 09:00-22:00"}}, {"type": "node", "id": 9865496819, "lat": 43.0194599, "lon": 27.8793378, "tags": {"addr:street": "Горен Камчийская", "internet_access": "wlan", "name": "Нимфа", "name:en": "Ning’s", "opening_hours": "Mo-Su 09:00-20:00", "phone": "+359 89 742 7151", "tourism": "caravan_site"}}, {"type": "node", "id": 9865497317, "lat": 43.0194061, "lon": 27.879402, "tags": {"name": "Девин", "name:en": "Devin", "tourism": "caravan_site"}}, {"type": "node", "id": 9865496820, "lat": 43.0223478, "lon": 27.8788149, "tags": {"addr:street": "горно-заповедна", "amenity": "restaurant", "cuisine": "balkan;barbecue;deli;greek;italian", "internet_access": "wlan", "name": "Стара та лодка", "name:en": "Old fregat", "name:ru": "Старая лодка", "phone": "+359 89 913 1386", "website": "https://staratalodka.com/"}}, {"type": "node", "id": 9865497318, "lat": 43.0226315, "lon": 27.8780647, "tags": {"addr:street": "Долен Камчия", "internet_access": "wlan", "name": "Кендрос", "name:en": "Kendros", "opening_hours": "24/7", "phone": "+359 87 701 2017", "tourism": "hotel"}}, {"type": "node", "id": 9865497417, "lat": 43.024208, "lon": 27.8786672, "tags": {"amenity": "cafe"}}, {"type": "node", "id": 291461556, "lat": 43.0219948, "lon": 27.8841951, "tags": {"ele": "2.7", "name": "Камчия", "tourism": "camp_site"}}, {"type": "node", "id": 4405738990, "lat": 43.0265722, "lon": 27.879312, "tags": {"addr:city": "Близнаци", "addr:postcode": "9132", "internet_access": "no", "name": "ПБ ТСВ - Камчия", "note": "Бунгала", "operator": "ДП \"ТСВ\" - Варна", "phone": "+359 88 431 5886;+359 514 43 81", "shower": "yes", "smoking": "outside", "toilets": "yes", "tourism": "camp_site", "website": "http://www.namore.info/hoteli.php?HOTEL=view&id=1403"}}, {"type": "node", "id": 6357826836, "lat": 43.0227684, "lon": 27.8829966, "tags": {"amenity": "restaurant", "cuisine": "regional", "name": "Старата лодка", "name:en": "Old Boat", "name:pl": "Stara Łódka", "website": "https://staratalodka.com/"}}, {"type": "node", "id": 6591912349, "lat": 43.0241283, "lon": 27.8811367, "tags": {"amenity": "restaurant", "name": "Ресторант Крузо"}}, {"type": "node", "id": 7569611185, "lat": 43.025168, "lon": 27.8843072, "tags": {"amenity": "restaurant", "cuisine": "balkan", "name": "При братчеда", "opening_hours": "Jun-Aug: Mo-Su 11:00-23:00; Sep-May: Mo-Su 11:00-22:00", "outdoor_seating": "yes", "phone": "+359 887 977 395"}}, {"type": "node", "id": 9861796517, "lat": 43.0222619, "lon": 27.885096, "tags": {"addr:street": "кольцевая", "name": "Камчийски рай", "name:en": "Kamchia paradise", "opening_hours": "Mo-Su 09:00-21:00", "shop": "convenience"}}, {"type": "node", "id": 9861831717, "lat": 43.0221506, "lon": 27.8849662, "tags": {"addr:city": "Близнаци", "addr:housenumber": "9027", "addr:postcode": "9027", "addr:street": "к.к. Камчия", "amenity": "restaurant", "contact:facebook": "https://www.facebook.com/Shturaci/", "cuisine": "pizza;regional;coffee_shop;italian;sandwich;french;greek;seafood;ice_cream", "diet:vegan": "yes", "diet:vegetarian": "yes", "name": "ЩуРаци", "name:en": "Shturatsi Restaurant", "opening_hours": "Mo-Su 09:00-23:00", "phone": "+359 87 840 7800"}}, {"type": "node", "id": 9861877017, "lat": 43.0223075, "lon": 27.885049, "tags": {"addr:street": "Круговая", "amenity": "restaurant", "internet_access": "wlan", "name": "Златна Рибка", "name:en": "Golden Fish", "name:ru": "Золотая рыбка", "opening_hours": "Mo-Su 10:00-22:00", "phone": "+359 88 705 4226"}}, {"type": "node", "id": 13142709557, "lat": 43.0226504, "lon": 27.8852471, "tags": {"amenity": "parking", "parking": "surface"}}, {"type": "node", "id": 13142709558, "lat": 43.0265957, "lon": 27.8832526, "tags": {"artwork_type": "sculpture", "image": "https://photos.app.goo.gl/9afHJkhJZDu7iS9q7", "tourism": "artwork"}}, {"type": "node", "id": 13142709559, "lat": 43.0264872, "lon": 27.8831743, "tags": {"board_type": "nature", "image": "https://photos.app.goo.gl/c9BdbPyP1WtMivcn6", "information": "board", "tourism": "information"}}, {"type": "node", "id": 5861454943, "lat": 43.022977, "lon": 27.8875011, "tags": {"historic": "memorial", "image": "https://photos.app.goo.gl/BA3e828bnbbvr3gp8", "name": "Паметник на подводничарите"}}, {"type": "node", "id": 9861831618, "lat": 43.0222719, "lon": 27.8856812, "tags": {"addr:street": "Камчийская нижная", "email": "boattripskamchia@gmail.com", "name": "Лястовица бяла клуб", "name:en": "club lastovica byala", "name:ru": "клуб белая ласточка", "opening_hours": "Mo-Su 09:00-21:00", "phone": "+359 87 616 4401", "tourism": "attraction", "website": "http://www.Lucyriverhouse.com"}}, {"type": "node", "id": 6357684101, "lat": 43.0293696, "lon": 27.8805605, "tags": {"addr:city": "Камчия", "addr:postcode": "9130", "name": "Park Hotel Orpheus Palace", "stars": "3", "tourism": "hotel"}}, {"type": "node", "id": 5224884025, "lat": 43.0288229, "lon": 27.8873928, "tags": {"tourism": "picnic_site"}}, {"type": "node", "id": 9866373717, "lat": 43.0286779, "lon": 27.887311, "tags": {"addr:street": "набережная Камчия центральный пляж", "amenity": "restaurant", "name": "Кристалл", "name:en": "Kristall", "opening_hours": "Mo-Su 09:00-18:00"}}, {"type": "node", "id": 4216799689, "lat": 43.0506712, "lon": 27.8658016, "tags": {"email": "info@premierbgmaintenance.com", "internet_access": "wlan", "name": "Oasis Beach Resort Kamchia", "phone": "+359 87 834 1103", "tourism": "hotel", "website": "https://obk.bg/"}}, {"type": "node", "id": 6588206432, "lat": 43.0400633, "lon": 27.8845867, "tags": {"addr:city": "Аврен", "addr:postcode": "9132", "description": "bungalows, caravans, campers and tents are allowed", "dog": "yes", "email": "kamchiavarna@abv.bg", "name": "Neptun", "operator": "Нептун-НВ", "phone": "+359 89 931 0172;+359 89 838 9710;+359 89 934 0061", "tourism": "camp_site", "website": "https://campingneptun.com/"}}, {"type": "node", "id": 2992930038, "lat": 43.0364758, "lon": 27.8866362, "tags": {"addr:city": "Аврен", "addr:postcode": "9132", "dog": "yes", "email": "info@campingrai.com", "name": "Къмпинг Рай", "phone": "+359 89 915 5481", "power_supply": "yes", "shower": "yes", "toilets": "yes", "tourism": "camp_site", "website": "https://campingrai.com/"}}, {"type": "node", "id": 4972069825, "lat": 43.039496, "lon": 27.888344, "tags": {"amenity": "restaurant", "name": "Панорама", "name:bg": "Панорама", "name:en": "Panorama"}}, {"type": "node", "id": 6586335954, "lat": 43.03659, "lon": 27.8865, "tags": {"amenity": "fast_food", "name": "Lotos"}}, {"type": "node", "id": 9861114417, "lat": 43.037583, "lon": 27.8859711, "tags": {"addr:street": "рай", "name": "Valentino", "opening_hours": "Mo-Su 06:30-23:30", "phone": "+359 88 510 0077", "shop": "convenience"}}, {"type": "node", "id": 9865496817, "lat": 43.0350592, "lon": 27.8872933, "tags": {"addr:street": "берег моря", "amenity": "restaurant", "name": "Балатон", "name:en": "Balaton", "opening_hours": "Mo-Su 11:00-23:00"}}, {"type": "node", "id": 4361458317, "lat": 43.0407889, "lon": 27.8884131, "tags": {"name": "Къмпинг Романтика", "tourism": "camp_site", "website": "https://romantika-kamchia.com/"}}, {"type": "node", "id": 10038261442, "lat": 43.1098229, "lon": 27.8235216, "tags": {"name": "Kai Vogelhaupt", "tourism": "guest_house"}}, {"type": "node", "id": 1582185103, "lat": 43.1057929, "lon": 27.8328799, "tags": {"amenity": "fuel", "brand": "Benita", "fuel:diesel": "yes", "fuel:octane_95": "yes", "fuel:octane_98": "no", "shop": "convenience"}}, {"type": "node", "id": 2965747577, "lat": 43.1065853, "lon": 27.8315064, "tags": {"amenity": "fuel", "brand": "Gazprom"}}, {"type": "node", "id": 4942970817, "lat": 43.1120881, "lon": 27.8280929, "tags": {"amenity": "restaurant"}}, {"type": "node", "id": 5144014949, "lat": 43.1065387, "lon": 27.8313588, "tags": {"amenity": "charging_station", "capacity": "1", "motorcar": "yes", "note": "Unit has three cables with different connectors (can be 1x AC, 2x DC)", "operator": "Gazprom"}}, {"type": "node", "id": 5934017923, "lat": 43.1115783, "lon": 27.8278908, "tags": {"name": "Денислав", "shop": "supermarket"}}, {"type": "node", "id": 5934017926, "lat": 43.1112766, "lon": 27.8286955, "tags": {"shop": "bakery"}}, {"type": "node", "id": 11272233991, "lat": 43.1113632, "lon": 27.8283496, "tags": {"amenity": "fast_food", "name": "Yalla Street Food"}}, {"type": "node", "id": 1446800135, "lat": 43.12305, "lon": 27.73842, "tags": {"shop": "convenience"}}, {"type": "node", "id": 1446800145, "lat": 43.1237, "lon": 27.74027, "tags": {"shop": "convenience"}}, {"type": "node", "id": 1446800160, "lat": 43.1246635, "lon": 27.7408833, "tags": {"shop": "convenience"}}, {"type": "node", "id": 1863907119, "lat": 43.1625194, "lon": 27.7773119, "tags": {"amenity": "drinking_water"}}, {"type": "node", "id": 12486227001, "lat": 43.1617837, "lon": 27.7777707, "tags": {"name": "Hit price market", "shop": "convenience"}}, {"type": "node", "id": 13656284661, "lat": 43.1629866, "lon": 27.7775588, "tags": {"amenity": "shelter", "shelter_type": "gazebo"}}, {"type": "node", "id": 4730603623, "lat": 43.1652047, "lon": 27.7818921, "tags": {"name": "Минимаркет", "shop": "supermarket"}}, {"type": "node", "id": 4839217159, "lat": 43.1734331, "lon": 27.695522, "tags": {"amenity": "drinking_water"}}, {"type": "node", "id": 8157548117, "lat": 43.1732022, "lon": 27.6970944, "tags": {"name:en": "concrete stand", "tourism": "attraction"}}, {"type": "node", "id": 8157548217, "lat": 43.1738877, "lon": 27.6955753, "tags": {"name:en": "Stone forest", "tourism": "attraction"}}, {"type": "node", "id": 6357067813, "lat": 43.1874927, "lon": 27.6891627, "tags": {"amenity": "drinking_water"}}, {"type": "node", "id": 10687450838, "lat": 43.1844719, "lon": 27.7071433, "tags": {"name": "МИГ 24/7", "shop": "supermarket"}}, {"type": "node", "id": 9424472665, "lat": 43.1887168, "lon": 27.7015807, "tags": {"level": "0", "name": "Магазин - \"Цезара\"", "shop": "supermarket"}}, {"type": "node", "id": 9424472666, "lat": 43.1863494, "lon": 27.7012426, "tags": {"level": "0", "name": "Магазин", "shop": "supermarket"}}, {"type": "node", "id": 9424516667, "lat": 43.1863142, "lon": 27.7043815, "tags": {"level": "0", "name": "My Market", "shop": "supermarket"}}, {"type": "node", "id": 10687450742, "lat": 43.1906948, "lon": 27.7063276, "tags": {"amenity": "restaurant", "name": "High M club"}}, {"type": "node", "id": 13389359196, "lat": 43.1893122, "lon": 27.7051109, "tags": {"access": "yes", "amenity": "charging_station", "authentication:app": "yes", "brand": "Fines Charging", "brand:wikidata": "Q128904354", "capacity": "1", "covered": "no", "description": "1x 22kW AC Type2", "fee": "yes", "manufacturer": "Vestel", "motorcar": "yes", "name": "Fines - Beloslav Varna", "name:en": "Fines - Beloslav Varna", "network": "Fines Charging", "opening_hours": "24/7", "operator": "Финес Енерджи ООД", "operator:wikidata": "Q128904354", "parking:fee": "no", "payment:app": "yes", "socket:type2": "1", "socket:type2:output": "22 kW", "website": "https://finescharging.com/location/LV-Beloslav-001"}}, {"type": "node", "id": 4730943660, "lat": 43.1896746, "lon": 27.7097112, "tags": {"historic": "memorial", "name": "Кръста", "name:en": "Cross"}}, {"type": "node", "id": 1863907121, "lat": 43.19198, "lon": 27.69988, "tags": {"amenity": "drinking_water"}}, {"type": "node", "id": 9424387397, "lat": 43.192018, "lon": 27.7049427, "tags": {"amenity": "atm", "brand": "Банка ДСК", "brand:bg": "Банка ДСК", "brand:en": "DSK Bank", "brand:wikidata": "Q5206146", "level": "0", "operator": "Банка ДСК", "operator:wikidata": "Q5206146"}}, {"type": "node", "id": 9424609558, "lat": 43.1920974, "lon": 27.7082602, "tags": {"amenity": "pharmacy", "healthcare": "pharmacy", "level": "0", "name": "Бел Ком Фарма"}}, {"type": "node", "id": 9424669437, "lat": 43.1921916, "lon": 27.705004, "tags": {"level": "0", "name": "Магазин", "shop": "supermarket"}}, {"type": "node", "id": 9894846931, "lat": 43.1918539, "lon": 27.7072821, "tags": {"amenity": "atm"}}, {"type": "node", "id": 9894846947, "lat": 43.1920357, "lon": 27.7084309, "tags": {"addr:city": "Белослав", "name": "\"Денислав\"", "payment:cash": "yes", "payment:coins": "yes", "payment:credit_cards": "yes", "payment:mastercard": "yes", "payment:visa": "yes", "shop": "supermarket"}}, {"type": "node", "id": 9894846960, "lat": 43.1918338, "lon": 27.7074719, "tags": {"name": "\"Борсата\"", "shop": "supermarket"}}, {"type": "node", "id": 10687450724, "lat": 43.191834, "lon": 27.7081299, "tags": {"name": "Денислав", "shop": "bakery"}}, {"type": "node", "id": 10687450737, "lat": 43.1921145, "lon": 27.7083542, "tags": {"amenity": "fast_food", "name": "Ретрото"}}, {"type": "node", "id": 10687450738, "lat": 43.1919085, "lon": 27.7071895, "tags": {"amenity": "fast_food", "cuisine": "kebab", "name": "при Багера"}}, {"type": "node", "id": 4866667978, "lat": 43.2065182, "lon": 27.7053425, "tags": {"amenity": "drinking_water"}}, {"type": "node", "id": 6357067821, "lat": 43.1934049, "lon": 27.7139208, "tags": {"amenity": "fuel", "name": "Centrum Oil"}}, {"type": "node", "id": 7851349160, "lat": 43.1939997, "lon": 27.7104066, "tags": {"name": "Пекарна", "shop": "bakery"}}, {"type": "node", "id": 7851353818, "lat": 43.1943333, "lon": 27.7128325, "tags": {"name": "Музей на стъклото", "opening_hours": "Mo-Sa 10:00-15:00", "tourism": "museum", "website": "http://inhomglass.com/%D0%BC%D1%83%D0%B7%D0%B5%D0%B9-%D0%BD%D0%B0-%D1%81%D1%82%D1%8A%D0%BA%D0%BB%D0%BE%D1%82%D0%BE/", "wikidata": "Q114290409", "wikipedia": "bg:Музей на стъклото"}}, {"type": "node", "id": 7851353912, "lat": 43.194674, "lon": 27.7130343, "tags": {"name": "Подводница \"Слава\"", "opening_hours": "Mo-Sa 10:00-15:00", "tourism": "museum", "wikidata": "Q3486557"}}, {"type": "node", "id": 7857117743, "lat": 43.1940054, "lon": 27.7115723, "tags": {"amenity": "parking"}}, {"type": "node", "id": 7857117746, "lat": 43.1941281, "lon": 27.7103562, "tags": {"amenity": "restaurant", "name": "Белия Дъб"}}, {"type": "node", "id": 9424532828, "lat": 43.1934309, "lon": 27.7104417, "tags": {"indoor": "room", "level": "0", "name": "Пекарна - \"Емо\"", "room": "shop", "shop": "bakery"}}, {"type": "node", "id": 9894846937, "lat": 43.1934077, "lon": 27.7087996, "tags": {"amenity": "atm"}}, {"type": "node", "id": 10702624490, "lat": 43.1922698, "lon": 27.7125766, "tags": {"name": "Premium маркет", "shop": "convenience"}}, {"type": "node", "id": 11985543796, "lat": 43.1936969, "lon": 27.709036, "tags": {"name": "Надпис \"Белослав\"", "tourism": "attraction"}}, {"type": "node", "id": 7857148638, "lat": 43.1915952, "lon": 27.7195544, "tags": {"amenity": "fuel", "brand": "Петрол", "brand:en": "Petrol", "brand:wikidata": "Q24315", "name": "Петрол", "name:en": "Petrol"}}, {"type": "node", "id": 1998541558, "lat": 43.198941, "lon": 27.71301, "tags": {"amenity": "fuel", "fuel:diesel": "yes", "fuel:octane_95": "yes"}}, {"type": "node", "id": 4730603624, "lat": 43.1655187, "lon": 27.7819873, "tags": {"name": "Минимаркет", "shop": "supermarket"}}, {"type": "node", "id": 293275061, "lat": 43.1294985, "lon": 27.8132343, "tags": {"amenity": "parking", "name:en": "Haramiata"}}, {"type": "node", "id": 2965747578, "lat": 43.1293816, "lon": 27.8131931, "tags": {"amenity": "fuel", "brand": "Perfect"}}, {"type": "node", "id": 10038239610, "lat": 43.1159047, "lon": 27.8178821, "tags": {"name": "Приселски рид", "tourism": "guest_house"}}, {"type": "node", "id": 10043929011, "lat": 43.1137094, "lon": 27.8266447, "tags": {"name": "Турски супермаркет Kipa", "shop": "supermarket"}}, {"type": "node", "id": 10074201463, "lat": 43.1131365, "lon": 27.8274713, "tags": {"amenity": "atm"}}, {"type": "node", "id": 293275046, "lat": 43.1298458, "lon": 27.8135576, "tags": {"amenity": "restaurant", "name": "Харамията"}}, {"type": "node", "id": 1749677283, "lat": 43.1507465, "lon": 27.8326565, "tags": {"amenity": "drinking_water", "designation": "Арап чешма"}}, {"type": "node", "id": 1749688932, "lat": 43.1559632, "lon": 27.8370741, "tags": {"amenity": "drinking_water"}}, {"type": "node", "id": 1863907090, "lat": 43.14327, "lon": 27.84682, "tags": {"amenity": "drinking_water", "name": "Перлей екини (неизв)"}}, {"type": "node", "id": 1749690425, "lat": 43.1600564, "lon": 27.84971, "tags": {"amenity": "drinking_water"}}, {"type": "node", "id": 1767933889, "lat": 43.1433497, "lon": 27.8816091, "tags": {"amenity": "drinking_water"}}, {"type": "node", "id": 1767935060, "lat": 43.1435221, "lon": 27.885469, "tags": {"amenity": "drinking_water"}}, {"type": "node", "id": 1749585695, "lat": 43.1547503, "lon": 27.8804631, "tags": {"amenity": "drinking_water"}}, {"type": "node", "id": 12668938942, "lat": 43.1522024, "lon": 27.889781, "tags": {"shop": "supermarket"}}, {"type": "node", "id": 2025087487, "lat": 43.2148176, "lon": 27.7961396, "tags": {"amenity": "parking"}}, {"type": "node", "id": 2295993564, "lat": 43.2164344, "lon": 27.7951705, "tags": {"amenity": "parking"}}, {"type": "node", "id": 2000945221, "lat": 43.2174702, "lon": 27.8053913, "tags": {"amenity": "drinking_water"}}, {"type": "node", "id": 12759523305, "lat": 43.1971264, "lon": 27.8185964, "tags": {"amenity": "shelter", "shelter_type": "gazebo"}}, {"type": "node", "id": 3886565694, "lat": 43.1978179, "lon": 27.8208906, "tags": {"amenity": "drinking_water"}}, {"type": "node", "id": 3886548890, "lat": 43.1982038, "lon": 27.8226448, "tags": {"name": "Стармаркет", "shop": "supermarket"}}, {"type": "node", "id": 9794069858, "lat": 43.2045194, "lon": 27.8393177, "tags": {"amenity": "parking", "operator": "Bio Petrol"}}, {"type": "node", "id": 13451132403, "lat": 43.2157703, "lon": 27.8216832, "tags": {"amenity": "drinking_water", "fee": "no", "operator": "Налбант чешме"}}, {"type": "node", "id": 9794069857, "lat": 43.2070887, "lon": 27.8395283, "tags": {"amenity": "parking", "operator": "VMS Partners", "operator:type": "private"}}, {"type": "node", "id": 1863907109, "lat": 43.17871, "lon": 27.84665, "tags": {"amenity": "drinking_water", "name": "Чешма, Магистрала"}}, {"type": "node", "id": 5719986511, "lat": 43.181867, "lon": 27.8631765, "tags": {"amenity": "drinking_water"}}, {"type": "node", "id": 5719987033, "lat": 43.1795303, "lon": 27.8635483, "tags": {"historic": "archaeological_site", "name": "Шкорпилова могила"}}, {"type": "node", "id": 13142712699, "lat": 43.1699883, "lon": 27.8720527, "tags": {"natural": "spring"}}, {"type": "node", "id": 1749650142, "lat": 43.1750523, "lon": 27.8876243, "tags": {"shop": "convenience"}}, {"type": "node", "id": 9604743466, "lat": 43.1770988, "lon": 27.8918278, "tags": {"addr:housenumber": "153", "addr:street": "бул. Св. св. Кирил и Методий", "name": "Вик-Мар", "shop": "convenience"}}, {"type": "node", "id": 9625247692, "lat": 43.1760384, "lon": 27.8916908, "tags": {"amenity": "parking"}}, {"type": "node", "id": 5036023690, "lat": 43.1823147, "lon": 27.8720945, "tags": {"historic": "memorial", "name": "Херман Шкорпил"}}, {"type": "node", "id": 5036023691, "lat": 43.1825161, "lon": 27.8722072, "tags": {"historic": "archaeological_site", "name": "Базилика"}}, {"type": "node", "id": 12112511208, "lat": 43.1869242, "lon": 27.8787907, "tags": {"historic": "memorial"}}, {"type": "node", "id": 289449333, "lat": 43.1842531, "lon": 27.8919403, "tags": {"amenity": "fuel", "brand": "Лукойл", "brand:bg": "Лукойл", "brand:en": "Lukoil", "brand:wikidata": "Q329347", "ele": "6.7", "fuel:diesel": "yes", "fuel:lpg": "yes", "fuel:octane_95": "yes", "fuel:octane_98": "yes", "name": "Лукойл", "name:bg": "Лукойл", "name:en": "Lukoil", "opening_hours": "24/7"}}, {"type": "node", "id": 3877079792, "lat": 43.1848541, "lon": 27.8891563, "tags": {"addr:city": "Варна", "addr:postcode": "9003", "brand": "Billa", "brand:wikidata": "Q537781", "name": "Billa", "opening_hours": "Mo-Su 07:30-22:00", "phone": "+359 52 703 940", "shop": "supermarket"}}, {"type": "node", "id": 5718235346, "lat": 43.1835045, "lon": 27.8876821, "tags": {"amenity": "drinking_water"}}, {"type": "node", "id": 6440275887, "lat": 43.1842687, "lon": 27.8894115, "tags": {"amenity": "drinking_water", "name:en": "mineral water spring", "name:fr": "source d'eau minérale potable"}}, {"type": "node", "id": 9604732133, "lat": 43.179158, "lon": 27.8861334, "tags": {"direction": "345", "name": "Мрежата", "tourism": "viewpoint"}}, {"type": "node", "id": 9604743464, "lat": 43.1786635, "lon": 27.8903586, "tags": {"addr:housenumber": "21", "addr:street": "Дедеагач", "name": "Ники Маркет", "shop": "convenience"}}, {"type": "node", "id": 9609028077, "lat": 43.1797168, "lon": 27.8883272, "tags": {"amenity": "cafe", "name": "Стефано"}}, {"type": "node", "id": 9625247633, "lat": 43.1859862, "lon": 27.8833246, "tags": {"amenity": "parking"}}, {"type": "node", "id": 9794069856, "lat": 43.2084302, "lon": 27.8399385, "tags": {"amenity": "parking"}}, {"type": "node", "id": 1157203856, "lat": 43.2121926, "lon": 27.8579486, "tags": {"amenity": "fuel", "fuel:diesel": "yes", "fuel:lpg": "yes", "fuel:octane_95": "yes", "fuel:octane_98": "yes"}}, {"type": "node", "id": 1950339299, "lat": 43.2128814, "lon": 27.8657089, "tags": {"amenity": "cafe"}}, {"type": "node", "id": 1950339327, "lat": 43.2127402, "lon": 27.865766, "tags": {"amenity": "fast_food"}}, {"type": "node", "id": 8676643039, "lat": 43.2166999, "lon": 27.8609017, "tags": {"access": "customers", "amenity": "parking"}}, {"type": "node", "id": 8663844294, "lat": 43.1931063, "lon": 27.8850132, "tags": {"access": "customers", "amenity": "parking"}}, {"type": "node", "id": 2625443200, "lat": 43.2163381, "lon": 27.8701084, "tags": {"amenity": "cafe", "cuisine": "coffee_shop", "int_name": "Jordani Cafe", "name": "Jordani Cafe", "name:en": "Jordani Cafe"}}, {"type": "node", "id": 9464382214, "lat": 43.2157245, "lon": 27.8680336, "tags": {"amenity": "fast_food", "name": "При Ицо"}}, {"type": "node", "id": 11239984651, "lat": 43.2119335, "lon": 27.877923, "tags": {"amenity": "fuel", "brand": "Rompetrol", "brand:wikidata": "Q1788862", "compressed_air": "yes", "name": "Rompetrol", "name:bg": "Ромпетрол", "opening_hours": "24/7"}}, {"type": "node", "id": 1090522050, "lat": 43.2124205, "lon": 27.8799257, "tags": {"amenity": "fuel", "brand": "Лукойл", "brand:bg": "Лукойл", "brand:en": "Lukoil", "brand:wikidata": "Q329347", "fuel:diesel": "yes", "fuel:octane_95": "yes", "name": "Лукойл", "name:bg": "Лукойл", "name:en": "Lukoil", "operator": "Лукойл България ЕООД", "ref": "Б132"}}, {"type": "node", "id": 7576278350, "lat": 43.0500867, "lon": 27.8968002, "tags": {"tourism": "picnic_site"}}, {"type": "node", "id": 13265092352, "lat": 43.049863, "lon": 27.8976903, "tags": {"natural": "spring"}}, {"type": "node", "id": 12077024460, "lat": 43.0964699, "lon": 27.9203389, "tags": {"name": "Picknick Spot", "tourism": "camp_site"}}, {"type": "node", "id": 2666929743, "lat": 43.1103815, "lon": 27.9232209, "tags": {"amenity": "parking", "name": "Паша дере"}}, {"type": "node", "id": 11260288437, "lat": 43.108972, "lon": 27.9237633, "tags": {"leisure": "picnic_table"}}, {"type": "node", "id": 5690495788, "lat": 43.1363128, "lon": 27.9112081, "tags": {"amenity": "drinking_water"}}, {"type": "node", "id": 5690495789, "lat": 43.1363089, "lon": 27.911015, "tags": {"leisure": "picnic_table"}}, {"type": "node", "id": 5692868661, "lat": 43.1348388, "lon": 27.9148866, "tags": {"amenity": "drinking_water"}}, {"type": "node", "id": 4946282616, "lat": 43.1156559, "lon": 27.9264772, "tags": {"access": "yes", "amenity": "parking", "fee": "no", "parking": "surface"}}, {"type": "node", "id": 11254651337, "lat": 43.113699, "lon": 27.9249938, "tags": {"tourism": "viewpoint"}}, {"type": "node", "id": 4988792567, "lat": 43.1315384, "lon": 27.9304873, "tags": {"name": "El Toro", "shop": "supermarket"}}, {"type": "node", "id": 5692212244, "lat": 43.132774, "lon": 27.930745, "tags": {"amenity": "restaurant", "name": "Моби Дик"}}, {"type": "node", "id": 5803820255, "lat": 43.1328239, "lon": 27.9307857, "tags": {"amenity": "cafe", "name:en": "Mobydick"}}, {"type": "node", "id": 1475046660, "lat": 43.1510765, "lon": 27.9152445, "tags": {"shop": "convenience"}}, {"type": "node", "id": 10957961342, "lat": 43.1531688, "lon": 27.8938718, "tags": {"addr:city": "Варна", "addr:postcode": "9021", "amenity": "restaurant", "capacity": "30", "email": "restaurantbyme@gmail.com", "name": "By Me - Lunch and Dinner", "opening_hours": "Mo-Su 11:00-23:00", "phone": "+359899964497", "reservation": "yes", "website": "https://www.facebook.com/profile.php?id=100093543721615"}}, {"type": "node", "id": 1749722031, "lat": 43.1625789, "lon": 27.8937348, "tags": {"amenity": "drinking_water", "name": "Арап Чешма"}}, {"type": "node", "id": 1767929893, "lat": 43.1587873, "lon": 27.8926356, "tags": {"amenity": "drinking_water"}}, {"type": "node", "id": 13075087136, "lat": 43.1618774, "lon": 27.8963314, "tags": {"access": "yes", "amenity": "drinking_water", "wheelchair": "limited"}}, {"type": "node", "id": 289457233, "lat": 43.1396806, "lon": 27.9358802, "tags": {"ele": "73.2", "name": "Арсенал", "name:en": "Arsenal", "tourism": "hotel"}}, {"type": "node", "id": 5701624193, "lat": 43.1425886, "lon": 27.9398276, "tags": {"amenity": "restaurant", "name": "Sea Star"}}, {"type": "node", "id": 289456705, "lat": 43.16042, "lon": 27.9304815, "tags": {"name": "Бараката", "shop": "convenience"}}, {"type": "node", "id": 2571920985, "lat": 43.1644301, "lon": 27.9304991, "tags": {"amenity": "fuel", "brand": "Бенита", "brand:wikidata": "Q111762601", "name": "Бенита", "name:bg": "Бенита", "name:en": "Benita"}}, {"type": "node", "id": 2571921079, "lat": 43.1596382, "lon": 27.9303881, "tags": {"shop": "convenience"}}, {"type": "node", "id": 5692715326, "lat": 43.1644713, "lon": 27.9303912, "tags": {"amenity": "atm"}}, {"type": "node", "id": 5709221131, "lat": 43.1644353, "lon": 27.9303415, "tags": {"shop": "convenience"}}, {"type": "node", "id": 5709221140, "lat": 43.1646909, "lon": 27.930399, "tags": {"amenity": "restaurant", "name": "Сръбска скара"}}, {"type": "node", "id": 2571920496, "lat": 43.1640148, "lon": 27.9375764, "tags": {"shop": "convenience"}}, {"type": "node", "id": 2571920570, "lat": 43.1633673, "lon": 27.9379626, "tags": {"brand": "Бурлекс", "brand:wikidata": "Q124736705", "name": "Бурлекс", "shop": "supermarket"}}, {"type": "node", "id": 2571920818, "lat": 43.1639131, "lon": 27.9373511, "tags": {"shop": "convenience"}}, {"type": "node", "id": 5024713514, "lat": 43.1638138, "lon": 27.9378231, "tags": {"check_date": "2026-01-14", "historic": "memorial", "inscription": "Живота и душата си дай, но родината си на врага не давай.", "material": "limestone", "name": "Паметник на генерал Андраник", "name:en": "Monument of gen. Andranik"}}, {"type": "node", "id": 5692146743, "lat": 43.1639471, "lon": 27.9375135, "tags": {"name": "пекарна Краси", "shop": "bakery"}}, {"type": "node", "id": 5707934333, "lat": 43.1640009, "lon": 27.9377306, "tags": {"amenity": "atm"}}, {"type": "node", "id": 2571920695, "lat": 43.1649656, "lon": 27.9382979, "tags": {"amenity": "hospital"}}, {"type": "node", "id": 13453887891, "lat": 43.1632615, "lon": 27.9407931, "tags": {"alt_name": "Дом на ген. Андраник", "check_date": "2026-01-14", "historic": "memorial", "inscription": "A commemorative plaque placed on the wall surrounding gen. Andranik's house where he had lived for a year.", "material": "marble", "memorial": "plaque", "name": "Генерал Андраник", "name:en": "General Andranik"}}, {"type": "node", "id": 13652760531, "lat": 43.1632617, "lon": 27.9401923, "tags": {"historic": "memorial", "inscription": "В памет на о.з. ген-майор Стоян Стоянов (1913-1997)\nАс, летец-изтребител", "material": "marble", "memorial": "plaque", "name": "ген.ерал-майор Стоян Стоянов", "wikidata": "Q4306207", "wikipedia": "en:Stoyan Stoyanov"}}, {"type": "node", "id": 9604743467, "lat": 43.1775585, "lon": 27.8927756, "tags": {"addr:housenumber": "143", "addr:street": "бул. Св. св. Кирил и Методи йон", "amenity": "restaurant", "name": "Рибката"}}, {"type": "node", "id": 1135397111, "lat": 43.1760942, "lon": 27.9010985, "tags": {"amenity": "hospital", "healthcare": "hospital", "name": "Онкологична болница-Марко Антонов"}}, {"type": "node", "id": 7682160428, "lat": 43.1756352, "lon": 27.9010409, "tags": {"amenity": "parking"}}, {"type": "node", "id": 10787279794, "lat": 43.1657798, "lon": 27.9053794, "tags": {"amenity": "drinking_water"}}, {"type": "node", "id": 1410764300, "lat": 43.1771253, "lon": 27.9112883, "tags": {"air_conditioning": "yes", "amenity": "restaurant", "bar": "yes", "check_date": "2023-04-14", "cuisine": "fish", "diet:fish": "yes", "internet_access": "wlan", "internet_access:fee": "no", "internet_access:ssid": "Musselhouse", "name": "Мидена къща", "name:en": "Musselhouse", "opening_hours": "09:00-24:00", "operator": "Бивалвия-СД ЕООД", "outdoor_seating": "yes", "payment:mastercard": "yes", "payment:visa": "yes", "phone": "+359 89 484 9475", "source": "survey", "wheelchair": "yes"}}, {"type": "node", "id": 5909685040, "lat": 43.1736563, "lon": 27.9065313, "tags": {"shop": "supermarket"}}, {"type": "node", "id": 9611457025, "lat": 43.1726733, "lon": 27.9147324, "tags": {"access": "private", "amenity": "parking", "layer": "-1", "parking": "underground"}}, {"type": "node", "id": 13173683396, "lat": 43.1734513, "lon": 27.9169546, "tags": {"amenity": "restaurant"}}, {"type": "node", "id": 13196529422, "lat": 43.1739996, "lon": 27.9128191, "tags": {"addr:city": "Варна", "addr:housenumber": "2", "addr:postcode": "9003", "addr:street": "Южен Залив", "amenity": "cafe", "check_date": "2025-10-05", "contact:facebook": "https://www.facebook.com/cakecoffeeasp", "cuisine": "coffee_shop;cake;tea;bubble_tea", "email": "cakecoffee23@gmail.com", "internet_access": "yes", "name": "Кафе Сладкарница Кейк", "name:en": "Cake", "opening_hours": "Mo-Fr 08:00-20:00; Sa-Su 09:00-20:00", "payment:cards": "yes", "payment:cash": "yes", "phone": "+359 88 920 4180"}}, {"type": "node", "id": 4433218432, "lat": 43.1791478, "lon": 27.8955554, "tags": {"amenity": "parking"}}, {"type": "node", "id": 5698383421, "lat": 43.1844639, "lon": 27.8926648, "tags": {"amenity": "restaurant", "name": "пица бар Водолей"}}, {"type": "node", "id": 5698383422, "lat": 43.184583, "lon": 27.8930075, "tags": {"amenity": "restaurant", "name": "Гюрлата"}}, {"type": "node", "id": 5709013952, "lat": 43.1847982, "lon": 27.8922328, "tags": {"amenity": "fuel", "fuel:lpg": "yes"}}, {"type": "node", "id": 9592220197, "lat": 43.1792747, "lon": 27.8932929, "tags": {"name": "Бакалница Янтра", "shop": "convenience"}}, {"type": "node", "id": 9602402276, "lat": 43.1820533, "lon": 27.8930726, "tags": {"name": "Каваците", "shop": "convenience"}}, {"type": "node", "id": 9604554323, "lat": 43.1803171, "lon": 27.8973727, "tags": {"artwork_type": "statue", "tourism": "artwork"}}, {"type": "node", "id": 9604574849, "lat": 43.1801052, "lon": 27.8975989, "tags": {"addr:city": "Варна", "addr:housenumber": "45", "addr:postcode": "9003", "addr:street": "Св. Св. Кирил и Методий", "brand": "Billa", "brand:wikidata": "Q537781", "name": "Billa", "opening_hours": "Mo-Su 07:30-22:00", "payment:cash": "yes", "payment:mastercard": "yes", "payment:visa": "yes", "phone": "+359 52 385 510", "shop": "supermarket"}}, {"type": "node", "id": 9609028079, "lat": 43.1818318, "lon": 27.8955425, "tags": {"amenity": "atm", "brand": "Банка ДСК", "brand:bg": "Банка ДСК", "brand:en": "DSK Bank", "brand:wikidata": "Q5206146", "operator": "Банка ДСК", "operator:wikidata": "Q5206146"}}, {"type": "node", "id": 9609028081, "lat": 43.1808798, "lon": 27.8960498, "tags": {"amenity": "hospital", "healthcare": "hospital", "name": "МЦ Оксигена"}}, {"type": "node", "id": 9612261575, "lat": 43.1813295, "lon": 27.8956754, "tags": {"amenity": "hospital", "healthcare": "hospital", "name": "II ДКЦ Св. Иван Рилски"}}, {"type": "node", "id": 9619969303, "lat": 43.182089, "lon": 27.8986249, "tags": {"amenity": "cafe", "name": "Магма"}}, {"type": "node", "id": 9622717572, "lat": 43.1806114, "lon": 27.8976539, "tags": {"shop": "bakery"}}, {"type": "node", "id": 9622717577, "lat": 43.1806606, "lon": 27.897309, "tags": {"name": "Тужо", "shop": "bakery"}}, {"type": "node", "id": 9625227510, "lat": 43.1843672, "lon": 27.8927859, "tags": {"amenity": "parking"}}, {"type": "node", "id": 11211974537, "lat": 43.1814415, "lon": 27.8957158, "tags": {"amenity": "atm", "brand": "Пощенска банка", "brand:wikidata": "Q7234083", "operator": "Пощенска банка", "operator:wikidata": "Q7234083"}}, {"type": "node", "id": 13622312657, "lat": 43.180983, "lon": 27.896193, "tags": {"amenity": "pharmacy", "brand": "SOpharmacy", "brand:wikidata": "Q108852081", "email": "e-shop@sopharmacy.bg", "facebook": "https://www.facebook.com/aptekisopharmacy", "healthcare": "pharmacy", "name": "SOpharmacy", "opening_hours": "Mo-Fr 08:00-20:00; Sa 09:00-18:00; Su 10:00-18:00", "phone": "+359 88 274 0013", "website": "https://sopharmacy.bg/bg"}}, {"type": "node", "id": 2749611866, "lat": 43.1818623, "lon": 27.8989542, "tags": {"addr:city": "Варна", "addr:housenumber": "17", "addr:postcode": "9003", "addr:street": "Св. Св. Кирил и Методий", "description": "Лаптоп и таблет Ardes.bg е специализирана верига магазини за продажба на лаптопи, таблети, смартфони, компютри и периферия, офис техника и консумативи, сервиз и ремонт на компютри! Над 55 магазина и сервиза в страната и над 15 години на пазара!", "name": "Национална верига Ardes.bg Варна, Аспарухово", "operator": "Национална верига Ardes.bg", "phone": "+359 52 370 100", "shop": "supermarket", "source": "http://ardes.bg", "website": "http://ardes.bg"}}, {"type": "node", "id": 3690396033, "lat": 43.183664, "lon": 27.9005154, "tags": {"amenity": "drinking_water", "name": "Чилик чешма"}}, {"type": "node", "id": 4946812460, "lat": 43.1801467, "lon": 27.9026806, "tags": {"shop": "supermarket"}}, {"type": "node", "id": 9608102071, "lat": 43.1818569, "lon": 27.9013005, "tags": {"amenity": "cafe", "name": "Сладкарница Nicole"}}, {"type": "node", "id": 13041251501, "lat": 43.1821478, "lon": 27.8993233, "tags": {"shop": "convenience"}}, {"type": "node", "id": 9625285873, "lat": 43.1881498, "lon": 27.8952238, "tags": {"amenity": "parking"}}, {"type": "node", "id": 4370127488, "lat": 43.1814585, "lon": 27.9073342, "tags": {"name": "Фанагория", "name:pl": "fanagorija", "tourism": "attraction"}}, {"type": "node", "id": 4370152875, "lat": 43.1812956, "lon": 27.9054087, "tags": {"historic": "memorial", "name": "Аспарухов воин"}}, {"type": "node", "id": 7112751587, "lat": 43.180315, "lon": 27.9057126, "tags": {"historic": "castle", "name": "Аспарухов вал", "name:de": "Asparuch'scher Mauer", "name:en": "Asparuh's Wall"}}, {"type": "node", "id": 3876938057, "lat": 43.1694273, "lon": 27.921257, "tags": {"name": "Семейный отель \"Джоя\"", "tourism": "guest_house"}}, {"type": "node", "id": 3876976916, "lat": 43.1694195, "lon": 27.9213509, "tags": {"amenity": "restaurant"}}, {"type": "node", "id": 3877134601, "lat": 43.1681793, "lon": 27.9207608, "tags": {"addr:housenumber": "151", "addr:postcode": "9003", "addr:street": "Зеленика", "internet_access": "wlan", "name": "Семеен Хотел \"Зеленика\"", "name:bg": "Семеен Хотел \"Зеленика\"", "name:en": "Family Hotel \"Zelenika\"", "name:ru": "Семейный отель \"Зеленика\"", "name:uk": "Сімейний готель \"Зеленика\"", "opening_hours": "24/7", "outdoor_seating": "no", "tourism": "guest_house"}}, {"type": "node", "id": 5698522228, "lat": 43.1691543, "lon": 27.9221418, "tags": {"name": "Людо", "tourism": "hotel"}}, {"type": "node", "id": 5698522229, "lat": 43.1693722, "lon": 27.922174, "tags": {"amenity": "restaurant"}}, {"type": "node", "id": 12122246302, "lat": 43.1683751, "lon": 27.9208127, "tags": {"addr:postcode": "9021", "addr:street": "бул. 1-ви май", "amenity": "restaurant", "cuisine": "balkan;coffee_shop;local;mediterranean", "internet_access": "wlan", "name": "Зеленика", "name:en": "Zelenika", "opening_hours": "Mo-Su 17:00-00:00", "outdoor_seating": "yes"}}, {"type": "node", "id": 5689803860, "lat": 43.1699853, "lon": 27.9292395, "tags": {"shop": "convenience"}}, {"type": "node", "id": 5720886116, "lat": 43.1701456, "lon": 27.9292035, "tags": {"access": "yes", "amenity": "drinking_water", "lit": "no", "source": "survey"}}, {"type": "node", "id": 2347099671, "lat": 43.172403, "lon": 27.9268593, "tags": {"name": "Панорамна площадка Галата", "name:tr": "SEYİR TERASI", "tourism": "viewpoint"}}, {"type": "node", "id": 13096496459, "lat": 43.1723847, "lon": 27.9264558, "tags": {"access": "yes", "historic": "memorial", "inscription": "На гражданите на Варна и варненските мотоклубове.", "material": "marble", "memorial": "sculpture", "name": "Паметник на Моториста"}}, {"type": "node", "id": 5802955653, "lat": 43.1675184, "lon": 27.933575, "tags": {"amenity": "restaurant", "name": "Мидена къща"}}, {"type": "node", "id": 5024705761, "lat": 43.1670775, "lon": 27.9432784, "tags": {"amenity": "drinking_water"}}, {"type": "node", "id": 11112397105, "lat": 43.1706491, "lon": 27.944079, "tags": {"name": "Гледка", "name:bg": "Beautiful View", "tourism": "viewpoint"}}, {"type": "node", "id": 11112400205, "lat": 43.1707324, "lon": 27.943547, "tags": {"name": "Гледка", "name:bg": "Viewpoint", "tourism": "viewpoint"}}, {"type": "node", "id": 11119945605, "lat": 43.1696977, "lon": 27.943479, "tags": {"amenity": "parking", "name": "Място за паркиране"}}, {"type": "node", "id": 13141582501, "lat": 43.1873021, "lon": 27.9219741, "tags": {"artwork_type": "graffiti", "image": "https://photos.app.goo.gl/qWCtVpx4WEMmkPdX8", "tourism": "artwork"}}, {"type": "node", "id": 13141582502, "lat": 43.1872531, "lon": 27.9218056, "tags": {"artwork_type": "mosaic", "image": "https://photos.app.goo.gl/8MnwDaJ9jY2rgkU3A", "tourism": "artwork"}}, {"type": "node", "id": 13141582503, "lat": 43.1880088, "lon": 27.9217638, "tags": {"artwork_type": "graffiti", "image": "https://photos.app.goo.gl/98No5ikDPMyw4YAT8", "tourism": "artwork"}}, {"type": "node", "id": 13141582504, "lat": 43.1880747, "lon": 27.9217612, "tags": {"artwork_type": "graffiti", "image": "https://photos.app.goo.gl/GrLDLkML7D796ZtY9", "tourism": "artwork"}}, {"type": "node", "id": 13141582505, "lat": 43.188279, "lon": 27.9217535, "tags": {"artwork_type": "graffiti", "image": "https://photos.app.goo.gl/vcidoZBP9L5e2xQD8", "tourism": "artwork"}}, {"type": "node", "id": 13141582506, "lat": 43.1883577, "lon": 27.9217514, "tags": {"artwork_type": "graffiti", "image": "https://photos.app.goo.gl/GoANAb5WixB6qR39A", "tourism": "artwork"}}, {"type": "node", "id": 13141582507, "lat": 43.1885668, "lon": 27.9217443, "tags": {"artwork_type": "graffiti", "image": "https://photos.app.goo.gl/KLvjb2s7gn1Jnrsk7", "tourism": "artwork"}}, {"type": "node", "id": 13141582508, "lat": 43.1886891, "lon": 27.9217396, "tags": {"artwork_type": "graffiti", "image": "https://photos.app.goo.gl/AgRjHvfnDAaW2sZn7", "tourism": "artwork"}}, {"type": "node", "id": 13141582509, "lat": 43.1889832, "lon": 27.9217293, "tags": {"artwork_type": "graffiti", "image": "https://photos.app.goo.gl/oTq2B6KWt2xA7GxL6", "tourism": "artwork"}}, {"type": "node", "id": 13141582510, "lat": 43.1890379, "lon": 27.9217274, "tags": {"artwork_type": "graffiti", "image": "https://photos.app.goo.gl/n5fA2Aur6tzqgrgL6", "tourism": "artwork"}}, {"type": "node", "id": 13141582511, "lat": 43.1890858, "lon": 27.9217255, "tags": {"artwork_type": "graffiti", "image": "https://photos.app.goo.gl/e3NCBWwZ2PRGiVyV8", "tourism": "artwork"}}, {"type": "node", "id": 13141582512, "lat": 43.1891504, "lon": 27.9217233, "tags": {"artwork_type": "graffiti", "image": "https://photos.app.goo.gl/FiSFiRXCaWQqsYz79", "tourism": "artwork"}}, {"type": "node", "id": 13141582513, "lat": 43.1903034, "lon": 27.9217508, "tags": {"artwork_type": "graffiti", "image": "https://photos.app.goo.gl/eEec2ReCQYbePYQbA", "tourism": "artwork"}}, {"type": "node", "id": 4843070680, "lat": 43.1953106, "lon": 27.8935777, "tags": {"amenity": "fast_food", "cuisine": "burger"}}, {"type": "node", "id": 13137263853, "lat": 43.1953306, "lon": 27.8940467, "tags": {"artist_name": "Aleksi Ivanov", "artwork_type": "graffiti", "covered": "yes", "image": "https://photos.app.goo.gl/fyaxnkJV3HPWnftJ8", "tourism": "artwork"}}, {"type": "node", "id": 11251927338, "lat": 43.1988752, "lon": 27.8967608, "tags": {"amenity": "restaurant", "name": "Континентал", "name:en": "Continental Restaurant & Bar", "opening_hours": "Mo-Fr 09:00-18:00"}}, {"type": "node", "id": 13136767394, "lat": 43.2032025, "lon": 27.898668, "tags": {"artwork_type": "graffiti", "image": "https://photos.app.goo.gl/FNp6GCr2TVqhxeyw9", "tourism": "artwork"}}, {"type": "node", "id": 13136767395, "lat": 43.2031695, "lon": 27.8985714, "tags": {"artwork_type": "graffiti", "image": "https://photos.app.goo.gl/3MzTRd3gQwjCjnJt6", "tourism": "artwork"}}, {"type": "node", "id": 13136767396, "lat": 43.2031502, "lon": 27.8985178, "tags": {"artwork_type": "graffiti", "image": "https://photos.app.goo.gl/VPKe8w1y47iCiUYQ9", "tourism": "artwork"}}, {"type": "node", "id": 13136767397, "lat": 43.2031302, "lon": 27.8984416, "tags": {"artwork_type": "graffiti", "image": "https://photos.app.goo.gl/JaEPkMs15zrRciwa6", "tourism": "artwork"}}, {"type": "node", "id": 13136767398, "lat": 43.2031137, "lon": 27.8983802, "tags": {"artwork_type": "graffiti", "image": "https://photos.app.goo.gl/YHV6aXAQVPpUmmjv8", "tourism": "artwork"}}, {"type": "node", "id": 13136767399, "lat": 43.2030961, "lon": 27.8983134, "tags": {"artwork_type": "graffiti", "image": "https://photos.app.goo.gl/f4NgdTmnvEmNQAda7", "tourism": "artwork"}}, {"type": "node", "id": 13136767400, "lat": 43.2030807, "lon": 27.8982268, "tags": {"artwork_type": "graffiti", "image": "https://photos.app.goo.gl/M2tZT2zRKLjNcUrZ9", "tourism": "artwork"}}, {"type": "node", "id": 13136780501, "lat": 43.2030723, "lon": 27.8981702, "tags": {"artwork_type": "graffiti", "image": "https://photos.app.goo.gl/aJbcqHwz5L7DFtxr5", "tourism": "artwork"}}, {"type": "node", "id": 13136780502, "lat": 43.2030557, "lon": 27.8980621, "tags": {"artwork_type": "graffiti", "image": "https://photos.app.goo.gl/5nXWFJq1QKhv7E5p6", "tourism": "artwork"}}, {"type": "node", "id": 13136780503, "lat": 43.20305, "lon": 27.8980097, "tags": {"artwork_type": "graffiti", "image": "https://photos.app.goo.gl/u49YWSWv63jTHHfx7", "tourism": "artwork"}}, {"type": "node", "id": 13136780504, "lat": 43.2030493, "lon": 27.8979244, "tags": {"artwork_type": "graffiti", "image": "https://photos.app.goo.gl/ry6boyGChQf48HJF6", "tourism": "artwork"}}, {"type": "node", "id": 13136780505, "lat": 43.2030503, "lon": 27.8978628, "tags": {"artwork_type": "graffiti", "image": "https://photos.app.goo.gl/VdyvMcNBav5bczBt5", "tourism": "artwork"}}, {"type": "node", "id": 13137621955, "lat": 43.2030784, "lon": 27.8975632, "tags": {"artist_name": "Aleksi Ivanov", "artwork_type": "graffiti", "image": "https://photos.app.goo.gl/X1nHJQtvjgCstJWq5", "tourism": "artwork"}}, {"type": "node", "id": 2051828326, "lat": 43.2038385, "lon": 27.9052275, "tags": {"name": "Голдън Тюлип", "name:en": "Golden Tulip", "tourism": "hotel", "website": "http://www.goldentulipvarna.com", "wikidata": "Q111858696"}}, {"type": "node", "id": 3453501429, "lat": 43.2042438, "lon": 27.9031347, "tags": {"amenity": "fast_food", "cuisine": "bulgarian", "name": "Macao", "takeaway": "yes", "wheelchair": "yes"}}, {"type": "node", "id": 3453503390, "lat": 43.2043541, "lon": 27.9032064, "tags": {"name": "Супермаркет МАКАО", "name:en": "Four Max", "shop": "supermarket", "wheelchair": "yes"}}, {"type": "node", "id": 5967287920, "lat": 43.2017387, "lon": 27.9030683, "tags": {"amenity": "atm", "brand": "ОББ", "brand:bg": "ОББ", "brand:en": "UBB", "brand:wikidata": "Q7887555", "operator": "ОББ", "operator:wikidata": "Q7887555"}}, {"type": "node", "id": 7539788864, "lat": 43.20238, "lon": 27.901395, "tags": {"access": "yes", "amenity": "parking", "fee": "no", "parking": "underground"}}, {"type": "node", "id": 9644758744, "lat": 43.2040062, "lon": 27.900846, "tags": {"amenity": "fuel", "brand": "Лукойл", "brand:bg": "Лукойл", "brand:en": "Lukoil", "brand:wikidata": "Q329347", "fuel:diesel": "yes", "fuel:octane_95": "yes", "fuel:octane_98": "yes", "name": "Лукойл", "name:bg": "Лукойл", "name:en": "Lukoil", "operator": "Лукойл България ЕООД", "ref": "Б029"}}, {"type": "node", "id": 9662226448, "lat": 43.2045642, "lon": 27.9021593, "tags": {"amenity": "parking", "parking": "street_side"}}, {"type": "node", "id": 10916902604, "lat": 43.2018735, "lon": 27.9002904, "tags": {"artwork_type": "installation", "tourism": "artwork"}}, {"type": "node", "id": 12143990049, "lat": 43.2020474, "lon": 27.9010289, "tags": {"addr:floor": "1", "addr:housenumber": "24", "addr:street": "Девня", "amenity": "pharmacy", "brand": "SOpharmacy", "brand:wikidata": "Q108852081", "check_date": "2024-08-29", "contact:email": "e-shop@sopharmacy.bg", "contact:facebook": "https://www.facebook.com/aptekisopharmacy", "contact:phone": "+359 88 274 0013", "contact:website": "https://sopharmacy.bg/bg", "dispensing": "no", "healthcare": "pharmacy", "internet_access": "no", "name": "SOpharmacy", "opening_hours": "Mo-Sa 08:00-21:00; Su 09:00-21:00", "payment:cash": "yes", "payment:credit_cards": "yes", "payment:debit_cards": "yes", "wheelchair": "yes"}}, {"type": "node", "id": 13136767385, "lat": 43.2034104, "lon": 27.8992664, "tags": {"artwork_type": "graffiti", "image": "https://photos.app.goo.gl/msZPnbc6TaoNXH8E6", "tourism": "artwork"}}, {"type": "node", "id": 13136767386, "lat": 43.2033877, "lon": 27.8992001, "tags": {"artwork_type": "graffiti", "image": "https://photos.app.goo.gl/KHbJkWPifvqXBz9T9", "tourism": "artwork"}}, {"type": "node", "id": 13136767387, "lat": 43.2033613, "lon": 27.8991229, "tags": {"artwork_type": "graffiti", "image": "https://photos.app.goo.gl/hk6LSrnHteDW4nAT9", "tourism": "artwork"}}, {"type": "node", "id": 13136767388, "lat": 43.2033398, "lon": 27.8990588, "tags": {"artwork_type": "graffiti", "image": "https://photos.app.goo.gl/WpQ544uMVp97wdEP8", "tourism": "artwork"}}, {"type": "node", "id": 13136767389, "lat": 43.2033185, "lon": 27.899003, "tags": {"artwork_type": "graffiti", "image": "https://photos.app.goo.gl/Ce3PX9TY4ayWs3DM7", "tourism": "artwork"}}, {"type": "node", "id": 13136767390, "lat": 43.2032938, "lon": 27.8989293, "tags": {"artwork_type": "graffiti", "image": "https://photos.app.goo.gl/nu72gQaUh4faBz1j9", "tourism": "artwork"}}, {"type": "node", "id": 13136767391, "lat": 43.2032813, "lon": 27.898892, "tags": {"artwork_type": "graffiti", "image": "https://photos.app.goo.gl/L4xwNeJLSnVCnCPEA", "tourism": "artwork"}}, {"type": "node", "id": 13136767392, "lat": 43.2032557, "lon": 27.8988209, "tags": {"artwork_type": "graffiti", "image": "https://photos.app.goo.gl/cFh18mqyxknE9oYz5", "tourism": "artwork"}}, {"type": "node", "id": 13136767393, "lat": 43.2032272, "lon": 27.8987372, "tags": {"artwork_type": "graffiti", "image": "https://photos.app.goo.gl/agfnJJi6uQHKM1GH6", "tourism": "artwork"}}, {"type": "node", "id": 13137621956, "lat": 43.2033014, "lon": 27.902828, "tags": {"artwork_type": "graffiti", "image": "https://photos.app.goo.gl/A7on36t3vmj9qDcE6", "tourism": "artwork"}}, {"type": "node", "id": 13137621957, "lat": 43.2034287, "lon": 27.9028068, "tags": {"artwork_type": "graffiti", "image": "https://photos.app.goo.gl/hERY2LSLxEtTKaPr6", "tourism": "artwork"}}, {"type": "node", "id": 5003350124, "lat": 43.1977852, "lon": 27.9178748, "tags": {"amenity": "bicycle_parking", "covered": "no"}}, {"type": "node", "id": 7085636090, "lat": 43.1976876, "lon": 27.9162077, "tags": {"addr:city": "Варна", "addr:housenumber": "5", "addr:postcode": "9000", "addr:street": "бул. Приморски", "amenity": "restaurant", "bar": "yes", "brewery": "no", "name": "Арест", "name:en": "Arrest", "outdoor_seating": "yes", "smoking": "outside"}}, {"type": "node", "id": 7857180072, "lat": 43.1978565, "lon": 27.9179308, "tags": {"access": "yes", "amenity": "parking", "fee": "yes", "parking": "surface"}}, {"type": "node", "id": 7911732454, "lat": 43.1979519, "lon": 27.9140599, "tags": {"amenity": "charging_station", "authentication:nfc": "yes", "bicycle": "yes", "capacity": "2", "covered": "no", "fee": "no", "motorcar": "yes", "motorcycle": "yes", "opening_hours": "24/7", "operator": "ОП „Общински паркинги и синя зона“ - Варна", "parking:fee": "no", "ref": "3", "scooter": "yes", "socket:schuko": "2", "socket:schuko:output": "3.7 kW", "socket:schuko:voltage": "220", "socket:type2": "2", "socket:type2:amperage": "32", "socket:type2:output": "22 kW", "socket:type2:voltage": "400", "truck": "no"}}, {"type": "node", "id": 9403520722, "lat": 43.1962529, "lon": 27.9183355, "tags": {"amenity": "restaurant", "check_date": "2025-08-20", "name": "The Brick"}}, {"type": "node", "id": 9403520723, "lat": 43.196267, "lon": 27.9179882, "tags": {"amenity": "restaurant", "check_date": "2025-08-20", "contact:email": "varna@burrata.bg", "contact:facebook": "https://www.facebook.com/burrataitaliana/", "contact:instagram": "https://www.instagram.com/burrataitaliana/", "contact:phone": "+359 700 20888", "contact:website": "https://burrata.bg", "cuisine": "italian", "name": "Burrata Italiana", "opening_hours": "Mo-Su 11:00-22:30", "operator": "\"Саброса 2012\" ООД", "reservation": "recommended", "stars": "2"}}, {"type": "node", "id": 289448748, "lat": 43.1998783, "lon": 27.9072392, "tags": {"amenity": "fuel", "brand": "EKO", "brand:wikidata": "Q111603199", "fuel:diesel": "yes", "fuel:lpg": "yes", "fuel:octane_100": "yes", "fuel:octane_95": "yes", "name": "EKO", "name:bg": "ЕКО", "operator": "Еко България", "shop": "convenience"}}, {"type": "node", "id": 544212879, "lat": 43.2030955, "lon": 27.9052495, "tags": {"amenity": "parking", "fee": "yes"}}, {"type": "node", "id": 2335410966, "lat": 43.2032981, "lon": 27.9073087, "tags": {"name": "Примера", "shop": "convenience"}}, {"type": "node", "id": 2389539836, "lat": 43.2043023, "lon": 27.910732, "tags": {"amenity": "cafe", "name": "Grande cafe"}}, {"type": "node", "id": 2389544078, "lat": 43.2031663, "lon": 27.9083046, "tags": {"shop": "convenience"}}, {"type": "node", "id": 2389544079, "lat": 43.2033305, "lon": 27.9082081, "tags": {"amenity": "bicycle_parking", "bicycle_parking": "wall_loops", "covered": "no"}}, {"type": "node", "id": 2389552500, "lat": 43.2033178, "lon": 27.9117647, "tags": {"amenity": "pharmacy", "check_date": "2025-09-24", "name": "Хаджолян", "opening_hours": "Mo-Fr 04:00-20:00; Sa,Su 09:00-19:00"}}, {"type": "node", "id": 2391273042, "lat": 43.2039418, "lon": 27.9114774, "tags": {"amenity": "drinking_water", "fountain": "bubbler", "image": "https://photos.app.goo.gl/3jMfqdrfSMSJzfYV7"}}, {"type": "node", "id": 2993733505, "lat": 43.2045049, "lon": 27.9101833, "tags": {"information": "office", "name": "Туристически информационен център", "name:en": "Tourism Information Center Varna", "name:ru": "Информационный туристический центр", "tourism": "information"}}, {"type": "node", "id": 3163242805, "lat": 43.2035421, "lon": 27.9103348, "tags": {"addr:city": "Варна", "addr:housenumber": "23", "addr:postcode": "9000", "addr:street": "Русе", "email": "hostel@yohohostel.com", "guest_house": "hostel", "image": "https://yohohostel.com/images/web-pics/stikri2.png", "internet_access": "wlan", "internet_access:fee": "no", "name": "Йо-хо-хостел", "rooms": "11", "smoking": "isolated", "tourism": "hostel"}}, {"type": "node", "id": 3856040396, "lat": 43.1996017, "lon": 27.907848, "tags": {"addr:city": "Варна", "addr:country": "BG", "addr:housenumber": "58", "addr:postcode": "9000", "addr:street": "Дебър", "amenity": "restaurant", "name": "Барбоса", "name:en": "Barbosa"}}, {"type": "node", "id": 4854517354, "lat": 43.2038216, "lon": 27.9069381, "tags": {"addr:city": "Варна", "addr:housenumber": "2", "addr:postcode": "9010", "addr:street": "Солун", "name": "Хотел Охрид", "name:en": "Hotel Ohrid", "stars": "3", "tourism": "hotel"}}, {"type": "node", "id": 4973326730, "lat": 43.2031957, "lon": 27.9114192, "tags": {"check_date": "2024-03-07", "name": "Казабланка", "tourism": "hostel"}}, {"type": "node", "id": 5822778356, "lat": 43.2036847, "lon": 27.9078574, "tags": {"amenity": "cafe", "name:en": "Sushi masters"}}, {"type": "node", "id": 5831909287, "lat": 43.2033322, "lon": 27.9116524, "tags": {"amenity": "cafe", "name": "Пицца 1lv", "name:en": "Pizza big and nice 1lv for 1 peace", "name:ru": "Пиццерия супер, огромный кусок за 1 лев"}}, {"type": "node", "id": 6008896942, "lat": 43.2021239, "lon": 27.9088783, "tags": {"shop": "convenience", "wheelchair": "no"}}, {"type": "node", "id": 6572774242, "lat": 43.2035589, "lon": 27.9062645, "tags": {"name": "Pepe Bakery", "shop": "bakery"}}, {"type": "node", "id": 7911798137, "lat": 43.2019112, "lon": 27.9104293, "tags": {"addr:housenumber": "22", "addr:street": "Пирот", "amenity": "charging_station", "authentication:nfc": "yes", "bicycle": "yes", "capacity": "2", "covered": "no", "fee": "no", "motorcar": "yes", "motorcycle": "yes", "name": "ул. Пирот 22", "opening_hours": "24/7", "operator": "ОП „Общински паркинги и синя зона“ - Варна", "parking:fee": "no", "ref": "2", "scooter": "yes", "socket:schuko": "2", "socket:schuko:output": "3.7 kW", "socket:schuko:voltage": "220", "socket:type2": "2", "socket:type2:amperage": "32", "socket:type2:output": "22 kW", "socket:type2:voltage": "400", "truck": "no"}}, {"type": "node", "id": 8607272691, "lat": 43.2040004, "lon": 27.909166, "tags": {"shop": "convenience"}}, {"type": "node", "id": 8607272692, "lat": 43.2039375, "lon": 27.9091438, "tags": {"amenity": "fast_food", "cuisine": "chicken"}}, {"type": "node", "id": 8607272693, "lat": 43.2039255, "lon": 27.9090002, "tags": {"amenity": "fast_food", "name": "Скарата сБира"}}, {"type": "node", "id": 8844829179, "lat": 43.2038972, "lon": 27.9070107, "tags": {"amenity": "cafe", "outdoor_seating": "yes"}}, {"type": "node", "id": 9407690054, "lat": 43.2040398, "lon": 27.9069748, "tags": {"amenity": "cafe", "outdoor_seating": "yes"}}, {"type": "node", "id": 9413581237, "lat": 43.2037848, "lon": 27.9069833, "tags": {"amenity": "restaurant", "name": "Механа"}}, {"type": "node", "id": 9457030871, "lat": 43.2038905, "lon": 27.9103973, "tags": {"amenity": "drinking_water"}}, {"type": "node", "id": 9457069838, "lat": 43.1996286, "lon": 27.9109135, "tags": {"name": "Стармаркет", "shop": "convenience"}}, {"type": "node", "id": 9664202473, "lat": 43.2033493, "lon": 27.9058723, "tags": {"amenity": "cafe", "name": "Кафе-аперитив Дарака"}}, {"type": "node", "id": 9861671437, "lat": 43.2042779, "lon": 27.9108306, "tags": {"artwork_type": "sculpture", "image": "https://ibb.co/gy0DmjX", "image:0": "https://photos.app.goo.gl/ZBquiQrqikFpysb87", "tourism": "artwork"}}, {"type": "node", "id": 11233698137, "lat": 43.2036131, "lon": 27.9101387, "tags": {"shop": "convenience"}}, {"type": "node", "id": 11253555935, "lat": 43.2044991, "lon": 27.9099519, "tags": {"amenity": "atm", "indoor": "no", "operator": "Euronet"}}, {"type": "node", "id": 11253598265, "lat": 43.2045387, "lon": 27.9098277, "tags": {"amenity": "bicycle_parking", "bicycle_parking": "stands", "covered": "no"}}, {"type": "node", "id": 11253598266, "lat": 43.2021538, "lon": 27.9113255, "tags": {"addr:floor": "G", "addr:housenumber": "16", "addr:street": "Капитан Петко Войвода", "check_date": "2024-09-03", "email": "masterbakervarna@gmail.com", "internet_access": "no", "name": "Майстор Миро", "payment:cash": "yes", "payment:credit_cards": "yes", "payment:debit_cards": "yes", "phone": "+359 98 874 2771", "shop": "bakery", "website": "https://mastermiro.bg", "wheelchair": "yes"}}, {"type": "node", "id": 12080910344, "lat": 43.1994531, "lon": 27.9111154, "tags": {"amenity": "atm"}}, {"type": "node", "id": 12318781574, "lat": 43.1997606, "lon": 27.9111764, "tags": {"amenity": "fast_food", "name": "Gusto del Mare", "opening_hours": "Mo-Fr 11:00-19:00"}}, {"type": "node", "id": 13121712399, "lat": 43.2011278, "lon": 27.9069178, "tags": {"artwork_type": "graffiti", "image": "https://photos.app.goo.gl/JbTS15MrcAPUjtzm7", "tourism": "artwork"}}, {"type": "node", "id": 13121712400, "lat": 43.2016448, "lon": 27.9063612, "tags": {"artwork_type": "graffiti", "image": "https://photos.app.goo.gl/Kh87NrheKHWAub1k6", "tourism": "artwork"}}, {"type": "node", "id": 13121713102, "lat": 43.2015894, "lon": 27.9060026, "tags": {"artwork_type": "graffiti", "image": "https://photos.app.goo.gl/5daYzEzVKmXvvCk8A", "tourism": "artwork"}}, {"type": "node", "id": 13121713121, "lat": 43.2043898, "lon": 27.9109572, "tags": {"artwork_type": "sculpture", "image": "https://photos.app.goo.gl/EbM7h1THCYJrxjpUA", "tourism": "artwork"}}, {"type": "node", "id": 13121713122, "lat": 43.2043098, "lon": 27.9104068, "tags": {"historic": "memorial", "image": "https://photos.app.goo.gl/vdEAh3eXByiL6FsK7", "memorial": "plaque", "name": "Отон Иванов"}}, {"type": "node", "id": 13121713123, "lat": 43.203785, "lon": 27.910637, "tags": {"historic": "memorial", "image": "https://photos.app.goo.gl/DoL7fQxNNeuNpovs6", "name": "Кирил Господинов  1934-2003,"}}, {"type": "node", "id": 13121713127, "lat": 43.2039696, "lon": 27.9110228, "tags": {"artwork_type": "bust", "image": "https://photos.app.goo.gl/teNJAXsN6xgByNWv9", "name": "Граф Николай Павлович Игнатьев", "tourism": "artwork"}}, {"type": "node", "id": 13121713128, "lat": 43.2039832, "lon": 27.9110639, "tags": {"historic": "memorial", "image": "https://photos.app.goo.gl/i7tBFt5sbMwbJAxj9", "memorial": "plaque"}}, {"type": "node", "id": 13121713129, "lat": 43.2044623, "lon": 27.9107875, "tags": {"historic": "memorial", "image": "https://photos.app.goo.gl/AxDAYE8Lx6DNE24YA", "memorial": "plaque"}}, {"type": "node", "id": 13121713130, "lat": 43.2045933, "lon": 27.910532, "tags": {"image": "https://photos.app.goo.gl/VUF3K9srHARw9WRQ9", "information": "map", "name": "Varna", "tourism": "information"}}, {"type": "node", "id": 13121713131, "lat": 43.204557, "lon": 27.9094422, "tags": {"artwork_type": "graffiti", "image": "https://photos.app.goo.gl/Y4XMDAGiQpN9RWp3A", "tourism": "artwork"}}, {"type": "node", "id": 13141575777, "lat": 43.203633, "lon": 27.9087392, "tags": {"artwork_type": "graffiti", "image": "https://photos.app.goo.gl/6bwNmEP4qhAKpQzU7", "tourism": "artwork"}}, {"type": "node", "id": 13141575778, "lat": 43.2036105, "lon": 27.9087393, "tags": {"artwork_type": "graffiti", "covered": "yes", "image": "https://photos.app.goo.gl/BD8zXNDUNePKVksY6", "tourism": "artwork"}}, {"type": "node", "id": 13141575779, "lat": 43.2035987, "lon": 27.9087704, "tags": {"artwork_type": "graffiti", "covered": "yes", "image": "https://photos.app.goo.gl/P5YiyhMxLaWvCYNn6", "tourism": "artwork"}}, {"type": "node", "id": 13141575780, "lat": 43.2036252, "lon": 27.9087583, "tags": {"artwork_type": "graffiti", "covered": "yes", "image": "https://photos.app.goo.gl/bJRgjaVac6wiC3Zx9", "tourism": "artwork"}}, {"type": "node", "id": 13141575781, "lat": 43.2035167, "lon": 27.9089035, "tags": {"artwork_type": "graffiti", "image": "https://photos.app.goo.gl/C1H6eDgtmJNw69ZL6", "tourism": "artwork"}}, {"type": "node", "id": 13149558401, "lat": 43.2039215, "lon": 27.9090478, "tags": {"addr:street": "Русе", "amenity": "restaurant", "name": "Ninja Kitchen Sushi", "opening_hours": "Mo-Sa 11:00-21:00"}}, {"type": "node", "id": 13167417406, "lat": 43.2036419, "lon": 27.9098432, "tags": {"amenity": "cafe", "cuisine": "coffee_shop", "name": "Izzi"}}, {"type": "node", "id": 539025124, "lat": 43.202412, "lon": 27.9151831, "tags": {"access": "yes", "amenity": "parking", "capacity:disabled": "2", "fee": "yes", "parking": "surface"}}, {"type": "node", "id": 800647368, "lat": 43.1998341, "lon": 27.9175093, "tags": {"name": "Лакомото", "shop": "bakery"}}, {"type": "node", "id": 800647380, "lat": 43.1996156, "lon": 27.9178463, "tags": {"name": "Фурна Сан Стефано", "shop": "bakery"}}, {"type": "node", "id": 1100338475, "lat": 43.1991712, "lon": 27.9154554, "tags": {"access": "private", "amenity": "parking", "fee": "no", "name": "Бон Марин", "park_ride": "no", "parking": "surface"}}, {"type": "node", "id": 1238095057, "lat": 43.1988159, "lon": 27.9142492, "tags": {"amenity": "restaurant", "cuisine": "regional;fast_food", "name": "Макао fast food"}}, {"type": "node", "id": 1238095266, "lat": 43.2004469, "lon": 27.9158709, "tags": {"amenity": "restaurant", "check_date": "2025-01-31", "cuisine": "turkish", "int_name": "Orient", "name": "Ориент"}}, {"type": "node", "id": 1243235753, "lat": 43.199061, "lon": 27.912773, "tags": {"amenity": "pharmacy", "brand": "Марешки", "brand:wikidata": "Q108852051", "check_date": "2025-01-28", "healthcare": "pharmacy", "int_name": "Mareshki", "name": "Марешки", "name:bg": "Марешки"}}, {"type": "node", "id": 1270802776, "lat": 43.1984814, "lon": 27.9135723, "tags": {"amenity": "cafe"}}, {"type": "node", "id": 1270803019, "lat": 43.2000695, "lon": 27.9158223, "tags": {"amenity": "cafe", "name": "Samba Brazilian Coffee Shop", "name:en": "Samba Brazilian Coffee Shops", "opening_hours": "Mo-Sa 09:00-19:00; Su 11:00-17:00"}}, {"type": "node", "id": 1270803688, "lat": 43.1982016, "lon": 27.9134134, "tags": {"amenity": "fast_food", "internet_access": "no"}}, {"type": "node", "id": 2002454569, "lat": 43.1997665, "lon": 27.9182015, "tags": {"amenity": "restaurant", "cuisine": "chinese", "name": "Златен век"}}, {"type": "node", "id": 2335283724, "lat": 43.2038936, "lon": 27.9142323, "tags": {"tourism": "artwork"}}, {"type": "node", "id": 2335410967, "lat": 43.2013782, "lon": 27.9179184, "tags": {"addr:city": "Варна", "addr:housenumber": "22", "addr:postcode": "9000", "addr:street": "Княз Александър Батенберг", "name": "Джиро Байкс", "name:bg": "Джиро Байкс", "name:en": "Gyro Bikes", "opening_hours": "Mo-Sa 09:00-18:00", "phone": "+359 89 917 4431", "shop": "bicycle", "website": "https://giro-bikes.com/"}}, {"type": "node", "id": 2389539843, "lat": 43.2001591, "lon": 27.9127759, "tags": {"amenity": "drinking_water", "check_date": "2022-08-19"}}, {"type": "node", "id": 2389552511, "lat": 43.2032357, "lon": 27.9126814, "tags": {"amenity": "restaurant", "name": "Морско конче"}}, {"type": "node", "id": 2423925452, "lat": 43.2010051, "lon": 27.9134363, "tags": {"addr:city": "Варна", "addr:country": "BG", "addr:housenumber": "22", "addr:street": "Панагюрище", "name": "Етнографски музей", "name:en": "Etnographic museum", "name:ru": "Этнографический музей", "name:uk": "Етнографічний музей", "phone": "+359 52 630 588", "tourism": "museum", "wikidata": "Q12279996", "wikipedia": "bg:Етнографски музей (Варна)"}}, {"type": "node", "id": 2423947010, "lat": 43.2011676, "lon": 27.9124464, "tags": {"addr:city": "Варна", "addr:country": "BG", "addr:housenumber": "21", "addr:street": "Д-р Людвик Заменхоф", "name": "Музей на Възраждането", "name:en": "Revival museum", "name:ru": "Музей Возрождения", "name:uk": "Музей Відродження", "phone": "+359 52 658 891;+359 52 604 873", "tourism": "museum", "website": "http://revival.museumvarna.com", "wikidata": "Q12287449", "wikipedia": "bg:Музей на Възраждането, Варна"}}, {"type": "node", "id": 2642694118, "lat": 43.2012414, "lon": 27.916598, "tags": {"brand": "Бурлекс", "brand:wikidata": "Q124736705", "name": "Бурлекс", "opening_hours": "Mo-Su 07:00-22:00", "shop": "supermarket"}}, {"type": "node", "id": 3039967848, "lat": 43.2034384, "lon": 27.9135418, "tags": {"name": "Efbet", "tourism": "hotel"}}, {"type": "node", "id": 3088734475, "lat": 43.1993447, "lon": 27.9182837, "tags": {"addr:city": "Варна", "addr:country": "BG", "addr:floor": "G", "addr:housenumber": "23", "addr:postcode": "9000", "addr:street": "Сан Стефано", "check_date": "2025-06-15", "level": "0", "name": "ОДЕСОС МАРКЕТ", "payment:cash": "yes", "payment:credit_cards": "yes", "payment:debit_cards": "yes", "shop": "supermarket", "wheelchair": "no"}}, {"type": "node", "id": 3088736272, "lat": 43.2017968, "lon": 27.9148242, "tags": {"addr:city": "Варна", "addr:country": "BG", "addr:housenumber": "4", "addr:postcode": "9000", "addr:street": "Охрид", "name": "MyMarket Mini", "opening_hours": "Mo-Su 07:30-22:00", "operator": "MyMarket", "shop": "convenience", "website": "https://www.my-market.bg/shop.php?shop_id=97"}}, {"type": "node", "id": 3597151751, "lat": 43.1996815, "lon": 27.9152716, "tags": {"amenity": "restaurant", "check_date": "2025-01-31", "cuisine": "regional", "name": "Стария Чинар", "outdoor_seating": "yes"}}, {"type": "node", "id": 3875683857, "lat": 43.1989883, "lon": 27.9180273, "tags": {"amenity": "restaurant", "cuisine": "bulgarian", "name": "Къщата", "outdoor_seating": "yes", "reservation": "no", "smoking": "outside"}}, {"type": "node", "id": 3978335325, "lat": 43.1998109, "lon": 27.9170936, "tags": {"name": "M Маркет", "shop": "supermarket"}}, {"type": "node", "id": 4193648887, "lat": 43.2040703, "lon": 27.9129592, "tags": {"addr:city": "Варна", "addr:floor": "G", "addr:housenumber": "6", "addr:street": "Фредерик Шопен", "check_date": "2024-11-06", "internet_access": "no", "name": "Плевенски закуски", "name:en": "Plevenski zakuski", "name:it": "Plevenski Zakuski", "payment:cards": "no", "payment:cash": "yes", "payment:credit_cards": "no", "payment:debit_cards": "no", "shop": "bakery", "wheelchair": "yes"}}, {"type": "node", "id": 4279918889, "lat": 43.2034022, "lon": 27.916982, "tags": {"artist_name": "Венелин Божидаров", "artwork_type": "sculpture", "image": "https://photos.app.goo.gl/8zyayTTaBChrAhYx7", "name": "Рибарят и златната рибка", "name:bg": "Рибарят и златната рибка", "name:en": "The Fisherman And The Golden Fish", "tourism": "artwork", "wheelchair": "yes"}}, {"type": "node", "id": 4368496124, "lat": 43.2038426, "lon": 27.9135282, "tags": {"addr:country": "BG", "addr:housenumber": "11", "addr:postcode": "9000", "addr:street": "Драгоман", "amenity": "restaurant", "int_name": "Chuchura", "name": "Чучура", "opening_hours": "Mo-Fr 10:00-17:00"}}, {"type": "node", "id": 4383838789, "lat": 43.2034914, "lon": 27.9174533, "tags": {"addr:city": "Варна", "addr:housenumber": "1", "addr:postcode": "9000", "addr:street": "Михаил Колони", "air_conditioning": "yes", "amenity": "cafe", "changing_table": "no", "changing_table:fee": "no", "check_date": "2024-09-13", "cuisine": "international;pizza", "internet_access": "yes", "internet_access:fee": "no", "level": "1", "name": "Съндогс", "name:en": "Sundogs Pub", "opening_hours": "Mo-Sa 09:00-24:00; Su 10:00-24:00", "outdoor_seating": "yes", "payment:cash": "yes", "payment:credit_cards": "yes", "payment:debit_cards": "yes", "phone": "+359 98 893 6630", "smoking": "outside", "takeaway": "no", "toilets": "yes", "wheelchair": "limited"}}, {"type": "node", "id": 4744824083, "lat": 43.2016312, "lon": 27.9128247, "tags": {"addr:city": "Варна", "addr:housenumber": "20", "addr:postcode": "9028", "addr:street": "Цар Симеон I", "email": "digestive.eood@gmail.com", "name": "GinGer - Food Lover Spot", "opening_hours": "Mo-Fr 09:00-19:00; Sa 09:00-14:00", "organic": "only", "phone": "+359 88 331 2595", "shop": "supermarket"}}, {"type": "node", "id": 4806467735, "lat": 43.2045553, "lon": 27.9138317, "tags": {"addr:floor": "G", "amenity": "restaurant", "check_date": "2024-08-21", "internet_access": "no", "name": "Condor", "name:bg": "Кондор", "wheelchair": "limited"}}, {"type": "node", "id": 4884742510, "lat": 43.1999668, "lon": 27.9132034, "tags": {"amenity": "restaurant", "cuisine": "burger;steak_house", "diet:vegetarian": "yes", "image": "https://photos.app.goo.gl/21zRMLBo3MPxymzY9", "indoor_seating": "yes", "name": "Златната Овца", "name:en": "The Golden Sheep", "outdoor_seating": "pedestrian_zone", "reservation": "yes", "smoking": "outside"}}, {"type": "node", "id": 4973502621, "lat": 43.2019785, "lon": 27.9151382, "tags": {"addr:housenumber": "53", "addr:postcode": "9000", "addr:street": "Преслав", "amenity": "cafe", "cuisine": "tea", "name": "Социалната чайна", "name:en": "The Social Teahouse", "opening_hours": "Tu-Su 10:00-22:00", "website": "https://thesocialteahouse.bg/"}}, {"type": "node", "id": 4982333856, "lat": 43.1981351, "lon": 27.9176603, "tags": {"amenity": "cafe", "outdoor_seating": "yes"}}, {"type": "node", "id": 4995987818, "lat": 43.2023825, "lon": 27.9182606, "tags": {"name": "Фамили Маркет", "shop": "convenience"}}, {"type": "node", "id": 5016639525, "lat": 43.202662, "lon": 27.913991, "tags": {"addr:city": "Варна", "addr:country": "BG", "addr:housenumber": "61", "addr:postcode": "9000", "addr:street": "Преслав", "amenity": "atm", "brand": "Общинска банка", "brand:bg": "Общинска банка", "brand:en": "Municipal Bank", "brand:wikidata": "Q12289109", "indoor": "no", "opening_hours": "24/7", "operator": "Общинска банка", "operator:wikidata": "Q12289109", "source": "survey"}}, {"type": "node", "id": 5437361048, "lat": 43.2003688, "lon": 27.915946, "tags": {"addr:housenumber": "31", "addr:street": "Преслав", "amenity": "restaurant", "cuisine": "regional", "name": "Ресто"}}, {"type": "node", "id": 5486396051, "lat": 43.2033091, "lon": 27.9136017, "tags": {"amenity": "cafe", "name": "Bistro Boulevard"}}, {"type": "node", "id": 5853167488, "lat": 43.2024772, "lon": 27.9143073, "tags": {"check_date": "2025-09-24", "name": "Стармаркет", "shop": "supermarket"}}, {"type": "node", "id": 5853183085, "lat": 43.2015692, "lon": 27.9127828, "tags": {"shop": "bakery"}}, {"type": "node", "id": 6028431864, "lat": 43.2037486, "lon": 27.9131658, "tags": {"amenity": "cafe"}}, {"type": "node", "id": 6032599589, "lat": 43.2034313, "lon": 27.9166713, "tags": {"addr:floor": "G", "amenity": "cafe", "brand": "Starbucks", "brand:wikidata": "Q37158", "check_date": "2024-09-13", "cuisine": "coffee_shop", "internet_access": "yes", "name": "Starbucks", "official_name": "Starbucks Coffee", "opening_hours": "Mo-Fr 07:30-21:00; Sa-Su 08:00-21:00", "payment:cash": "yes", "payment:credit_cards": "yes", "payment:debit_cards": "yes", "smoking": "outside", "takeaway": "yes", "website": "https://www.starbucks.co.uk/store-locator/54698-288422/varna,-roman-tower", "wheelchair": "yes"}}, {"type": "node", "id": 6114850066, "lat": 43.2044775, "lon": 27.9147754, "tags": {"access": "private", "amenity": "parking", "parking": "surface"}}, {"type": "node", "id": 6344474600, "lat": 43.203524, "lon": 27.9178612, "tags": {"addr:floor": "1", "addr:housenumber": "5", "addr:street": "Михаил Колони", "name": "Гагарин Хаус", "name:en": "Gagarin House", "tourism": "hostel", "wheelchair": "no"}}, {"type": "node", "id": 6531581120, "lat": 43.2023369, "lon": 27.9153478, "tags": {"addr:housenumber": "9", "addr:street": "Мусала", "amenity": "cafe", "check_date": "2023-08-05", "name": "Coffee trend"}}, {"type": "node", "id": 6577563171, "lat": 43.200414, "lon": 27.9127126, "tags": {"historic": "memorial", "name": "генерал-лейтенант Илия Дончев"}}, {"type": "node", "id": 6582857665, "lat": 43.2015354, "lon": 27.9129941, "tags": {"shop": "bakery"}}, {"type": "node", "id": 6582857666, "lat": 43.2020522, "lon": 27.9131305, "tags": {"historic": "memorial", "memorial": "plaque", "name": "Д-р Анастасия Головина", "name:en": "Anastasia Golovina", "name:ro": "Anastasia Golovina"}}, {"type": "node", "id": 6694375471, "lat": 43.2016443, "lon": 27.9180441, "tags": {"access": "no", "historic": "archaeological_site"}}, {"type": "node", "id": 6696791871, "lat": 43.203465, "lon": 27.9181193, "tags": {"access": "yes", "amenity": "bicycle_parking", "bicycle_parking": "rack", "capacity": "16", "covered": "no", "fee": "no"}}, {"type": "node", "id": 6697472565, "lat": 43.2034265, "lon": 27.9166234, "tags": {"access": "no", "archaeological_site": "fortification", "historic": "archaeological_site", "indoor": "yes"}}, {"type": "node", "id": 6724930811, "lat": 43.2001569, "lon": 27.9126978, "tags": {"historic": "memorial", "memorial": "bust", "name": "Михаил Зантополов"}}, {"type": "node", "id": 6727538505, "lat": 43.1999966, "lon": 27.9129124, "tags": {"check_date": "2023-12-14", "name": "Браво", "shop": "bakery"}}, {"type": "node", "id": 6824971026, "lat": 43.2022444, "lon": 27.9178451, "tags": {"information": "guidepost", "tourism": "information"}}, {"type": "node", "id": 7040430027, "lat": 43.2039571, "lon": 27.9160022, "tags": {"addr:city": "Варна", "addr:housenumber": "9", "addr:postcode": "9000", "addr:street": "Иван Вазов", "amenity": "restaurant", "cuisine": "persian", "name": "Purple Nastarans - иранска кухня", "name:en": "Purple Nastarans - Iranian Cuisine", "outdoor_seating": "no"}}, {"type": "node", "id": 7168687174, "lat": 43.2033984, "lon": 27.9170756, "tags": {"access": "yes", "amenity": "drinking_water", "fee": "no", "fountain": "bubbler", "manufacturer": "Енчо Енчев ЕТЕ, Долна Оряховица", "operational_status": "operational", "water_source": "main", "wheelchair": "limited"}}, {"type": "node", "id": 7457188452, "lat": 43.2029976, "lon": 27.916964, "tags": {"amenity": "cafe", "description": "Зърнени закуски, коктейли, шейкове, сандвичи, лимонади, гофрети...\n\"...само във Варна ги мешим..\" засега", "name": "Ей тука", "opening_hours": "Mo-Fr 10:00-19:30; Sa 10:30-19:00; Su 13:00-19:00", "website": "https://www.facebook.com/eitukacafe/"}}, {"type": "node", "id": 7500907674, "lat": 43.2032852, "lon": 27.9130062, "tags": {"artist_name": "проф. Пламен Братанов", "artwork_type": "statue", "image": "https://photos.app.goo.gl/dhPrXSEL35d7V8ob6", "material": "bronze", "name": "Иван Церов", "start_date": "2019-04-25", "tourism": "artwork"}}, {"type": "node", "id": 7522672456, "lat": 43.200652, "lon": 27.9142689, "tags": {"description": "https://news.bnt.bg/news/rimska-nadgrobna-plocha-otkriha-arheolozi-vav-varna-1054649news.html", "historic": "archaeological_site", "historic:civilization": "roman", "name": "късноантична сграда с търговски функции и баня", "website": "https://news.bnt.bg/news/rimska-nadgrobna-plocha-otkriha-arheolozi-vav-varna-1054649news.html"}}, {"type": "node", "id": 7563813450, "lat": 43.2042762, "lon": 27.9176851, "tags": {"addr:city": "Варна", "addr:housenumber": "33A", "addr:postcode": "9000", "addr:street": "бул. Княз Борис I", "amenity": "cafe", "changing_table": "no", "check_date": "2023-08-03", "name": "Delfino di Moda", "opening_hours": "PH,Mo-Su 09:00-18:00", "takeaway": "no", "toilets:wheelchair": "no", "wheelchair": "limited"}}, {"type": "node", "id": 7712858812, "lat": 43.1991881, "lon": 27.913945, "tags": {"name": "Green", "tourism": "hotel"}}, {"type": "node", "id": 7715872765, "lat": 43.1984715, "lon": 27.9168472, "tags": {"access": "private", "amenity": "parking"}}, {"type": "node", "id": 7760568085, "lat": 43.20165, "lon": 27.9155829, "tags": {"addr:housenumber": "28", "addr:street": "Преслав", "amenity": "cafe", "check_date": "2023-04-17", "internet_access": "wlan", "internet_access:fee": "no", "internet_access:ssid": "Jasmin Cafe", "name": "Jasmin Coffee Roastery", "opening_hours": "09:00-19:00", "operator": "Джей Кафе ЕООД", "outdoor_seating": "yes", "payment:mastercard": "yes", "payment:visa": "yes", "phone": "+359 89 783 8029;+359 52 610 576", "website": "https://jasmin.coffee", "wheelchair": "no"}}, {"type": "node", "id": 7760887986, "lat": 43.2008445, "lon": 27.9161756, "tags": {"amenity": "restaurant", "name:en": "Old Buddies Burger Bar"}}, {"type": "node", "id": 7764728685, "lat": 43.2018729, "lon": 27.9130049, "tags": {"amenity": "cafe", "name": "Coffee cup", "name:en": "Coffee Cup", "outdoor_seating": "yes"}}, {"type": "node", "id": 7835978011, "lat": 43.2000083, "lon": 27.9127702, "tags": {"addr:housenumber": "31", "addr:street": "Цариброд", "amenity": "charging_station", "authentication:nfc": "yes", "bicycle": "yes", "capacity": "2", "fee": "no", "motorcar": "yes", "motorcycle": "yes", "name": "Цариброд", "opening_hours": "24/7", "operator": "ОП „Общински паркинги и синя зона“ - Варна", "parking:fee": "no", "ref": "5", "scooter": "yes", "socket:schuko": "2", "socket:schuko:output": "3.7 kW", "socket:schuko:voltage": "220", "socket:type2": "2", "socket:type2:amperage": "32", "socket:type2:output": "22 kW", "socket:type2:voltage": "400", "truck": "no"}}, {"type": "node", "id": 7892517418, "lat": 43.2044481, "lon": 27.9178377, "tags": {"historic": "memorial", "inscription": "В памет на родолюбеца Парашкева Николов, роден в гр. Варна и живял в гр. Одеса, издигнал на свои средства болница и този храм за поклонение Богу\n\nОт благодарното поколение към този, който е почитал и обичал Бога. Вечна му памет. \n1866 г. 5.VI.", "material": "marble", "memorial": "memorial", "name": "Парашкева Николов"}}, {"type": "node", "id": 7905499466, "lat": 43.2026358, "lon": 27.9152942, "tags": {"amenity": "charging_station", "authentication:nfc": "yes", "bicycle": "yes", "capacity": "2", "fee": "no", "motorcar": "yes", "motorcycle": "yes", "name": "Мусала", "opening_hours": "24/7", "operator": "ОП „Общински паркинги и синя зона“ - Варна", "parking:fee": "no", "ref": "4", "scooter": "yes", "socket:schuko": "2", "socket:schuko:output": "3.7 kW", "socket:schuko:voltage": "220", "socket:type2": "2", "socket:type2:amperage": "32", "socket:type2:output": "22 kW", "socket:type2:voltage": "400", "truck": "no"}}, {"type": "node", "id": 7911732453, "lat": 43.203444, "lon": 27.9118455, "tags": {"addr:housenumber": "4", "addr:street": "Русе", "amenity": "charging_station", "authentication:nfc": "yes", "bicycle": "yes", "capacity": "2", "covered": "no", "fee": "no", "motorcar": "yes", "motorcycle": "yes", "name": "Русе", "opening_hours": "24/7", "operator": "ОП „Общински паркинги и синя зона“ - Варна", "parking:fee": "no", "ref": "7", "scooter": "yes", "socket:schuko": "2", "socket:schuko:output": "3.7 kW", "socket:schuko:voltage": "220", "socket:type2": "2", "socket:type2:amperage": "32", "socket:type2:output": "22 kW", "socket:type2:voltage": "400", "truck": "no"}}, {"type": "node", "id": 7912111421, "lat": 43.2030729, "lon": 27.9141887, "tags": {"archaeological_site": "ruins", "historic": "archaeological_site", "historic:civilization": "roman"}}, {"type": "node", "id": 7912114220, "lat": 43.2030925, "lon": 27.9143103, "tags": {"artist_name": "Веселин Костадинов", "historic": "memorial", "material": "metal", "memorial": "statue", "name": "арх. Дабко Дабков", "start_date": "2016-04-06", "website": "https://www.dnevnik.bg/morski/2016/04/06/2737711_nai-izvestniiat_varnenski_arhitekt_sedna_na_peika_v/", "year_of_construction": "2016"}}, {"type": "node", "id": 7913389806, "lat": 43.1998134, "lon": 27.9154537, "tags": {"amenity": "cafe", "delivery": "yes", "name": "43.12 Café", "opening_hours:signed": "no", "outdoor_seating": "yes", "smoking": "outside", "takeaway": "yes", "website:menu": "https://randevue.app/en-GB/15511069-2018-434b-b3b9-3db98aaab515"}}, {"type": "node", "id": 7951693280, "lat": 43.1999477, "lon": 27.9140335, "tags": {"access": "private", "amenity": "parking"}}, {"type": "node", "id": 7951696093, "lat": 43.2033623, "lon": 27.9140091, "tags": {"addr:city": "Варна", "addr:housenumber": "2", "addr:street": "Драгоман", "amenity": "fast_food", "check_date": "2025-10-22", "cuisine": "pizza", "name": "Пицария Тавичката"}}, {"type": "node", "id": 7965892516, "lat": 43.2009709, "lon": 27.9134729, "tags": {"access": "customers", "amenity": "drinking_water", "bottle": "yes"}}, {"type": "node", "id": 8315686916, "lat": 43.1997645, "lon": 27.9149551, "tags": {"amenity": "cafe", "check_date": "2023-04-18", "internet_access": "yes", "name": "кафене \"Буров\""}}, {"type": "node", "id": 8324311517, "lat": 43.1997941, "lon": 27.9149813, "tags": {"addr:street": "Хан Омуртаг", "internet_access": "wlan", "name": "Хотел «Роял» 1905", "name:en": "Royal Hotel 1905", "tourism": "hotel"}}, {"type": "node", "id": 8722095877, "lat": 43.2016836, "lon": 27.9131269, "tags": {"name": "Еми маркет", "shop": "supermarket"}}, {"type": "node", "id": 8804575321, "lat": 43.2008021, "lon": 27.9172073, "tags": {"amenity": "drinking_water", "bottle": "yes", "fee": "no", "name": "Хубавата Недялка"}}, {"type": "node", "id": 8818220066, "lat": 43.1994367, "lon": 27.9178775, "tags": {"access": "yes", "amenity": "charging_station", "capacity": "2", "operator": "Община Варна"}}, {"type": "node", "id": 8818220115, "lat": 43.2000777, "lon": 27.9173987, "tags": {"amenity": "fast_food", "check_date": "2023-08-05", "cuisine": "juice;burger;sandwich", "name": "Термите"}}, {"type": "node", "id": 8825326028, "lat": 43.2025107, "lon": 27.9176606, "tags": {"amenity": "drinking_water", "man_made": "water_tap"}}, {"type": "node", "id": 8827564282, "lat": 43.2022022, "lon": 27.911876, "tags": {"name:signed": "no", "shop": "convenience"}}, {"type": "node", "id": 8827564291, "lat": 43.2019205, "lon": 27.9142392, "tags": {"amenity": "shelter", "shelter_type": "gazebo"}},