{"id": "51--9", "latMin": 51, "lonMin": -9, "latMax": 52, "lonMax": -8, "generated": "2026-04-16T18:39:08.406Z", "count": 12, "pois": [{"type": "node", "id": 4368591955, "lat": 51.749969, "lon": -9.553184, "tags": {"amenity": "charging_station", "fee": "yes", "operator": "ESB ecars", "name": "ESB Electric Vehicle Charge Point", "socket:type2": "2", "socket:type2:output": "22.0 kW", "charging_station:output": "22.0 kW", "capacity": "2", "authentication:none": "", "_source": "worldwide"}}, {"type": "node", "id": 5598638808, "lat": 51.681742, "lon": -9.457101, "tags": {"amenity": "charging_station", "fee": "yes", "operator": "ESB ecars", "name": "ESB Electric Vehicle Charge Point", "socket:type2": "2", "socket:type2:output": "22.0 kW", "charging_station:output": "22.0 kW", "capacity": "2", "authentication:none": "", "_source": "worldwide"}}, {"type": "node", "id": 7203269885, "lat": 51.839246, "lon": -9.901317, "tags": {"amenity": "charging_station", "access": "yes", "fee": "yes", "operator": "ESB ecars", "name": "ESB Electric Vehicle Charge Point", "socket:type2": "2", "socket:type2:output": "22.0 kW", "charging_station:output": "22.0 kW", "capacity": "2", "authentication:none": "", "_source": "worldwide"}}, {"type": "node", "id": 8257668785, "lat": 51.834507, "lon": -9.89974, "tags": {"amenity": "charging_station", "access": "yes", "fee": "no", "brand": "Tesla, Inc.", "operator": "Sneem Hotel", "name": "Tesla Destination Charger", "socket:type2": "2", "socket:type2:output": "11.0 kW", "charging_station:output": "11.0 kW", "capacity": "2", "authentication:none": "yes", "_source": "worldwide"}}, {"type": "node", "id": 8437344214, "lat": 51.884191, "lon": -9.589616, "tags": {"amenity": "charging_station", "access": "yes", "fee": "yes", "brand": "ecars", "opening_hours": "24/7", "operator": "ESB Group", "name": "ESB Electric Vehicle Fast Charge Point", "socket:type2": "1", "socket:type2:output": "22.0 kW", "socket:type2_combo": "1", "socket:type2_combo:output": "50.0 kW", "socket:chademo": "1", "socket:chademo:output": "50.0 kW", "charging_station:output": "50.0 kW", "capacity": "2", "authentication:none": "", "_source": "worldwide"}}, {"type": "node", "id": 8510175274, "lat": 51.721612, "lon": -9.111491, "tags": {"amenity": "charging_station", "fee": "yes", "opening_hours": "24/7", "operator": "ESB ecars", "name": "ESB Electric Vehicle Charge Point", "socket:type2": "2", "socket:type2:output": "22.0 kW", "charging_station:output": "22.0 kW", "capacity": "2", "authentication:none": "", "_source": "worldwide"}}, {"type": "node", "id": 8510175275, "lat": 51.553767, "lon": -9.262474, "tags": {"amenity": "charging_station", "fee": "yes", "brand": "ESB ecars", "opening_hours": "24/7", "operator": "ESB Group", "name": "ESB Electric Vehicle Fast Charge Point", "socket:type2": "1", "socket:type2:output": "22.0 kW", "socket:type2_combo": "1", "socket:type2_combo:output": "50.0 kW", "socket:chademo": "1", "socket:chademo:output": "50.0 kW", "charging_station:output": "50.0 kW", "capacity": "2", "authentication:none": "", "_source": "worldwide"}}, {"type": "node", "id": 8510175276, "lat": 51.650675, "lon": -9.910616, "tags": {"amenity": "charging_station", "fee": "yes", "opening_hours": "24/7", "operator": "ESB ecars", "name": "ESB Electric Vehicle Charge Point", "socket:type2": "2", "socket:type2:output": "22.0 kW", "charging_station:output": "22.0 kW", "capacity": "2", "authentication:none": "", "_source": "worldwide"}}, {"type": "node", "id": 9051104226, "lat": 51.877912, "lon": -9.580583, "tags": {"amenity": "charging_station", "fee": "no", "operator": "EasyGo", "name": "EasyGo Charging Station", "socket:type2": "1", "socket:type2:output": "22.0 kW", "charging_station:output": "22.0 kW", "capacity": "1", "authentication:none": "", "_source": "worldwide"}}, {"type": "node", "id": 9883717705, "lat": 51.679622, "lon": -9.461332, "tags": {"amenity": "charging_station", "fee": "yes", "operator": "EasyGo", "name": "EasyGo Charging Station", "socket:type2_combo": "1", "socket:type2_combo:output": "75.0 kW", "socket:chademo": "1", "socket:chademo:output": "75.0 kW", "charging_station:output": "75.0 kW", "capacity": "1", "authentication:none": "", "_source": "worldwide"}}, {"type": "node", "id": 11113760389, "lat": 51.527652, "lon": -9.545943, "tags": {"amenity": "charging_station", "access": "yes", "fee": "yes", "brand": "Raption 150", "operator": "ePower", "name": "ePower - Raption 150", "socket:type2_combo": "2", "socket:type2_combo:output": "150.0 kW", "charging_station:output": "150.0 kW", "capacity": "2", "authentication:none": "", "_source": "worldwide"}}, {"type": "node", "id": 11621607599, "lat": 51.871598, "lon": -9.644278, "tags": {"amenity": "charging_station", "fee": "yes", "operator": "Clenergy EV", "name": "Ladestation Clenergy EV", "socket:type2": "2", "socket:type2:output": "22.0 kW", "charging_station:output": "22.0 kW", "capacity": "2", "authentication:none": "", "_source": "worldwide"}}]}