{"id": "44-28", "latMin": 44, "lonMin": 28, "latMax": 45, "lonMax": 29, "generated": "2026-04-16T18:39:08.052Z", "count": 6, "pois": [{"type": "node", "id": 4022258451, "lat": 44.148666, "lon": 28.357204, "tags": {"amenity": "charging_station", "opening_hours": "24/7", "operator": "MOL", "name": "Ladestation MOL", "_source": "worldwide"}}, {"type": "node", "id": 7125748119, "lat": 44.169509, "lon": 28.610335, "tags": {"amenity": "charging_station", "_source": "worldwide"}}, {"type": "node", "id": 8917172889, "lat": 44.089988, "lon": 28.610857, "tags": {"amenity": "charging_station", "name": "Statie incarcare Penny Agigea", "_source": "worldwide"}}, {"type": "node", "id": 9918593973, "lat": 44.203857, "lon": 28.63183, "tags": {"amenity": "charging_station", "access": "customers", "fee": "yes", "brand": "Tesla Supercharger", "opening_hours": "24/7", "operator": "Tesla", "name": "Constanța Supercharger", "addr:street": "Bulevardul Alexandru Lăpușneanu 116C", "addr:city": "Constanța", "addr:country": "RO", "socket:type2_combo": "6", "socket:type2_combo:output": "250.0 kW", "charging_station:output": "250.0 kW", "capacity": "6", "_source": "worldwide"}}, {"type": "node", "id": 9962434093, "lat": 44.203103, "lon": 28.649063, "tags": {"amenity": "charging_station", "brand": "Enel X", "operator": "Enel X", "name": "Enel X", "capacity": "1", "_source": "worldwide"}}, {"type": "node", "id": 13301236914, "lat": 44.26565, "lon": 28.261039, "tags": {"amenity": "charging_station", "_source": "worldwide"}}]}