{"id": "37-121", "latMin": 37, "lonMin": 121, "latMax": 38, "lonMax": 122, "generated": "2026-04-16T18:39:07.628Z", "count": 19, "pois": [{"type": "node", "id": 10882848989, "lat": 37.505099, "lon": 121.103191, "tags": {"amenity": "charging_station", "brand": "国家电网", "operator": "国家电网有限公司", "name": "国家电网", "_source": "worldwide"}}, {"type": "node", "id": 10882848990, "lat": 37.503684, "lon": 121.100826, "tags": {"amenity": "charging_station", "brand": "国家电网", "operator": "国家电网有限公司", "name": "国家电网", "_source": "worldwide"}}, {"type": "node", "id": 11049425890, "lat": 37.435853, "lon": 121.59142, "tags": {"amenity": "charging_station", "brand": "NIO Power", "name": "蔚来换电站", "_source": "worldwide"}}, {"type": "node", "id": 11158354519, "lat": 37.543492, "lon": 121.3853, "tags": {"amenity": "charging_station", "brand": "NIO Power", "name": "蔚来换电站", "_source": "worldwide"}}, {"type": "node", "id": 11224250298, "lat": 37.538149, "lon": 121.225055, "tags": {"amenity": "charging_station", "brand": "NIO Power", "name": "蔚来换电站", "_source": "worldwide"}}, {"type": "node", "id": 11308728140, "lat": 37.567839, "lon": 121.18641, "tags": {"amenity": "charging_station", "brand": "NIO Power", "name": "蔚来换电站", "_source": "worldwide"}}, {"type": "node", "id": 12518356921, "lat": 37.441904, "lon": 121.452272, "tags": {"amenity": "charging_station", "fee": "yes", "name": "特来电（烟台莱山学府小区充电站）", "socket:type1": "10", "socket:type1:output": "7.0 kW", "charging_station:output": "7.0 kW", "capacity": "10", "_source": "worldwide"}}, {"type": "node", "id": 12518356926, "lat": 37.441512, "lon": 121.45279, "tags": {"amenity": "charging_station", "fee": "yes", "name": "云快充（大海科技学府小区充电站）", "socket:type1": "6", "socket:type1:output": "14.0 kW", "charging_station:output": "14.0 kW", "capacity": "6", "_source": "worldwide"}}, {"type": "node", "id": 12518356927, "lat": 37.450866, "lon": 121.424251, "tags": {"amenity": "charging_station", "fee": "yes", "name": "星星充电(绿色家园充电站)", "socket:type1": "16", "socket:type1:output": "480.0 kW", "charging_station:output": "480.0 kW", "capacity": "18", "_source": "worldwide"}}, {"type": "node", "id": 12518356928, "lat": 37.455229, "lon": 121.432153, "tags": {"amenity": "charging_station", "fee": "yes", "name": "特斯拉超级充电站(烟台宝龙城市广场地下站)", "socket:tesla_supercharger": "9", "socket:tesla_supercharger:output": "250.0 kW", "charging_station:output": "250.0 kW", "capacity": "9", "_source": "worldwide"}}, {"type": "node", "id": 12518356929, "lat": 37.456552, "lon": 121.432252, "tags": {"amenity": "charging_station", "fee": "yes", "name": "特来电（烟台银座商城莱山店地下充电站）", "socket:type1": "2", "socket:type1:output": "60.0 kW", "charging_station:output": "60.0 kW", "capacity": "2", "_source": "worldwide"}}, {"type": "node", "id": 12518356930, "lat": 37.456443, "lon": 121.431418, "tags": {"amenity": "charging_station", "fee": "yes", "name": "星星充电（烟台莱山区银座商城充电站）", "socket:type1": "16", "socket:type1:output": "60.0 kW", "charging_station:output": "60.0 kW", "capacity": "16", "_source": "worldwide"}}, {"type": "node", "id": 12518356931, "lat": 37.460195, "lon": 121.447077, "tags": {"amenity": "charging_station", "fee": "yes", "name": "星星充电（烟台广电大厦充电站）", "socket:type1": "16", "socket:type1:output": "480.0 kW", "charging_station:output": "480.0 kW", "capacity": "16", "_source": "worldwide"}}, {"type": "node", "id": 12518356932, "lat": 37.455206, "lon": 121.451521, "tags": {"amenity": "charging_station", "fee": "yes", "name": "理想超充站（烟台莱山汽车东站充电站）", "socket:type1": "8", "socket:type1:output": "360.0 kW", "charging_station:output": "360.0 kW", "capacity": "8", "_source": "worldwide"}}, {"type": "node", "id": 12518356933, "lat": 37.439593, "lon": 121.449341, "tags": {"amenity": "charging_station", "fee": "yes", "name": "特斯拉超级充电站（烟台红星美凯龙）", "socket:tesla_supercharger": "8", "socket:tesla_supercharger:output": "120.0 kW", "charging_station:output": "120.0 kW", "capacity": "8", "_source": "worldwide"}}, {"type": "node", "id": 12518356934, "lat": 37.446501, "lon": 121.43432, "tags": {"amenity": "charging_station", "fee": "yes", "name": "特来电充电站（烟台莱山长宁路）", "socket:type1": "25", "socket:type1:output": "150.0 kW", "charging_station:output": "150.0 kW", "capacity": "25", "_source": "worldwide"}}, {"type": "node", "id": 12518356935, "lat": 37.442621, "lon": 121.442788, "tags": {"amenity": "charging_station", "fee": "yes", "name": "凤凰文旅汽车充电站（莱山消防救援大队内部专用）", "_source": "worldwide"}}, {"type": "node", "id": 12996141012, "lat": 37.024275, "lon": 121.884945, "tags": {"amenity": "charging_station", "brand": "国家电网", "operator": "国家电网有限公司", "name": "国家电网", "_source": "worldwide"}}, {"type": "node", "id": 13718132601, "lat": 37.439665, "lon": 121.456904, "tags": {"amenity": "charging_station", "access": "private", "name": "EV Charging Station", "_source": "worldwide"}}]}