{"id": "41--88", "latMin": 41, "lonMin": -88, "latMax": 42, "lonMax": -87, "generated": "2026-04-16T18:39:07.822Z", "count": 99, "pois": [{"type": "node", "id": 3732523117, "lat": 41.58493, "lon": -87.72106, "tags": {"amenity": "charging_station", "fee": "yes", "access": "customers", "opening_hours": "24/7", "brand": "Tesla Supercharger", "network": "Supercharger", "operator": "Tesla", "name": "Country Club Hills Supercharger", "addr:street": "167th Street", "addr:housenumber": "4201", "addr:postcode": "60478", "addr:city": "Country Club Hills", "addr:country": "US", "capacity": "8", "_source": "worldwide"}}, {"type": "node", "id": 4273586962, "lat": 41.788724, "lon": -87.605219, "tags": {"amenity": "charging_station", "fee": "yes", "brand": "ChargePoint", "operator": "ChargePoint", "name": "ChargePoint", "socket:type1": "2", "capacity": "2", "_source": "worldwide"}}, {"type": "node", "id": 4273596775, "lat": 41.784807, "lon": -87.604771, "tags": {"amenity": "charging_station", "fee": "yes", "brand": "ChargePoint", "operator": "ChargePoint", "name": "ChargePoint", "socket:type1": "2", "capacity": "2", "_source": "worldwide"}}, {"type": "node", "id": 4273683484, "lat": 41.943214, "lon": -87.689294, "tags": {"amenity": "charging_station", "fee": "yes", "opening_hours": "24/7", "brand": "EVgo", "operator": "EVgo", "name": "eVgo", "socket:chademo": "1", "socket:type1_combo": "1", "capacity": "2", "_source": "worldwide"}}, {"type": "node", "id": 4273693903, "lat": 41.925693, "lon": -87.666075, "tags": {"amenity": "charging_station", "brand": "EVgo", "operator": "EVgo", "name": "eVgo", "socket:chademo": "1", "socket:type1": "2", "capacity": "3", "_source": "worldwide"}}, {"type": "node", "id": 4273699839, "lat": 41.926899, "lon": -87.679423, "tags": {"amenity": "charging_station", "name": "EV Charging Station", "socket:type1": "4", "capacity": "4", "_source": "worldwide"}}, {"type": "node", "id": 4273721147, "lat": 41.942049, "lon": -87.669198, "tags": {"amenity": "charging_station", "fee": "no", "name": "EV Charging Station", "socket:type1": "2", "capacity": "2", "_source": "worldwide"}}, {"type": "node", "id": 4273724383, "lat": 41.939262, "lon": -87.670712, "tags": {"amenity": "charging_station", "name": "EV Charging Station", "socket:type1": "2", "capacity": "2", "_source": "worldwide"}}, {"type": "node", "id": 4273895027, "lat": 41.978611, "lon": -87.904109, "tags": {"amenity": "charging_station", "fee": "no", "name": "EV Charging Station", "socket:type1": "2", "capacity": "2", "_source": "worldwide"}}, {"type": "node", "id": 4273969495, "lat": 41.951338, "lon": -87.883846, "tags": {"amenity": "charging_station", "fee": "yes", "opening_hours": "24/7", "brand": "EVgo", "operator": "EVgo", "name": "eVgo", "socket:chademo": "1", "socket:type1_combo": "1", "capacity": "2", "_source": "worldwide"}}, {"type": "node", "id": 4273969496, "lat": 41.949747, "lon": -87.881832, "tags": {"amenity": "charging_station", "fee": "yes", "opening_hours": "24/7", "brand": "EVgo", "operator": "EVgo", "name": "eVgo", "socket:chademo": "1", "socket:type1_combo": "1", "capacity": "2", "_source": "worldwide"}}, {"type": "node", "id": 4273976994, "lat": 41.955472, "lon": -87.865182, "tags": {"amenity": "charging_station", "fee": "no", "name": "EV Charging Station", "socket:type1": "3", "capacity": "3", "_source": "worldwide"}}, {"type": "node", "id": 4929573132, "lat": 41.902663, "lon": -87.785533, "tags": {"amenity": "charging_station", "operator": "PDOP", "name": "Soofa Solar Phone Charger", "_source": "worldwide"}}, {"type": "node", "id": 4935444849, "lat": 41.633602, "lon": -87.054689, "tags": {"amenity": "charging_station", "name": "EV Charging Station", "socket:type1": "2", "socket:type1:output": "6.6 kW", "charging_station:output": "6.6 kW", "capacity": "2", "_source": "worldwide"}}, {"type": "node", "id": 5272848326, "lat": 41.957888, "lon": -87.78929, "tags": {"amenity": "charging_station", "name": "EV Charging Station", "_source": "worldwide"}}, {"type": "node", "id": 6375025307, "lat": 41.979766, "lon": -87.90992, "tags": {"amenity": "charging_station", "name": "EV Charging Station", "_source": "worldwide"}}, {"type": "node", "id": 6375025311, "lat": 41.9779, "lon": -87.910347, "tags": {"amenity": "charging_station", "name": "EV Charging Station", "_source": "worldwide"}}, {"type": "node", "id": 6375025318, "lat": 41.976956, "lon": -87.910562, "tags": {"amenity": "charging_station", "name": "EV Charging Station", "_source": "worldwide"}}, {"type": "node", "id": 6375025359, "lat": 41.980785, "lon": -87.909859, "tags": {"amenity": "charging_station", "name": "EV Charging Station", "_source": "worldwide"}}, {"type": "node", "id": 6375342612, "lat": 41.977148, "lon": -87.90721, "tags": {"amenity": "charging_station", "name": "EV Charging Station", "_source": "worldwide"}}, {"type": "node", "id": 6375342625, "lat": 41.980152, "lon": -87.906456, "tags": {"amenity": "charging_station", "name": "EV Charging Station", "_source": "worldwide"}}, {"type": "node", "id": 6439733211, "lat": 41.981296, "lon": -87.889349, "tags": {"amenity": "charging_station", "operator": "chargepoint.com", "name": "chargepoint.com", "_source": "worldwide"}}, {"type": "node", "id": 6597685402, "lat": 41.88646, "lon": -87.62026, "tags": {"amenity": "charging_station", "fee": "yes", "access": "customers", "opening_hours": "24/7", "brand": "Tesla Supercharger", "network": "Supercharger", "operator": "Tesla", "name": "Tesla Supercharger", "addr:street": "North Columbus Drive", "addr:housenumber": "225", "addr:postcode": "60601", "addr:city": "Chicago", "addr:country": "US", "capacity": "10", "_source": "worldwide"}}, {"type": "node", "id": 6597688581, "lat": 41.86913, "lon": -87.63997, "tags": {"amenity": "charging_station", "fee": "yes", "access": "customers", "opening_hours": "24/7", "brand": "Tesla Supercharger", "network": "Supercharger", "operator": "Tesla", "name": "Tesla Supercharger", "addr:street": "South Canal Street", "addr:housenumber": "1100", "addr:postcode": "60607", "addr:city": "Chicago", "addr:country": "US", "capacity": "14", "_source": "worldwide"}}, {"type": "node", "id": 6597688709, "lat": 41.93734, "lon": -87.64467, "tags": {"amenity": "charging_station", "fee": "yes", "access": "customers", "opening_hours": "24/7", "brand": "Tesla Supercharger", "network": "Supercharger", "operator": "Tesla", "name": "Tesla Supercharger", "addr:street": "North Broadway", "addr:housenumber": "3030", "addr:postcode": "60657", "addr:city": "Chicago", "addr:country": "US", "capacity": "8", "_source": "worldwide"}}, {"type": "node", "id": 6597694510, "lat": 41.90804, "lon": -87.64784, "tags": {"amenity": "charging_station", "fee": "yes", "access": "customers", "opening_hours": "24/7", "brand": "Tesla Supercharger", "network": "Supercharger", "operator": "Tesla", "name": "Tesla Supercharger", "addr:street": "North Halsted Street", "addr:housenumber": "1457", "addr:postcode": "60642", "addr:city": "Chicago", "addr:country": "US", "capacity": "10", "_source": "worldwide"}}, {"type": "node", "id": 6601111634, "lat": 41.97509, "lon": -87.8665, "tags": {"amenity": "charging_station", "fee": "yes", "access": "customers", "opening_hours": "24/7", "brand": "Tesla Supercharger", "network": "Supercharger", "operator": "Tesla", "name": "Rosemont Supercharger", "addr:street": "Fashion Outlets Way", "addr:housenumber": "5220", "addr:postcode": "60018", "addr:city": "Rosemont", "addr:country": "US", "capacity": "10", "_source": "worldwide"}}, {"type": "node", "id": 6601434210, "lat": 41.46844, "lon": -87.34361, "tags": {"amenity": "charging_station", "fee": "yes", "access": "customers", "opening_hours": "24/7", "brand": "Tesla Supercharger", "network": "Supercharger", "operator": "Tesla, Inc.", "name": "Merrillville Supercharger", "addr:street": "West Lincoln Highway", "addr:housenumber": "611", "addr:postcode": "46410", "addr:city": "Merrillville", "addr:country": "US", "capacity": "22", "_source": "worldwide"}}, {"type": "node", "id": 6814498511, "lat": 41.973927, "lon": -87.90035, "tags": {"amenity": "charging_station", "name": "EV Charging Station", "_source": "worldwide"}}, {"type": "node", "id": 6814498513, "lat": 41.974382, "lon": -87.900536, "tags": {"amenity": "charging_station", "name": "EV Charging Station", "_source": "worldwide"}}, {"type": "node", "id": 8138707734, "lat": 41.982516, "lon": -87.669166, "tags": {"amenity": "charging_station", "fee": "no", "access": "yes", "brand": "Shell Recharge", "operator": "Shell Recharge", "name": "Shell Recharge", "_source": "worldwide"}}, {"type": "node", "id": 9512500309, "lat": 41.622659, "lon": -87.208492, "tags": {"amenity": "charging_station", "fee": "no", "brand": "ChargePoint", "operator": "ChargePoint", "name": "ChargePoint", "_source": "worldwide"}}, {"type": "node", "id": 9512500310, "lat": 41.781494, "lon": -87.861044, "tags": {"amenity": "charging_station", "brand": "Electrify America", "operator": "Electrify America", "name": "Electrify America", "_source": "worldwide"}}, {"type": "node", "id": 9654051435, "lat": 41.713293, "lon": -87.783689, "tags": {"amenity": "charging_station", "brand": "EVgo", "operator": "EVgo", "name": "EVgo", "_source": "worldwide"}}, {"type": "node", "id": 9654051462, "lat": 41.71653, "lon": -87.783436, "tags": {"amenity": "charging_station", "fee": "no", "brand": "Shell Recharge", "operator": "Shell Recharge", "name": "Shell Recharge", "_source": "worldwide"}}, {"type": "node", "id": 9698554139, "lat": 41.781707, "lon": -87.867537, "tags": {"amenity": "charging_station", "brand": "ChargePoint", "operator": "ChargePoint", "name": "ChargePoint", "_source": "worldwide"}}, {"type": "node", "id": 9755294233, "lat": 41.99683, "lon": -87.881868, "tags": {"amenity": "charging_station", "brand": "ChargePoint", "operator": "ChargePoint", "name": "ChargePoint", "_source": "worldwide"}}, {"type": "node", "id": 9755294234, "lat": 41.995626, "lon": -87.882331, "tags": {"amenity": "charging_station", "brand": "ChargePoint", "operator": "ChargePoint", "name": "ChargePoint", "_source": "worldwide"}}, {"type": "node", "id": 10043768765, "lat": 41.864692, "lon": -87.645391, "tags": {"amenity": "charging_station", "brand": "Blink", "operator": "Blink", "name": "Blink", "_source": "worldwide"}}, {"type": "node", "id": 10044998097, "lat": 41.866967, "lon": -87.639567, "tags": {"amenity": "charging_station", "fee": "no", "brand": "Shell Recharge", "operator": "Shell Recharge", "name": "Shell Recharge", "_source": "worldwide"}}, {"type": "node", "id": 10238222991, "lat": 41.927785, "lon": -87.68583, "tags": {"amenity": "charging_station", "brand": "Tesla", "operator": "Tesla", "name": "Tesla Destination Charger", "capacity": "1", "_source": "worldwide"}}, {"type": "node", "id": 10284734628, "lat": 41.876315, "lon": -87.632628, "tags": {"amenity": "charging_station", "fee": "no", "brand": "ChargePoint", "operator": "ChargePoint", "name": "ChargePoint", "socket:type1": "2", "capacity": "2", "_source": "worldwide"}}, {"type": "node", "id": 10286634837, "lat": 41.998797, "lon": -87.888198, "tags": {"amenity": "charging_station", "fee": "no", "access": "yes", "brand": "Tesla", "name": "Tesla Macau", "socket:type1": "1", "capacity": "1", "_source": "worldwide"}}, {"type": "node", "id": 10313937742, "lat": 41.993307, "lon": -87.88148, "tags": {"amenity": "charging_station", "fee": "no", "access": "customers", "name": "EV Charging Station", "socket:type1": "2", "capacity": "2", "_source": "worldwide"}}, {"type": "node", "id": 10560378855, "lat": 41.836816, "lon": -87.626244, "tags": {"amenity": "charging_station", "fee": "yes", "name": "EV Charging Station", "_source": "worldwide"}}, {"type": "node", "id": 10579184505, "lat": 41.974974, "lon": -87.866885, "tags": {"amenity": "charging_station", "fee": "no", "brand": "Shell Recharge", "operator": "Shell Recharge", "name": "Shell Recharge", "socket:type1": "1", "capacity": "1", "_source": "worldwide"}}, {"type": "node", "id": 10579184507, "lat": 41.975347, "lon": -87.865969, "tags": {"amenity": "charging_station", "fee": "yes", "brand": "Electrify America", "operator": "Electrify America", "name": "Electrify America", "socket:type1_combo": "1", "capacity": "1", "_source": "worldwide"}}, {"type": "node", "id": 10722195453, "lat": 41.829581, "lon": -87.833407, "tags": {"amenity": "charging_station", "brand": "ChargePoint", "operator": "ChargePoint", "name": "ChargePoint", "_source": "worldwide"}}, {"type": "node", "id": 10735653040, "lat": 41.706819, "lon": -87.973083, "tags": {"amenity": "charging_station", "access": "private", "name": "EV Charging Station", "_source": "worldwide"}}, {"type": "node", "id": 10735687974, "lat": 41.704283, "lon": -87.973945, "tags": {"amenity": "charging_station", "access": "private", "name": "EV Charging Station", "_source": "worldwide"}}, {"type": "node", "id": 10735688002, "lat": 41.701078, "lon": -87.990476, "tags": {"amenity": "charging_station", "name": "EV Charging Station", "_source": "worldwide"}}, {"type": "node", "id": 10735688003, "lat": 41.705912, "lon": -87.985692, "tags": {"amenity": "charging_station", "name": "EV Charging Station", "_source": "worldwide"}}, {"type": "node", "id": 10735688008, "lat": 41.709964, "lon": -87.983554, "tags": {"amenity": "charging_station", "access": "private", "name": "EV Charging Station", "_source": "worldwide"}}, {"type": "node", "id": 10735688009, "lat": 41.71293, "lon": -87.980897, "tags": {"amenity": "charging_station", "name": "EV Charging Station", "_source": "worldwide"}}, {"type": "node", "id": 10735688022, "lat": 41.716885, "lon": -87.981541, "tags": {"amenity": "charging_station", "access": "employees", "network": "Loop EV", "name": "EV Charging Station", "_source": "worldwide"}}, {"type": "node", "id": 10735688023, "lat": 41.716318, "lon": -87.980213, "tags": {"amenity": "charging_station", "name": "EV Charging Station", "_source": "worldwide"}}, {"type": "node", "id": 10764760195, "lat": 41.464753, "lon": -87.028327, "tags": {"amenity": "charging_station", "operator": "Kohl's", "name": "Kohl's", "_source": "worldwide"}}, {"type": "node", "id": 10918272589, "lat": 41.932393, "lon": -87.711497, "tags": {"amenity": "charging_station", "fee": "yes", "access": "yes", "brand": "Electrify America", "operator": "Electrify America", "name": "Electrify America", "_source": "worldwide"}}, {"type": "node", "id": 11102242505, "lat": 41.946845, "lon": -87.646799, "tags": {"amenity": "charging_station", "brand": "Shell Recharge", "operator": "Shell Recharge", "name": "Volta Charging Station", "_source": "worldwide"}}, {"type": "node", "id": 11240292316, "lat": 41.600327, "lon": -87.26771, "tags": {"amenity": "charging_station", "brand": "ampUp", "name": "ampUp", "_source": "worldwide"}}, {"type": "node", "id": 11494798516, "lat": 41.86522, "lon": -87.667642, "tags": {"amenity": "charging_station", "brand": "EVgo", "operator": "EVgo", "name": "EVgo", "_source": "worldwide"}}, {"type": "node", "id": 11543561713, "lat": 41.880212, "lon": -87.647003, "tags": {"amenity": "charging_station", "fee": "yes", "access": "yes", "brand": "Shell Recharge", "operator": "Shell Recharge", "name": "Shell Recharge", "socket:type1": "2", "capacity": "2", "_source": "worldwide"}}, {"type": "node", "id": 11543588606, "lat": 41.877538, "lon": -87.656164, "tags": {"amenity": "charging_station", "fee": "yes", "access": "yes", "brand": "Electrify America", "operator": "Electrify America", "name": "Electrify America", "socket:chademo": "1", "socket:type1": "1", "socket:type1_combo": "3", "capacity": "8", "_source": "worldwide"}}, {"type": "node", "id": 11543588607, "lat": 41.876725, "lon": -87.653199, "tags": {"amenity": "charging_station", "fee": "yes", "access": "yes", "brand": "Blink", "operator": "Blink", "name": "Blink ParkChip Garage - 1035 Van Buren", "capacity": "3", "_source": "worldwide"}}, {"type": "node", "id": 11812126300, "lat": 41.69359, "lon": -87.60111, "tags": {"amenity": "charging_station", "fee": "yes", "access": "yes", "opening_hours": "24/7", "brand": "Tesla Supercharger", "network": "Supercharger", "operator": "Tesla", "name": "Tesla Supercharger", "_source": "worldwide"}}, {"type": "node", "id": 12099645379, "lat": 41.99914, "lon": -87.88411, "tags": {"amenity": "charging_station", "fee": "yes", "access": "yes", "opening_hours": "24/7", "brand": "Tesla Supercharger", "network": "Supercharger", "operator": "Tesla", "name": "Des Plaines Supercharger", "addr:street": "Mannheim Road", "addr:housenumber": "3025", "addr:postcode": "60018", "addr:city": "Des Plaines", "addr:country": "US", "capacity": "52", "_source": "worldwide"}}, {"type": "node", "id": 12677561667, "lat": 41.717535, "lon": -87.981601, "tags": {"amenity": "charging_station", "access": "employees", "network": "Loop EV", "name": "EV Charging Station", "_source": "worldwide"}}, {"type": "node", "id": 12685578695, "lat": 41.710215, "lon": -87.983859, "tags": {"amenity": "charging_station", "access": "private", "name": "EV Charging Station", "_source": "worldwide"}}, {"type": "node", "id": 12688732436, "lat": 41.702368, "lon": -87.991386, "tags": {"amenity": "charging_station", "name": "EV Charging Station", "_source": "worldwide"}}, {"type": "node", "id": 12688736153, "lat": 41.714281, "lon": -87.964069, "tags": {"amenity": "charging_station", "fee": "no", "access": "private", "name": "EV Charging Station", "_source": "worldwide"}}, {"type": "node", "id": 12772739324, "lat": 41.948397, "lon": -87.650009, "tags": {"amenity": "charging_station", "fee": "yes", "access": "yes", "brand": "EVgo", "operator": "EVgo", "name": "EVgo", "socket:type1": "2", "socket:type1_combo": "2", "capacity": "4", "_source": "worldwide"}}, {"type": "node", "id": 12878467083, "lat": 41.010269, "lon": -87.276593, "tags": {"amenity": "charging_station", "fee": "yes", "access": "yes", "opening_hours": "24/7", "brand": "Tesla Supercharger", "network": "Supercharger", "operator": "Tesla, Inc.", "name": "Tesla Supercharger", "addr:street": "North 600 East", "addr:housenumber": "856", "addr:postcode": "47943", "addr:city": "Fair Oaks", "addr:country": "US", "capacity": "12", "_source": "worldwide"}}, {"type": "node", "id": 12878501650, "lat": 41.008663, "lon": -87.276468, "tags": {"amenity": "charging_station", "fee": "yes", "access": "customers", "opening_hours": "24/7", "brand": "Tesla", "name": "Tesla Destination Charger", "addr:street": "North 600 East", "addr:housenumber": "708", "addr:postcode": "47943", "addr:city": "Fair Oaks", "addr:country": "US", "capacity": "2", "_source": "worldwide"}}, {"type": "node", "id": 12878503659, "lat": 41.011142, "lon": -87.276901, "tags": {"amenity": "charging_station", "fee": "yes", "access": "yes", "opening_hours": "24/7", "brand": "Tesla Supercharger", "network": "Supercharger", "operator": "Tesla, Inc.", "name": "Tesla Supercharger", "addr:street": "North 600 East", "addr:housenumber": "858", "addr:postcode": "47943", "addr:city": "Fair Oaks", "addr:country": "US", "capacity": "12", "_source": "worldwide"}}, {"type": "node", "id": 12944721999, "lat": 41.8133, "lon": -87.72189, "tags": {"amenity": "charging_station", "fee": "yes", "access": "customers", "opening_hours": "24/7", "brand": "Tesla Supercharger", "network": "Supercharger", "operator": "Tesla", "name": "Tesla Supercharger", "addr:street": "South Pulaski Road", "addr:housenumber": "4433", "addr:postcode": "60632", "addr:city": "Chicago", "addr:country": "US", "capacity": "12", "_source": "worldwide"}}, {"type": "node", "id": 12944743347, "lat": 41.7523, "lon": -87.9137, "tags": {"amenity": "charging_station", "fee": "yes", "access": "yes", "opening_hours": "24/7", "brand": "Tesla Supercharger", "network": "Supercharger", "operator": "Tesla", "name": "Tesla Supercharger", "addr:street": "Village Center Drive", "addr:housenumber": "515", "addr:postcode": "60527", "addr:city": "Burr Ridge", "addr:country": "US", "capacity": "16", "_source": "worldwide"}}, {"type": "node", "id": 12944743457, "lat": 41.928, "lon": -87.68548, "tags": {"amenity": "charging_station", "fee": "yes", "access": "customers", "opening_hours": "24/7", "brand": "Tesla Supercharger", "network": "Supercharger", "operator": "Tesla", "name": "Tesla Supercharger", "addr:street": "North Elston Avenue", "addr:housenumber": "2656", "addr:postcode": "60647", "addr:city": "Chicago", "addr:country": "US", "capacity": "12", "_source": "worldwide"}}, {"type": "node", "id": 12944743471, "lat": 41.52939, "lon": -87.70929, "tags": {"amenity": "charging_station", "fee": "yes", "access": "yes", "opening_hours": "24/7", "brand": "Tesla Supercharger", "network": "Supercharger", "operator": "Tesla", "name": "Flossmoor Supercharger", "addr:street": "Vollmer Road", "addr:housenumber": "3800", "addr:postcode": "60422", "addr:city": "Flossmoor", "addr:country": "US", "capacity": "8", "_source": "worldwide"}}, {"type": "node", "id": 12944743834, "lat": 41.61761, "lon": -87.0447, "tags": {"amenity": "charging_station", "fee": "yes", "access": "yes", "opening_hours": "24/7", "brand": "Tesla Supercharger", "network": "Supercharger", "operator": "Tesla", "name": "Chesterton Supercharger", "addr:street": "Plaza Drive", "addr:housenumber": "704", "addr:postcode": "46304", "addr:city": "Chesterton", "addr:country": "US", "capacity": "12", "_source": "worldwide"}}, {"type": "node", "id": 12944743876, "lat": 41.63233, "lon": -87.85023, "tags": {"amenity": "charging_station", "fee": "yes", "access": "yes", "opening_hours": "24/7", "brand": "Tesla Supercharger", "network": "Supercharger", "operator": "Tesla", "name": "Orland Park Supercharger", "addr:street": "95th Avenue", "addr:housenumber": "14225", "addr:postcode": "60492", "addr:city": "Orland Park", "addr:country": "US", "capacity": "12", "_source": "worldwide"}}, {"type": "node", "id": 12944743925, "lat": 41.1597, "lon": -87.84899, "tags": {"amenity": "charging_station", "fee": "yes", "access": "yes", "opening_hours": "24/7", "brand": "Tesla Supercharger", "network": "Supercharger", "operator": "Tesla", "name": "Tesla Supercharger", "addr:street": "North Kinzie Avenue", "addr:housenumber": "990", "addr:postcode": "60915", "addr:city": "Bradley", "addr:country": "US", "capacity": "12", "_source": "worldwide"}}, {"type": "node", "id": 12944743945, "lat": 41.49984, "lon": -87.88864, "tags": {"amenity": "charging_station", "fee": "yes", "access": "yes", "opening_hours": "24/7", "brand": "Tesla Supercharger", "network": "Supercharger", "operator": "Tesla, Inc.", "name": "Mokena Supercharger", "addr:street": "Lincoln Highway", "addr:housenumber": "11305", "addr:postcode": "60448", "addr:city": "Mokena", "addr:country": "US", "capacity": "12", "_source": "worldwide"}}, {"type": "node", "id": 12944744013, "lat": 41.58837, "lon": -87.21656, "tags": {"amenity": "charging_station", "fee": "yes", "access": "yes", "opening_hours": "24/7", "brand": "Tesla Supercharger", "network": "Supercharger", "operator": "Tesla", "name": "Tesla Supercharger", "addr:postcode": "46368", "addr:city": "Portage", "addr:country": "US", "capacity": "8", "_source": "worldwide"}}, {"type": "node", "id": 12944744018, "lat": 41.5874, "lon": -87.2176, "tags": {"amenity": "charging_station", "fee": "yes", "access": "yes", "opening_hours": "24/7", "brand": "Tesla Supercharger", "network": "Supercharger", "operator": "Tesla", "name": "Tesla Supercharger", "addr:postcode": "46368", "addr:city": "Portage", "addr:country": "US", "capacity": "8", "_source": "worldwide"}}, {"type": "node", "id": 12944744019, "lat": 41.85444, "lon": -87.9585, "tags": {"amenity": "charging_station", "fee": "yes", "access": "yes", "opening_hours": "24/7", "brand": "Tesla Supercharger", "network": "Supercharger", "operator": "Tesla", "name": "Oak Brook Supercharger", "addr:street": "West 16th Street", "addr:housenumber": "1600", "addr:postcode": "60523", "addr:city": "Oak Brook", "addr:country": "US", "capacity": "8", "_source": "worldwide"}}, {"type": "node", "id": 12944744076, "lat": 41.90641, "lon": -87.97821, "tags": {"amenity": "charging_station", "fee": "yes", "access": "yes", "opening_hours": "24/7", "brand": "Tesla Supercharger", "network": "Supercharger", "operator": "Tesla, Inc.", "name": "Villa Park Supercharger", "addr:street": "East North Avenue", "addr:housenumber": "50", "addr:postcode": "60181", "addr:city": "Villa Park", "addr:country": "US", "capacity": "16", "_source": "worldwide"}}, {"type": "node", "id": 12944744351, "lat": 41.72532, "lon": -87.68369, "tags": {"amenity": "charging_station", "fee": "yes", "access": "customers", "opening_hours": "24/7", "brand": "Tesla Supercharger", "network": "Supercharger", "operator": "Tesla", "name": "Evergreen Park Supercharger", "addr:street": "South Western Avenue", "addr:housenumber": "9200", "addr:postcode": "60805", "addr:city": "Evergreen Park", "addr:country": "US", "capacity": "10", "_source": "worldwide"}}, {"type": "node", "id": 12944744373, "lat": 41.56816, "lon": -87.50804, "tags": {"amenity": "charging_station", "fee": "yes", "access": "yes", "opening_hours": "24/7", "brand": "Tesla Supercharger", "network": "Supercharger", "operator": "Tesla", "name": "Munster Supercharger", "addr:street": "Calumet Avenue", "addr:housenumber": "8005", "addr:postcode": "46321", "addr:city": "Munster", "addr:country": "US", "capacity": "12", "_source": "worldwide"}}, {"type": "node", "id": 13003533295, "lat": 41.808733, "lon": -87.902152, "tags": {"amenity": "charging_station", "name": "EV Charging Station", "_source": "worldwide"}}, {"type": "node", "id": 13022146850, "lat": 41.617078, "lon": -87.848279, "tags": {"amenity": "charging_station", "name": "EV Charging Station", "_source": "worldwide"}}, {"type": "node", "id": 13119751480, "lat": 41.836488, "lon": -87.865798, "tags": {"amenity": "charging_station", "access": "private", "name": "EV Charging Station", "_source": "worldwide"}}, {"type": "node", "id": 13356142701, "lat": 41.930034, "lon": -87.67603, "tags": {"amenity": "charging_station", "fee": "yes", "brand": "Electrify America", "operator": "Electrify America", "name": "Costco Lincoln Park", "capacity": "4", "_source": "worldwide"}}, {"type": "node", "id": 13356718701, "lat": 41.999803, "lon": -87.883215, "tags": {"amenity": "charging_station", "brand": "bp pulse", "operator": "bp pulse", "name": "BP Pulse", "_source": "worldwide"}}, {"type": "node", "id": 13424669043, "lat": 41.586965, "lon": -87.217975, "tags": {"amenity": "charging_station", "operator": "GOEVIN", "name": "GOEVIN", "_source": "worldwide"}}, {"type": "node", "id": 13431178516, "lat": 41.749352, "lon": -87.974758, "tags": {"amenity": "charging_station", "brand": "Blink", "operator": "Blink", "name": "Blink", "_source": "worldwide"}}, {"type": "node", "id": 13643525001, "lat": 41.7169, "lon": -87.818143, "tags": {"amenity": "charging_station", "brand": "EVgo", "operator": "EVgo", "name": "EVgo", "_source": "worldwide"}}, {"type": "node", "id": 13667900501, "lat": 41.865888, "lon": -87.766623, "tags": {"amenity": "charging_station", "fee": "yes", "access": "yes", "opening_hours": "24/7", "brand": "Tesla Supercharger", "network": "Supercharger", "operator": "Tesla", "name": "Tesla Supercharger", "_source": "worldwide"}}, {"type": "node", "id": 13685634201, "lat": 41.84834, "lon": -87.953954, "tags": {"amenity": "charging_station", "operator": "Jolt", "name": "Jolt", "_source": "worldwide"}}, {"type": "node", "id": 13702140302, "lat": 41.80094, "lon": -87.92738, "tags": {"amenity": "charging_station", "name": "EV Charging Station", "_source": "worldwide"}}]}