{"id": "24-115", "latMin": 24, "lonMin": 115, "latMax": 25, "lonMax": 116, "generated": "2026-04-16T18:39:07.247Z", "count": 8, "pois": [{"type": "node", "id": 9869484771, "lat": 24.129171, "lon": 115.764611, "tags": {"amenity": "charging_station", "name": "EV Charging Station", "_source": "worldwide"}}, {"type": "node", "id": 13074280430, "lat": 24.237656, "lon": 115.64126, "tags": {"amenity": "charging_station", "operator": "广东交通集团", "name": "广东交通集团", "_source": "worldwide"}}, {"type": "node", "id": 13234434035, "lat": 24.932645, "lon": 115.758508, "tags": {"amenity": "charging_station", "brand": "国家电网", "operator": "国家电网有限公司", "name": "国家电网", "_source": "worldwide"}}, {"type": "node", "id": 13234434036, "lat": 24.934649, "lon": 115.755499, "tags": {"amenity": "charging_station", "brand": "国家电网", "operator": "国家电网有限公司", "name": "国家电网", "_source": "worldwide"}}, {"type": "node", "id": 13347388486, "lat": 24.28753, "lon": 115.426492, "tags": {"amenity": "charging_station", "name": "广东天路汽车充电站", "_source": "worldwide"}}, {"type": "node", "id": 13347388487, "lat": 24.285991, "lon": 115.426954, "tags": {"amenity": "charging_station", "name": "广东交通集团汽车充电站", "_source": "worldwide"}}, {"type": "node", "id": 13349848876, "lat": 24.78084, "lon": 115.639853, "tags": {"amenity": "charging_station", "brand": "星星充电充电站", "name": "星星充电充电站", "_source": "worldwide"}}, {"type": "node", "id": 13349848877, "lat": 24.780721, "lon": 115.635554, "tags": {"amenity": "charging_station", "name": "EV Charging Station", "_source": "worldwide"}}]}