{"id": "41--7", "latMin": 41, "lonMin": -7, "latMax": 42, "lonMax": -6, "generated": "2026-04-16T18:39:07.831Z", "count": 193, "pois": [{"type": "node", "id": 5370437952, "lat": 41.299398, "lon": -7.750169, "tags": {"amenity": "charging_station", "access": "yes", "fee": "yes", "brand": "edp Charge", "network": "Mobi.E", "opening_hours": "24/7", "operator": "EDP", "name": "VRL-00007", "addr:city": "Vila Real", "socket:type2_combo": "1", "socket:type2_combo:output": "50.0 kW", "socket:chademo": "1", "socket:chademo:output": "50.0 kW", "charging_station:output": "50.0 kW", "capacity": "2", "authentication:none": "", "_source": "worldwide"}}, {"type": "node", "id": 11303436717, "lat": 41.297696, "lon": -7.749985, "tags": {"amenity": "charging_station", "access": "yes", "fee": "yes", "brand": "edp Charge", "network": "Mobi.E", "opening_hours": "24/7", "operator": "EDP", "name": "VRL-00026", "addr:country": "ES", "socket:type2_combo": "1", "socket:type2_combo:output": "120.0 kW", "socket:chademo": "1", "socket:chademo:output": "50.0 kW", "charging_station:output": "120.0 kW", "capacity": "2", "authentication:none": "", "_source": "worldwide"}}, {"type": "node", "id": 8112888363, "lat": 41.018282, "lon": -7.776986, "tags": {"amenity": "charging_station", "access": "yes", "fee": "yes", "brand": "Galp electric", "network": "Mobi.E", "opening_hours": "24/7", "operator": "Galp Power", "name": "TRC-80001", "addr:country": "PT", "socket:type2": "2", "socket:type2:output": "22.0 kW", "charging_station:output": "22.0 kW", "capacity": "2", "authentication:none": "", "_source": "worldwide"}}, {"type": "node", "id": 1452468724, "lat": 41.019221, "lon": -7.773826, "tags": {"amenity": "charging_station", "access": "yes", "fee": "yes", "brand": "edp Charge", "network": "Mobi.E", "opening_hours": "24/7", "operator": "EDP", "name": "TRC-00003/4", "addr:country": "ES", "capacity": "4", "_source": "worldwide"}}, {"type": "node", "id": 8112945346, "lat": 41.122802, "lon": -7.601442, "tags": {"amenity": "charging_station", "access": "yes", "fee": "yes", "brand": "Atlante", "network": "Mobi.E", "opening_hours": "24/7", "operator": "Atlante", "name": "TBC-80002", "addr:country": "PT", "socket:type2": "2", "socket:type2:output": "22.0 kW", "charging_station:output": "22.0 kW", "capacity": "2", "authentication:none": "", "_source": "worldwide"}}, {"type": "node", "id": 8112945347, "lat": 41.116562, "lon": -7.569565, "tags": {"amenity": "charging_station", "access": "yes", "fee": "yes", "brand": "KLC", "network": "Mobi.E", "opening_hours": "24/7", "operator": "KLC Serviços", "name": "TBC-00004", "addr:country": "PT", "socket:type2": "2", "socket:type2:output": "22.0 kW", "charging_station:output": "22.0 kW", "capacity": "2", "authentication:none": "", "_source": "worldwide"}}, {"type": "node", "id": 8112945348, "lat": 41.108694, "lon": -7.693658, "tags": {"amenity": "charging_station", "access": "yes", "fee": "yes", "brand": "edp Charge", "network": "Mobi.E", "opening_hours": "24/7", "operator": "EDP", "name": "AMM-90001", "addr:country": "PT", "socket:type2": "2", "socket:type2:output": "22.0 kW", "charging_station:output": "22.0 kW", "capacity": "2", "authentication:none": "", "_source": "worldwide"}}, {"type": "node", "id": 8112945349, "lat": 41.100588, "lon": -7.810883, "tags": {"amenity": "charging_station", "access": "yes", "fee": "yes", "brand": "Powerdot", "network": "Mobi.E", "opening_hours": "24/7", "operator": "Powerdot", "name": "LMG-00002", "addr:country": "ES", "socket:type2": "2", "socket:type2:output": "22.0 kW", "charging_station:output": "22.0 kW", "capacity": "2", "authentication:none": "", "_source": "worldwide"}}, {"type": "node", "id": 13481538237, "lat": 41.100804, "lon": -7.810058, "tags": {"amenity": "charging_station", "access": "yes", "fee": "yes", "brand": "edp Charge", "network": "Mobi.E", "opening_hours": "24/7", "operator": "EDP", "name": "LMG-00021", "addr:country": "ES", "socket:type2": "1", "socket:type2:output": "22.0 kW", "socket:type2_combo": "2", "socket:type2_combo:output": "60.0 kW", "charging_station:output": "60.0 kW", "capacity": "2", "authentication:none": "", "_source": "worldwide"}}, {"type": "node", "id": 8112945350, "lat": 41.096561, "lon": -7.807504, "tags": {"amenity": "charging_station", "access": "yes", "fee": "yes", "brand": "Powerdot", "network": "Mobi.E", "opening_hours": "24/7", "operator": "Powerdot", "name": "LMG-00003", "addr:country": "ES", "socket:type2": "2", "socket:type2:output": "22.0 kW", "charging_station:output": "22.0 kW", "capacity": "2", "authentication:none": "", "_source": "worldwide"}}, {"type": "node", "id": 12188496424, "lat": 41.099346, "lon": -7.807229, "tags": {"amenity": "charging_station", "access": "yes", "fee": "yes", "brand": "Galp electric", "network": "Mobi.E", "opening_hours": "24/7", "operator": "Galp Power", "name": "LMG-00016", "addr:country": "ES", "socket:type2_combo": "2", "socket:type2_combo:output": "90.0 kW", "charging_station:output": "90.0 kW", "capacity": "2", "authentication:none": "", "_source": "worldwide"}}, {"type": "node", "id": 8112945351, "lat": 41.082884, "lon": -7.142016, "tags": {"amenity": "charging_station", "access": "yes", "fee": "yes", "brand": "edp Charge", "network": "Mobi.E", "opening_hours": "24/7", "operator": "EDP", "name": "VLF-90001", "addr:country": "PT", "socket:type2": "2", "socket:type2:output": "22.0 kW", "charging_station:output": "22.0 kW", "capacity": "2", "authentication:none": "", "_source": "worldwide"}}, {"type": "node", "id": 10066693060, "lat": 41.081658, "lon": -7.143527, "tags": {"amenity": "charging_station", "access": "yes", "fee": "yes", "brand": "edp Charge", "network": "Mobi.E", "opening_hours": "24/7", "operator": "EDP", "name": "VLF-90002", "addr:country": "PT", "socket:type2": "2", "socket:type2:output": "22.0 kW", "charging_station:output": "22.0 kW", "capacity": "2", "authentication:none": "", "_source": "worldwide"}}, {"type": "node", "id": 8112955255, "lat": 41.146388, "lon": -7.402334, "tags": {"amenity": "charging_station", "access": "yes", "fee": "yes", "brand": "edp Charge", "network": "Mobi.E", "opening_hours": "24/7", "operator": "EDP", "name": "SJP-90001", "addr:country": "PT", "socket:type2": "2", "socket:type2:output": "22.0 kW", "charging_station:output": "22.0 kW", "capacity": "2", "authentication:none": "", "_source": "worldwide"}}, {"type": "node", "id": 8113026403, "lat": 41.210979, "lon": -7.788129, "tags": {"amenity": "charging_station", "access": "yes", "fee": "yes", "brand": "Galp electric", "network": "Mobi.E", "opening_hours": "24/7", "operator": "Galp Power", "name": "SMP-90001", "addr:country": "PT", "socket:type2": "2", "socket:type2:output": "22.0 kW", "charging_station:output": "22.0 kW", "capacity": "2", "authentication:none": "", "_source": "worldwide"}}, {"type": "node", "id": 1454933946, "lat": 41.209922, "lon": -7.78578, "tags": {"amenity": "charging_station", "access": "yes", "addr:country": "ES", "capacity": "2", "_source": "worldwide"}}, {"type": "node", "id": 8113054721, "lat": 41.275828, "lon": -7.477116, "tags": {"amenity": "charging_station", "access": "yes", "fee": "yes", "brand": "Atlante", "network": "Mobi.E", "opening_hours": "24/7", "operator": "Atlante", "name": "ALJ-80001", "addr:country": "PT", "socket:type2": "2", "socket:type2:output": "22.0 kW", "charging_station:output": "22.0 kW", "capacity": "2", "authentication:none": "", "_source": "worldwide"}}, {"type": "node", "id": 9986743356, "lat": 41.278286, "lon": -7.476023, "tags": {"amenity": "charging_station", "access": "customers", "fee": "yes", "brand": "Galp electric", "network": "Mobi.E", "opening_hours": "24/7", "operator": "Galp Power", "name": "ALJ-00003", "addr:country": "PT", "socket:type2": "2", "socket:type2:output": "22.0 kW", "charging_station:output": "22.0 kW", "capacity": "2", "authentication:none": "", "_source": "worldwide"}}, {"type": "node", "id": 11196096117, "lat": 41.280813, "lon": -7.473275, "tags": {"amenity": "charging_station", "access": "customers", "fee": "yes", "brand": "edp Charge", "network": "Mobi.E", "opening_hours": "24/7", "operator": "EDP", "name": "ALJ-00004", "addr:country": "ES", "socket:type2": "2", "socket:type2:output": "22.0 kW", "charging_station:output": "22.0 kW", "capacity": "2", "authentication:none": "", "_source": "worldwide"}}, {"type": "node", "id": 8113054722, "lat": 41.242403, "lon": -7.306303, "tags": {"amenity": "charging_station", "access": "yes", "fee": "yes", "brand": "Powerdot", "network": "Mobi.E", "opening_hours": "24/7", "operator": "Powerdot", "name": "CRZ-00001", "addr:country": "PT", "socket:type2": "2", "socket:type2:output": "22.0 kW", "charging_station:output": "22.0 kW", "capacity": "2", "authentication:none": "", "_source": "worldwide"}}, {"type": "node", "id": 8113069559, "lat": 41.3092, "lon": -7.737743, "tags": {"amenity": "charging_station", "access": "customers", "fee": "yes", "brand": "douromobe", "network": "Mobi.E", "opening_hours": "24/7", "operator": "Dourogás", "name": "VRL-00010", "addr:country": "ES", "socket:type2": "2", "socket:type2:output": "22.0 kW", "charging_station:output": "22.0 kW", "capacity": "2", "authentication:none": "", "_source": "worldwide"}}, {"type": "node", "id": 13191443841, "lat": 41.313398, "lon": -7.735123, "tags": {"amenity": "charging_station", "access": "customers", "fee": "yes", "brand": "Goldenergy", "network": "Mobi.E", "opening_hours": "24/7", "operator": "Goldenergy", "name": "VRL-00050", "addr:country": "ES", "socket:type2": "2", "socket:type2:output": "13.8 kW", "charging_station:output": "13.8 kW", "capacity": "2", "authentication:none": "", "_source": "worldwide"}}, {"type": "node", "id": 8113074614, "lat": 41.410113, "lon": -7.954439, "tags": {"amenity": "charging_station", "access": "yes", "fee": "yes", "brand": "Powerdot", "network": "Mobi.E", "opening_hours": "24/7", "operator": "Powerdot", "name": "MDB-00001", "addr:country": "PT", "socket:type2": "2", "socket:type2:output": "22.0 kW", "charging_station:output": "22.0 kW", "capacity": "2", "authentication:none": "", "_source": "worldwide"}}, {"type": "node", "id": 8113074615, "lat": 41.392021, "lon": -7.999503, "tags": {"amenity": "charging_station", "access": "yes", "fee": "yes", "brand": "edp Charge", "network": "Mobi.E", "opening_hours": "24/7", "operator": "EDP", "name": "CBT-90001", "addr:country": "PT", "socket:type2": "2", "socket:type2:output": "22.0 kW", "charging_station:output": "22.0 kW", "capacity": "2", "authentication:none": "", "_source": "worldwide"}}, {"type": "node", "id": 8115529942, "lat": 41.765063, "lon": -7.469409, "tags": {"amenity": "charging_station", "access": "yes", "fee": "yes", "brand": "Galp electric", "network": "Mobi.E", "opening_hours": "24/7", "operator": "Galp Power", "name": "CHV-00002", "addr:country": "ES", "socket:type2": "2", "socket:type2:output": "22.0 kW", "charging_station:output": "22.0 kW", "capacity": "2", "authentication:none": "", "_source": "worldwide"}}, {"type": "node", "id": 8115529944, "lat": 41.834785, "lon": -7.002433, "tags": {"amenity": "charging_station", "access": "yes", "fee": "yes", "brand": "Powerdot", "network": "Mobi.E", "opening_hours": "24/7", "operator": "Powerdot", "name": "VNH-00001", "addr:country": "PT", "socket:type2": "2", "socket:type2:output": "22.0 kW", "charging_station:output": "22.0 kW", "capacity": "2", "authentication:none": "", "_source": "worldwide"}}, {"type": "node", "id": 8115700034, "lat": 41.514801, "lon": -7.990394, "tags": {"amenity": "charging_station", "access": "yes", "fee": "yes", "brand": "Powerdot", "network": "Mobi.E", "opening_hours": "24/7", "operator": "Powerdot", "name": "CBC-90010", "addr:country": "PT", "socket:type2": "2", "socket:type2:output": "22.0 kW", "charging_station:output": "22.0 kW", "capacity": "2", "authentication:none": "", "_source": "worldwide"}}, {"type": "node", "id": 12580062302, "lat": 41.51428, "lon": -7.988805, "tags": {"amenity": "charging_station", "access": "yes", "fee": "yes", "brand": "wowplug", "network": "Mobi.E", "opening_hours": "24/7", "operator": "True Kare", "name": "CBC-00012", "addr:country": "ES", "socket:type2": "2", "socket:type2:output": "22.0 kW", "charging_station:output": "22.0 kW", "capacity": "2", "authentication:none": "", "_source": "worldwide"}}, {"type": "node", "id": 12580174658, "lat": 41.51294, "lon": -7.993847, "tags": {"amenity": "charging_station", "access": "yes", "fee": "yes", "brand": "wowplug", "network": "Mobi.E", "opening_hours": "24/7", "operator": "True Kare", "name": "CBC-00013", "addr:country": "ES", "socket:type2": "2", "socket:type2:output": "22.0 kW", "charging_station:output": "22.0 kW", "capacity": "2", "_source": "worldwide"}}, {"type": "node", "id": 12926595822, "lat": 41.512104, "lon": -7.991069, "tags": {"amenity": "charging_station", "access": "yes", "fee": "yes", "brand": "wowplug", "network": "Mobi.E", "opening_hours": "24/7", "operator": "True Kare", "name": "CBC-00015", "addr:country": "ES", "socket:type2": "2", "socket:type2:output": "22.0 kW", "charging_station:output": "22.0 kW", "capacity": "2", "authentication:none": "", "_source": "worldwide"}}, {"type": "node", "id": 8116398345, "lat": 41.294271, "lon": -7.735527, "tags": {"amenity": "charging_station", "access": "yes", "fee": "yes", "brand": "edp Charge", "network": "Mobi.E", "opening_hours": "24/7", "operator": "EDP", "name": "VRL-90004", "addr:country": "ES", "socket:type2": "2", "socket:type2:output": "7.4 kW", "charging_station:output": "7.4 kW", "capacity": "2", "authentication:none": "", "_source": "worldwide"}}, {"type": "node", "id": 8227492516, "lat": 41.293258, "lon": -7.735883, "tags": {"amenity": "charging_station", "access": "yes", "fee": "yes", "brand": "Lidl", "network": "Mobi.E", "opening_hours": "24/7", "operator": "Galp Power", "name": "VRL-00048", "addr:city": "Vila Real", "addr:country": "PT", "socket:type2_combo": "1", "socket:type2_combo:output": "50.0 kW", "socket:chademo": "1", "socket:chademo:output": "50.0 kW", "charging_station:output": "50.0 kW", "capacity": "2", "authentication:none": "", "_source": "worldwide"}}, {"type": "node", "id": 10891755085, "lat": 41.293021, "lon": -7.737753, "tags": {"amenity": "charging_station", "access": "yes", "fee": "yes", "brand": "Powerdot", "network": "Mobi.E", "opening_hours": "24/7", "operator": "Powerdot", "name": "VRL-00021", "addr:country": "ES", "socket:type2": "1", "socket:type2:output": "22.0 kW", "socket:type2_combo": "2", "socket:type2_combo:output": "100.0 kW", "socket:chademo": "1", "socket:chademo:output": "50.0 kW", "charging_station:output": "100.0 kW", "capacity": "2", "authentication:none": "", "_source": "worldwide"}}, {"type": "node", "id": 10948988809, "lat": 41.294435, "lon": -7.738571, "tags": {"amenity": "charging_station", "access": "yes", "fee": "yes", "brand": "Powerdot", "network": "Mobi.E", "opening_hours": "24/7", "operator": "Powerdot", "name": "VRL-000019", "addr:country": "ES", "socket:type2_combo": "2", "socket:type2_combo:output": "100.0 kW", "socket:chademo": "1", "socket:chademo:output": "50.0 kW", "charging_station:output": "100.0 kW", "capacity": "2", "authentication:none": "", "_source": "worldwide"}}, {"type": "node", "id": 11632262277, "lat": 41.292358, "lon": -7.736933, "tags": {"amenity": "charging_station", "access": "yes", "fee": "yes", "brand": "edp Charge", "network": "Mobi.E", "opening_hours": "24/7", "operator": "EDP", "name": "VRL-00013", "addr:country": "ES", "socket:type2_combo": "1", "socket:type2_combo:output": "120.0 kW", "socket:chademo": "1", "socket:chademo:output": "50.0 kW", "charging_station:output": "120.0 kW", "capacity": "2", "authentication:none": "", "_source": "worldwide"}}, {"type": "node", "id": 1487821336, "lat": 41.297104, "lon": -7.735302, "tags": {"amenity": "charging_station", "access": "yes", "fee": "yes", "brand": "Powerdot", "network": "Mobi.E", "opening_hours": "09:00-23:00", "operator": "Powerdot", "name": "VRL-00056…58", "addr:country": "ES", "capacity": "8", "_source": "worldwide"}}, {"type": "node", "id": 8116398346, "lat": 41.302388, "lon": -7.739293, "tags": {"amenity": "charging_station", "access": "yes", "fee": "yes", "brand": "Powerdot", "network": "Mobi.E", "opening_hours": "24/7", "operator": "Powerdot", "name": "VRL-90005", "addr:country": "ES", "socket:type2": "2", "socket:type2:output": "3.7 kW", "charging_station:output": "3.7 kW", "capacity": "2", "authentication:none": "", "_source": "worldwide"}}, {"type": "node", "id": 8116398347, "lat": 41.299932, "lon": -7.744211, "tags": {"amenity": "charging_station", "access": "yes", "fee": "yes", "brand": "Powerdot", "network": "Mobi.E", "opening_hours": "24/7", "operator": "Powerdot", "name": "VRL-90003", "addr:country": "ES", "socket:type2": "2", "socket:type2:output": "3.7 kW", "charging_station:output": "3.7 kW", "capacity": "2", "authentication:none": "", "_source": "worldwide"}}, {"type": "node", "id": 8116398353, "lat": 41.305099, "lon": -7.743273, "tags": {"amenity": "charging_station", "access": "yes", "fee": "yes", "brand": "Atlante", "network": "Mobi.E", "opening_hours": "24/7", "operator": "Atlante", "name": "VRL-00001", "addr:country": "ES", "socket:type2": "2", "socket:type2:output": "3.7 kW", "charging_station:output": "3.7 kW", "capacity": "2", "authentication:none": "", "_source": "worldwide"}}, {"type": "node", "id": 10217263456, "lat": 41.306581, "lon": -7.742274, "tags": {"amenity": "charging_station", "access": "yes", "fee": "yes", "network": "Mobi.E", "opening_hours": "24/7", "operator": "Goldenergy", "name": "VRL-00014", "addr:country": "ES", "socket:type2": "2", "socket:type2:output": "22.0 kW", "charging_station:output": "22.0 kW", "capacity": "2", "authentication:none": "", "_source": "worldwide"}}, {"type": "node", "id": 1495229655, "lat": 41.304048, "lon": -7.744997, "tags": {"amenity": "charging_station", "access": "yes", "fee": "yes", "brand": "edp Charge", "network": "Mobi.E", "opening_hours": "24/7", "operator": "EDP", "name": "VRL-00045/46/47", "addr:country": "ES", "capacity": "6", "_source": "worldwide"}}, {"type": "node", "id": 8199289504, "lat": 41.156741, "lon": -7.640018, "tags": {"amenity": "charging_station", "access": "customers", "fee": "no", "brand": "Tesla", "network": "Tesla", "operator": "Tesla", "name": "Quinta do Tedo Tesla Destination Charger", "addr:country": "PT", "socket:tesla_destination": "1", "socket:tesla_destination:output": "22.0 kW", "charging_station:output": "22.0 kW", "capacity": "2", "_source": "worldwide"}}, {"type": "node", "id": 8199289505, "lat": 41.18842, "lon": -7.727602, "tags": {"amenity": "charging_station", "access": "customers", "fee": "no", "brand": "Tesla", "network": "Tesla", "operator": "Tesla", "name": "Quinta Seara d'Ordens Tesla Destination Charger", "addr:country": "PT", "socket:tesla_destination": "1", "socket:tesla_destination:output": "11.0 kW", "charging_station:output": "11.0 kW", "capacity": "2", "_source": "worldwide"}}, {"type": "node", "id": 8199423477, "lat": 41.503867, "lon": -7.801821, "tags": {"amenity": "charging_station", "access": "customers", "fee": "no", "brand": "Tesla", "network": "Tesla", "operator": "Tesla", "name": "Pena Park Hotel Tesla Destination Charger", "addr:country": "PT", "socket:tesla_destination": "2", "socket:tesla_destination:output": "22.0 kW", "charging_station:output": "22.0 kW", "capacity": "2", "_source": "worldwide"}}, {"type": "node", "id": 1346643063, "lat": 41.503404, "lon": -7.80097, "tags": {"amenity": "charging_station", "access": "yes", "fee": "yes", "brand": "Tesla Supercharger", "network": "Tesla", "opening_hours": "24/7", "operator": "Tesla", "name": "Ribeira de Pena Supercharger", "addr:country": "PT", "socket:type2_combo": "10", "socket:type2_combo:output": "150.0 kW", "charging_station:output": "150.0 kW", "capacity": "10", "_source": "worldwide"}}, {"type": "node", "id": 8199446702, "lat": 41.760239, "lon": -7.488905, "tags": {"amenity": "charging_station", "access": "customers", "fee": "no", "brand": "Tesla", "network": "Tesla", "operator": "Tesla", "name": "Hotel Casino Chaves Tesla Destination Charger", "addr:country": "PT", "socket:tesla_destination": "1", "socket:tesla_destination:output": "22.0 kW", "charging_station:output": "22.0 kW", "capacity": "2", "_source": "worldwide"}}, {"type": "node", "id": 1454921779, "lat": 41.76177, "lon": -7.487767, "tags": {"amenity": "charging_station", "access": "yes", "fee": "yes", "brand": "Powerdot", "network": "Mobi.E", "opening_hours": "24/7", "operator": "Powerdot", "name": "CHV-00005/6", "addr:country": "ES", "capacity": "4", "_source": "worldwide"}}, {"type": "node", "id": 8235126215, "lat": 41.758885, "lon": -7.46974, "tags": {"amenity": "charging_station", "access": "yes", "fee": "yes", "brand": "Lidl", "network": "Mobi.E", "opening_hours": "24/7", "operator": "Galp Power", "name": "CHV-00027", "addr:city": "Chaves", "socket:type2_combo": "1", "socket:type2_combo:output": "50.0 kW", "socket:chademo": "1", "socket:chademo:output": "50.0 kW", "charging_station:output": "50.0 kW", "capacity": "2", "authentication:none": "", "_source": "worldwide"}}, {"type": "node", "id": 8287704638, "lat": 41.16481, "lon": -7.628334, "tags": {"amenity": "charging_station", "access": "customers", "brand": "Tesla", "operator": "Quinta do Crasto", "name": "Quinta do Crasto", "addr:country": "PT", "socket:tesla_destination": "1", "socket:tesla_destination:output": "11.0 kW", "charging_station:output": "11.0 kW", "capacity": "2", "_source": "worldwide"}}, {"type": "node", "id": 8287713628, "lat": 41.162974, "lon": -7.547641, "tags": {"amenity": "charging_station", "access": "customers", "brand": "Tesla", "operator": "Quinta da Côrte", "name": "Quinta da Côrte", "addr:country": "PT", "socket:tesla_destination": "1", "socket:tesla_destination:output": "22.0 kW", "charging_station:output": "22.0 kW", "capacity": "2", "_source": "worldwide"}}, {"type": "node", "id": 8307307696, "lat": 41.184583, "lon": -7.811784, "tags": {"amenity": "charging_station", "access": "customers", "operator": "Casa da Quinta de Santa Cruz", "name": "Casa da Quinta de Santa Cruz", "addr:country": "PT", "socket:type2": "2", "socket:type2:output": "11.0 kW", "charging_station:output": "11.0 kW", "capacity": "2", "_source": "worldwide"}}, {"type": "node", "id": 8307371534, "lat": 41.151485, "lon": -7.68242, "tags": {"amenity": "charging_station", "access": "customers", "fee": "no", "brand": "Porsche", "network": "Porsche", "operator": "Porsche", "name": "Porsche Destination Charging", "addr:country": "PT", "capacity": "2", "authentication:none": "yes", "_source": "worldwide"}}, {"type": "node", "id": 8307392486, "lat": 41.596976, "lon": -7.313214, "tags": {"amenity": "charging_station", "access": "customers", "fee": "yes", "operator": "Friautomóveis", "name": "Friautomóveis", "addr:country": "PT", "socket:type2": "2", "socket:type2:output": "22.0 kW", "charging_station:output": "22.0 kW", "capacity": "2", "_source": "worldwide"}}, {"type": "node", "id": 8307397344, "lat": 41.276166, "lon": -7.716653, "tags": {"amenity": "charging_station", "access": "customers", "operator": "JAPautomotive", "name": "JAPautomotive", "addr:country": "PT", "socket:type2": "2", "socket:type2:output": "22.0 kW", "charging_station:output": "22.0 kW", "capacity": "2", "_source": "worldwide"}}, {"type": "node", "id": 10022775159, "lat": 41.277739, "lon": -7.713192, "tags": {"amenity": "charging_station", "access": "customers", "operator": "JapBlue", "name": "JAP Blue", "addr:country": "PT", "socket:type2": "2", "socket:type2:output": "22.0 kW", "charging_station:output": "22.0 kW", "capacity": "2", "_source": "worldwide"}}, {"type": "node", "id": 8307406367, "lat": 41.256577, "lon": -7.769383, "tags": {"amenity": "charging_station", "access": "customers", "operator": "Magnificat Wine Boutique Hotel", "name": "MW by Trius Hotel", "addr:country": "PT", "socket:type2": "2", "socket:type2:output": "7.4 kW", "charging_station:output": "7.4 kW", "capacity": "2", "_source": "worldwide"}}, {"type": "node", "id": 8307407928, "lat": 41.686986, "lon": -7.66734, "tags": {"amenity": "charging_station", "access": "yes", "fee": "yes", "brand": "Powerdot", "network": "Mobi.E", "opening_hours": "24/7", "operator": "Powerdot", "name": "BTC-00001", "addr:country": "PT", "socket:type2": "2", "socket:type2:output": "22.0 kW", "charging_station:output": "22.0 kW", "capacity": "2", "authentication:none": "", "_source": "worldwide"}}, {"type": "node", "id": 8309494922, "lat": 41.105817, "lon": -7.965102, "tags": {"amenity": "charging_station", "access": "yes", "fee": "yes", "brand": "edp Charge", "network": "Mobi.E", "opening_hours": "24/7", "operator": "EDP", "name": "RSD-90001", "addr:country": "ES", "socket:type2": "2", "socket:type2:output": "22.0 kW", "charging_station:output": "22.0 kW", "capacity": "2", "authentication:none": "", "_source": "worldwide"}}, {"type": "node", "id": 8309502490, "lat": 41.162503, "lon": -7.79249, "tags": {"amenity": "charging_station", "access": "yes", "fee": "yes", "brand": "Atlante", "network": "Mobi.E", "opening_hours": "24/7", "operator": "Atlante", "name": "PRG-80001", "addr:country": "PT", "socket:type2": "2", "socket:type2:output": "22.0 kW", "charging_station:output": "22.0 kW", "capacity": "2", "authentication:none": "", "_source": "worldwide"}}, {"type": "node", "id": 9920134222, "lat": 41.164665, "lon": -7.793667, "tags": {"amenity": "charging_station", "access": "yes", "fee": "yes", "brand": "Repsol", "network": "Mobi.E", "opening_hours": "24/7", "operator": "Repsol", "name": "PRG-00002", "addr:country": "ES", "socket:type2_combo": "1", "socket:type2_combo:output": "60.0 kW", "socket:chademo": "1", "socket:chademo:output": "50.0 kW", "charging_station:output": "60.0 kW", "capacity": "2", "authentication:none": "", "_source": "worldwide"}}, {"type": "node", "id": 12033959113, "lat": 41.164874, "lon": -7.79823, "tags": {"amenity": "charging_station", "access": "yes", "fee": "yes", "brand": "Lidl", "network": "Mobi.E", "opening_hours": "24/7", "operator": "Galp Power", "name": "PRG-00017", "addr:country": "PT", "socket:type2_combo": "1", "socket:type2_combo:output": "50.0 kW", "socket:chademo": "1", "socket:chademo:output": "50.0 kW", "charging_station:output": "50.0 kW", "capacity": "2", "_source": "worldwide"}}, {"type": "node", "id": 13663650580, "lat": 41.16408, "lon": -7.789972, "tags": {"amenity": "charging_station", "access": "yes", "fee": "yes", "brand": "wowplug", "network": "Mobi.E", "opening_hours": "24/7", "operator": "True Kare", "name": "PRG-00009", "addr:country": "ES", "socket:type2": "2", "socket:type2:output": "22.0 kW", "charging_station:output": "22.0 kW", "capacity": "2", "_source": "worldwide"}}, {"type": "node", "id": 8309512826, "lat": 41.157829, "lon": -7.892739, "tags": {"amenity": "charging_station", "access": "yes", "fee": "yes", "brand": "Galp electric", "network": "Mobi.E", "opening_hours": "24/7", "operator": "Galp Power", "name": "MSF-00001", "addr:country": "ES", "socket:type2": "2", "socket:type2:output": "22.0 kW", "charging_station:output": "22.0 kW", "capacity": "2", "authentication:none": "", "_source": "worldwide"}}, {"type": "node", "id": 8309562557, "lat": 41.405722, "lon": -7.450638, "tags": {"amenity": "charging_station", "access": "yes", "fee": "yes", "brand": "edp Charge", "network": "Mobi.E", "opening_hours": "24/7", "operator": "EDP", "name": "MUR-90001", "addr:country": "PT", "socket:type2": "2", "socket:type2:output": "22.0 kW", "charging_station:output": "22.0 kW", "capacity": "2", "authentication:none": "", "_source": "worldwide"}}, {"type": "node", "id": 13123537578, "lat": 41.406154, "lon": -7.450075, "tags": {"amenity": "charging_station", "access": "yes", "fee": "yes", "brand": "Repsol", "network": "Mobi.E", "opening_hours": "24/7", "operator": "Repsol", "name": "MUR-00002", "addr:country": "ES", "socket:type2_combo": "1", "socket:type2_combo:output": "50.0 kW", "socket:chademo": "1", "socket:chademo:output": "50.0 kW", "charging_station:output": "50.0 kW", "capacity": "2", "_source": "worldwide"}}, {"type": "node", "id": 8309582383, "lat": 41.418024, "lon": -7.006158, "tags": {"amenity": "charging_station", "access": "customers", "fee": "no", "brand": "Porsche", "network": "Porsche", "operator": "Porsche", "name": "Porsche Destination Charging", "addr:country": "PT", "capacity": "2", "authentication:none": "yes", "_source": "worldwide"}}, {"type": "node", "id": 8312996633, "lat": 41.73698, "lon": -7.469228, "tags": {"amenity": "charging_station", "access": "yes", "fee": "yes", "brand": "Atlante", "network": "Mobi.E", "opening_hours": "24/7", "operator": "Atlante", "name": "CHV-00001", "addr:country": "ES", "socket:type2": "2", "socket:type2:output": "22.0 kW", "charging_station:output": "22.0 kW", "capacity": "2", "authentication:none": "", "_source": "worldwide"}}, {"type": "node", "id": 9847826024, "lat": 41.732289, "lon": -7.467909, "tags": {"amenity": "charging_station", "access": "yes", "fee": "yes", "brand": "Powerdot", "network": "Mobi.E", "opening_hours": "24/7", "operator": "Powerdot", "name": "CHV-00011", "addr:city": "Chaves", "socket:type2_combo": "1", "socket:type2_combo:output": "100.0 kW", "socket:chademo": "1", "socket:chademo:output": "80.0 kW", "charging_station:output": "100.0 kW", "capacity": "2", "authentication:none": "", "_source": "worldwide"}}, {"type": "node", "id": 12046802447, "lat": 41.731859, "lon": -7.469007, "tags": {"amenity": "charging_station", "access": "yes", "fee": "yes", "brand": "Moeve", "network": "Mobi.E", "opening_hours": "24/7", "operator": "Cepsa", "name": "CHV-00026", "addr:country": "ES", "socket:type2_combo": "2", "socket:type2_combo:output": "300.0 kW", "charging_station:output": "300.0 kW", "capacity": "2", "authentication:none": "", "_source": "worldwide"}}, {"type": "node", "id": 8313008424, "lat": 41.840926, "lon": -7.950025, "tags": {"amenity": "charging_station", "access": "yes", "fee": "yes", "brand": "Galp electric", "network": "Mobi.E", "opening_hours": "24/7", "operator": "Galp Power", "name": "MTR-90004", "addr:country": "PT", "socket:type2": "2", "socket:type2:output": "22.0 kW", "charging_station:output": "22.0 kW", "capacity": "2", "authentication:none": "", "_source": "worldwide"}}, {"type": "node", "id": 8313008736, "lat": 41.086246, "lon": -7.798827, "tags": {"amenity": "charging_station", "access": "yes", "fee": "yes", "brand": "Powerdot", "network": "Mobi.E", "opening_hours": "24/7", "operator": "Powerdot", "name": "LMG-90004", "addr:country": "ES", "socket:type2": "2", "socket:type2:output": "22.0 kW", "charging_station:output": "22.0 kW", "capacity": "2", "authentication:none": "", "_source": "worldwide"}}, {"type": "node", "id": 8313012013, "lat": 41.519641, "lon": -7.793079, "tags": {"amenity": "charging_station", "access": "yes", "fee": "yes", "brand": "Galp electric", "network": "Mobi.E", "opening_hours": "24/7", "operator": "Galp Power", "name": "RPN-90001", "addr:country": "PT", "socket:type2": "2", "socket:type2:output": "22.0 kW", "charging_station:output": "22.0 kW", "capacity": "2", "authentication:none": "", "_source": "worldwide"}}, {"type": "node", "id": 8385277365, "lat": 41.493607, "lon": -7.181707, "tags": {"amenity": "charging_station", "access": "yes", "fee": "yes", "brand": "Lidl", "network": "Mobi.E", "opening_hours": "24/7", "operator": "Galp Power", "name": "MDL-00014", "addr:city": "Mirandela", "addr:country": "PT", "socket:type2_combo": "1", "socket:type2_combo:output": "50.0 kW", "socket:chademo": "1", "socket:chademo:output": "50.0 kW", "charging_station:output": "50.0 kW", "capacity": "2", "authentication:none": "", "_source": "worldwide"}}, {"type": "node", "id": 11275817610, "lat": 41.493193, "lon": -7.176589, "tags": {"amenity": "charging_station", "access": "yes", "fee": "yes", "brand": "Repsol", "network": "Mobi.E", "opening_hours": "24/7", "operator": "Repsol", "name": "MDL-00007", "addr:country": "ES", "socket:type2_combo": "1", "socket:type2_combo:output": "60.0 kW", "socket:chademo": "1", "socket:chademo:output": "50.0 kW", "charging_station:output": "60.0 kW", "capacity": "2", "authentication:none": "", "_source": "worldwide"}}, {"type": "node", "id": 8427190382, "lat": 41.823207, "lon": -7.791682, "tags": {"amenity": "charging_station", "access": "yes", "fee": "yes", "brand": "ALFA Energia", "network": "Mobi.E", "opening_hours": "24/7", "operator": "Alfa Energia", "name": "MTR-00008", "addr:country": "PT", "socket:type2": "2", "socket:type2:output": "22.0 kW", "charging_station:output": "22.0 kW", "capacity": "2", "authentication:none": "", "_source": "worldwide"}}, {"type": "node", "id": 8439046055, "lat": 41.60993, "lon": -7.313818, "tags": {"amenity": "charging_station", "access": "yes", "fee": "yes", "brand": "Atlante", "network": "Mobi.E", "opening_hours": "24/7", "operator": "Atlante", "name": "VLP-00002", "addr:country": "PT", "socket:type2": "2", "socket:type2:output": "22.0 kW", "charging_station:output": "22.0 kW", "capacity": "2", "authentication:none": "", "_source": "worldwide"}}, {"type": "node", "id": 1454264642, "lat": 41.609193, "lon": -7.310363, "tags": {"amenity": "charging_station", "access": "yes", "fee": "yes", "brand": "edp Charge", "network": "Mobi.E", "opening_hours": "24/7", "operator": "EDP", "name": "VLP-00005/6", "addr:country": "ES", "capacity": "4", "_source": "worldwide"}}, {"type": "node", "id": 8792974362, "lat": 41.492904, "lon": -7.645527, "tags": {"amenity": "charging_station", "access": "yes", "fee": "yes", "brand": "Powerdot", "network": "Mobi.E", "opening_hours": "24/7", "operator": "Powerdot", "name": "VPA-00002", "addr:country": "ES", "socket:type2": "2", "socket:type2:output": "22.0 kW", "charging_station:output": "22.0 kW", "capacity": "2", "authentication:none": "", "_source": "worldwide"}}, {"type": "node", "id": 8830322333, "lat": 41.271086, "lon": -7.504879, "tags": {"amenity": "charging_station", "access": "customers", "operator": "Adega de Favaios", "name": "Adega de Favaios", "addr:country": "PT", "socket:type2": "2", "socket:type2:output": "22.0 kW", "charging_station:output": "22.0 kW", "capacity": "2", "_source": "worldwide"}}, {"type": "node", "id": 8833322154, "lat": 41.496659, "lon": -7.178422, "tags": {"amenity": "charging_station", "access": "yes", "fee": "yes", "brand": "Atlante", "network": "Mobi.E", "opening_hours": "24/7", "operator": "Atlante", "name": "MDL-00010", "addr:city": "Mirandela", "addr:country": "PT", "socket:type2_combo": "1", "socket:type2_combo:output": "60.0 kW", "socket:chademo": "1", "socket:chademo:output": "50.0 kW", "charging_station:output": "60.0 kW", "capacity": "2", "authentication:none": "", "_source": "worldwide"}}, {"type": "node", "id": 11673676755, "lat": 41.49583, "lon": -7.175635, "tags": {"amenity": "charging_station", "access": "customers", "fee": "yes", "brand": "edp Charge", "network": "Mobi.E", "opening_hours": "24/7", "operator": "EDP", "name": "MDL-00008", "addr:country": "PT", "socket:type2": "2", "socket:type2:output": "7.4 kW", "charging_station:output": "7.4 kW", "capacity": "2", "authentication:none": "", "_source": "worldwide"}}, {"type": "node", "id": 8891759742, "lat": 41.270651, "lon": -7.674194, "tags": {"amenity": "charging_station", "access": "private", "opening_hours": "24/7", "operator": "cauema", "name": "ahoxus (call for emergencies)", "addr:country": "ES", "capacity": "1", "_source": "worldwide"}}, {"type": "node", "id": 9018342467, "lat": 41.173948, "lon": -7.049957, "tags": {"amenity": "charging_station", "access": "yes", "fee": "yes", "brand": "Powerdot", "network": "Mobi.E", "opening_hours": "24/7", "operator": "Powerdot", "name": "TMC-90001", "addr:country": "ES", "socket:type2": "2", "socket:type2:output": "22.0 kW", "charging_station:output": "22.0 kW", "capacity": "2", "authentication:none": "", "_source": "worldwide"}}, {"type": "node", "id": 13289895632, "lat": 41.175864, "lon": -7.052772, "tags": {"amenity": "charging_station", "access": "yes", "fee": "yes", "brand": "e-flow", "network": "Mobi.E", "opening_hours": "24/7", "operator": "DTE", "name": "TMC-00005", "addr:country": "ES", "socket:type2": "2", "socket:type2:output": "22.0 kW", "charging_station:output": "22.0 kW", "capacity": "2", "_source": "worldwide"}}, {"type": "node", "id": 13687369179, "lat": 41.174777, "lon": -7.05277, "tags": {"amenity": "charging_station", "access": "yes", "fee": "yes", "brand": "e-flow", "network": "Mobi.E", "opening_hours": "24/7", "operator": "DTE", "name": "TMC-00004", "addr:country": "ES", "socket:type2_combo": "2", "socket:type2_combo:output": "60.0 kW", "charging_station:output": "60.0 kW", "capacity": "2", "_source": "worldwide"}}, {"type": "node", "id": 9066262142, "lat": 41.29423, "lon": -7.746105, "tags": {"amenity": "charging_station", "access": "private", "opening_hours": "24/7", "operator": "Goldenergy", "name": "Ladestation Goldenergy", "addr:country": "PT", "socket:type2": "2", "socket:type2:output": "22.0 kW", "charging_station:output": "22.0 kW", "capacity": "2", "_source": "worldwide"}}, {"type": "node", "id": 9108791146, "lat": 41.154388, "lon": -7.797062, "tags": {"amenity": "charging_station", "access": "customers", "operator": "Quinta da Pacheca", "name": "Quinta da Pacheca", "addr:country": "PT", "socket:type2": "2", "socket:type2:output": "22.0 kW", "charging_station:output": "22.0 kW", "capacity": "2", "_source": "worldwide"}}, {"type": "node", "id": 9118724923, "lat": 41.70282, "lon": -7.514103, "tags": {"amenity": "charging_station", "access": "yes", "fee": "yes", "brand": "uCharge", "network": "Mobi.E", "opening_hours": "24/7", "operator": "Logical Gravity", "name": "Logical Gravity - uCharge", "addr:country": "ES", "socket:type2": "2", "socket:type2:output": "22.0 kW", "charging_station:output": "22.0 kW", "capacity": "2", "_source": "worldwide"}}, {"type": "node", "id": 9180448193, "lat": 41.25807, "lon": -7.762067, "tags": {"amenity": "charging_station", "access": "customers", "fee": "no", "operator": "Quinta da Cumeira", "name": "Quinta da Cumieira (para emergências)", "addr:country": "ES", "socket:schuko": "2", "socket:schuko:output": "3.7 kW", "charging_station:output": "3.7 kW", "capacity": "3", "authentication:none": "yes", "_source": "worldwide"}}, {"type": "node", "id": 9208602995, "lat": 41.481207, "lon": -7.179331, "tags": {"amenity": "charging_station", "access": "yes", "fee": "yes", "brand": "Powerdot", "network": "Mobi.E", "opening_hours": "24/7", "operator": "Powerdot", "name": "MDL-00004", "addr:country": "PT", "socket:type2": "2", "socket:type2:output": "22.0 kW", "charging_station:output": "22.0 kW", "capacity": "2", "authentication:none": "", "_source": "worldwide"}}, {"type": "node", "id": 9214178420, "lat": 41.741691, "lon": -7.466784, "tags": {"amenity": "charging_station", "access": "yes", "fee": "yes", "brand": "Iberdrola", "network": "Mobi.E", "opening_hours": "24/7", "operator": "Iberdrola", "name": "CHV-00004", "addr:country": "ES", "socket:type2": "2", "socket:type2:output": "11.0 kW", "charging_station:output": "11.0 kW", "capacity": "2", "authentication:none": "", "_source": "worldwide"}}, {"type": "node", "id": 9245406422, "lat": 41.146111, "lon": -7.885495, "tags": {"amenity": "charging_station", "access": "customers", "operator": "Quinta de São Bernardo", "name": "Ladestation Quinta de São Bernardo", "addr:country": "ES", "_source": "worldwide"}}, {"type": "node", "id": 9309416862, "lat": 41.102767, "lon": -7.797208, "tags": {"amenity": "charging_station", "access": "yes", "fee": "yes", "brand": "Iberdrola", "network": "Mobi.E", "opening_hours": "24/7", "operator": "Iberdrola", "name": "LMG-00009", "addr:country": "ES", "socket:type2": "2", "socket:type2:output": "22.0 kW", "charging_station:output": "22.0 kW", "capacity": "2", "authentication:none": "", "_source": "worldwide"}}, {"type": "node", "id": 11287170755, "lat": 41.10205, "lon": -7.798225, "tags": {"amenity": "charging_station", "access": "customers", "fee": "yes", "brand": "Iberdrola", "network": "Mobi.E", "opening_hours": "24/7", "operator": "Iberdrola", "name": "LMG-00012", "addr:country": "ES", "socket:type2": "2", "socket:type2:output": "22.0 kW", "charging_station:output": "22.0 kW", "capacity": "2", "authentication:none": "", "_source": "worldwide"}}, {"type": "node", "id": 9455303728, "lat": 41.499369, "lon": -7.647579, "tags": {"amenity": "charging_station", "access": "customers", "operator": "Hotel Aguiar da Pena", "name": "Hotel Aguiar da Pena", "addr:country": "PT", "socket:type2": "2", "socket:type2:output": "7.4 kW", "charging_station:output": "7.4 kW", "capacity": "2", "_source": "worldwide"}}, {"type": "node", "id": 9828511813, "lat": 41.060918, "lon": -7.740988, "tags": {"amenity": "charging_station", "access": "customers", "operator": "Douro Cister", "name": "Douro Cister", "addr:country": "PT", "socket:type2": "2", "socket:type2:output": "22.0 kW", "charging_station:output": "22.0 kW", "capacity": "2", "_source": "worldwide"}}, {"type": "node", "id": 9847863913, "lat": 41.099569, "lon": -7.818582, "tags": {"amenity": "charging_station", "access": "yes", "fee": "yes", "brand": "edp Charge", "network": "Mobi.E", "opening_hours": "24/7", "operator": "EDP", "name": "LMG-00010", "addr:country": "ES", "socket:type2_combo": "1", "socket:type2_combo:output": "120.0 kW", "socket:chademo": "1", "socket:chademo:output": "50.0 kW", "charging_station:output": "120.0 kW", "capacity": "2", "authentication:none": "", "_source": "worldwide"}}, {"type": "node", "id": 13238830705, "lat": 41.095932, "lon": -7.8128, "tags": {"amenity": "charging_station", "access": "yes", "fee": "yes", "brand": "edp Charge", "network": "Mobi.E", "opening_hours": "24/7", "operator": "EDP", "name": "LMG-00023", "addr:country": "ES", "socket:type2_combo": "2", "socket:type2_combo:output": "120.0 kW", "charging_station:output": "120.0 kW", "capacity": "2", "_source": "worldwide"}}, {"type": "node", "id": 13512541112, "lat": 41.096177, "lon": -7.817318, "tags": {"amenity": "charging_station", "access": "yes", "fee": "yes", "brand": "edp Charge", "network": "Mobi.E", "opening_hours": "24/7", "operator": "EDP", "name": "LMG-00020", "addr:country": "ES", "socket:type2": "2", "socket:type2:output": "22.0 kW", "charging_station:output": "22.0 kW", "capacity": "2", "_source": "worldwide"}}, {"type": "node", "id": 9920099816, "lat": 41.482543, "lon": -7.194711, "tags": {"amenity": "charging_station", "access": "yes", "fee": "yes", "brand": "Galp electric", "network": "Mobi.E", "opening_hours": "24/7", "operator": "Galp Power", "name": "MDL-00005", "addr:country": "PT", "socket:type2_combo": "2", "socket:type2_combo:output": "90.0 kW", "charging_station:output": "90.0 kW", "capacity": "2", "authentication:none": "", "_source": "worldwide"}}, {"type": "node", "id": 9986743351, "lat": 41.715489, "lon": -7.487644, "tags": {"amenity": "charging_station", "access": "customers", "fee": "yes", "brand": "Iberdrola", "network": "Mobi.E", "opening_hours": "24/7", "operator": "Iberdrola", "name": "Iberdrola - Iberdrola", "addr:country": "ES", "capacity": "2", "authentication:none": "", "_source": "worldwide"}}, {"type": "node", "id": 9986743360, "lat": 41.742916, "lon": -7.469222, "tags": {"amenity": "charging_station", "access": "customers", "fee": "yes", "brand": "Iberdrola", "network": "Mobi.E", "opening_hours": "24/7", "operator": "Iberdrola", "name": "Iberdrola - Iberdrola", "addr:country": "ES", "capacity": "2", "authentication:none": "", "_source": "worldwide"}}, {"type": "node", "id": 1385615469, "lat": 41.744199, "lon": -7.470076, "tags": {"amenity": "charging_station", "access": "yes", "fee": "yes", "brand": "Continente Plug&Charge", "network": "Continente Plug&Charge", "opening_hours": "09:00-21:00", "operator": "Continente", "name": "Continente Bom Dia Chaves", "addr:street": "Avenida Doutor António Granjo", "addr:postcode": "5400-080", "addr:city": "Chaves", "addr:country": "PT", "capacity": "4", "_source": "worldwide"}}, {"type": "node", "id": 10022775151, "lat": 41.165129, "lon": -7.892555, "tags": {"amenity": "charging_station", "access": "customers", "operator": "Quinta das Fontaínhas", "name": "Quinta das Fontaínhas", "addr:country": "ES", "socket:type2": "1", "socket:type2:output": "7.4 kW", "charging_station:output": "7.4 kW", "capacity": "1", "_source": "worldwide"}}, {"type": "node", "id": 10109795256, "lat": 41.070208, "lon": -7.078963, "tags": {"amenity": "charging_station", "access": "customers", "operator": "Casa do Rio", "name": "Casa do Rio", "addr:country": "PT", "socket:type2": "2", "socket:type2:output": "11.0 kW", "charging_station:output": "11.0 kW", "capacity": "2", "_source": "worldwide"}}, {"type": "node", "id": 10157924951, "lat": 41.745454, "lon": -7.869431, "tags": {"amenity": "charging_station", "access": "customers", "operator": "Sol e Chuva", "name": "Sol e Chuva", "addr:country": "PT", "socket:type2": "2", "socket:type2:output": "22.0 kW", "charging_station:output": "22.0 kW", "capacity": "2", "_source": "worldwide"}}, {"type": "node", "id": 10202612684, "lat": 41.314226, "lon": -7.731619, "tags": {"amenity": "charging_station", "access": "yes", "fee": "yes", "network": "Mobi.E", "opening_hours": "24/7", "operator": "NRG", "name": "VRL-00016", "addr:country": "ES", "socket:type2_combo": "1", "socket:type2_combo:output": "180.0 kW", "socket:chademo": "1", "socket:chademo:output": "80.0 kW", "charging_station:output": "180.0 kW", "capacity": "2", "authentication:none": "", "_source": "worldwide"}}, {"type": "node", "id": 1454932918, "lat": 41.315165, "lon": -7.7303, "tags": {"amenity": "charging_station", "access": "yes", "fee": "yes", "brand": "Galp electric", "network": "Mobi.E", "opening_hours": "24/7", "operator": "Galp Power", "name": "VRL-00028/29", "addr:country": "ES", "capacity": "4", "_source": "worldwide"}}, {"type": "node", "id": 10215848702, "lat": 41.308743, "lon": -7.153633, "tags": {"amenity": "charging_station", "access": "yes", "fee": "yes", "brand": "Galp electric", "network": "Mobi.E", "opening_hours": "24/7", "operator": "Galp Power", "name": "VFL-00003", "addr:country": "PT", "socket:type2_combo": "1", "socket:type2_combo:output": "50.0 kW", "socket:chademo": "1", "socket:chademo:output": "50.0 kW", "charging_station:output": "50.0 kW", "capacity": "2", "authentication:none": "", "_source": "worldwide"}}, {"type": "node", "id": 10229505394, "lat": 41.093209, "lon": -7.140302, "tags": {"amenity": "charging_station", "access": "customers", "fee": "yes", "brand": "Galp electric", "network": "Mobi.E", "opening_hours": "24/7", "operator": "Galp Power", "name": "Galp Power - Galp electric", "addr:country": "PT", "socket:type2": "2", "socket:type2:output": "22.0 kW", "charging_station:output": "22.0 kW", "capacity": "2", "authentication:none": "", "_source": "worldwide"}}, {"type": "node", "id": 10297349995, "lat": 41.146464, "lon": -7.955652, "tags": {"amenity": "charging_station", "access": "customers", "operator": "Quinta & Casa das Hortas", "name": "Quinta & Casa das Hortas", "addr:country": "ES", "socket:type2": "1", "socket:type2:output": "11.0 kW", "charging_station:output": "11.0 kW", "capacity": "1", "_source": "worldwide"}}, {"type": "node", "id": 10830131115, "lat": 41.378659, "lon": -7.95161, "tags": {"amenity": "charging_station", "access": "yes", "fee": "yes", "network": "Mobi.E", "opening_hours": "24/7", "operator": "NRG", "name": "MDB-00004", "addr:country": "PT", "socket:type2": "2", "socket:type2:output": "22.0 kW", "charging_station:output": "22.0 kW", "capacity": "2", "authentication:none": "", "_source": "worldwide"}}, {"type": "node", "id": 10981449248, "lat": 41.145106, "lon": -7.411524, "tags": {"amenity": "charging_station", "access": "yes", "fee": "yes", "brand": "edp Charge", "network": "Mobi.E", "opening_hours": "24/7", "operator": "EDP", "name": "SJP-00002", "addr:country": "PT", "socket:type2": "2", "socket:type2:output": "22.0 kW", "charging_station:output": "22.0 kW", "capacity": "2", "authentication:none": "", "_source": "worldwide"}}, {"type": "node", "id": 10981449250, "lat": 41.099156, "lon": -7.68627, "tags": {"amenity": "charging_station", "access": "yes", "fee": "yes", "brand": "edp Charge", "network": "Mobi.E", "opening_hours": "24/7", "operator": "EDP", "name": "AMM-00004", "addr:country": "PT", "socket:type2": "2", "socket:type2:output": "22.0 kW", "charging_station:output": "22.0 kW", "capacity": "2", "authentication:none": "", "_source": "worldwide"}}, {"type": "node", "id": 10996132272, "lat": 41.698443, "lon": -7.476177, "tags": {"amenity": "charging_station", "access": "yes", "fee": "yes", "brand": "Iberdrola", "network": "Mobi.E", "opening_hours": "24/7", "operator": "Iberdrola", "name": "CHV-00012", "addr:country": "ES", "socket:type2": "2", "socket:type2:output": "22.0 kW", "charging_station:output": "22.0 kW", "capacity": "2", "authentication:none": "", "_source": "worldwide"}}, {"type": "node", "id": 11808082240, "lat": 41.592693, "lon": -7.303138, "tags": {"amenity": "charging_station", "access": "yes", "fee": "yes", "brand": "Iberdrola", "network": "Mobi.E", "opening_hours": "24/7", "operator": "Iberdrola", "name": "VLP-00004", "addr:country": "ES", "socket:type2_combo": "1", "socket:type2_combo:output": "50.0 kW", "socket:chademo": "1", "socket:chademo:output": "50.0 kW", "charging_station:output": "50.0 kW", "capacity": "1", "authentication:none": "", "_source": "worldwide"}}, {"type": "node", "id": 11103231978, "lat": 41.313999, "lon": -7.732834, "tags": {"amenity": "charging_station", "access": "yes", "fee": "yes", "brand": "Powerdot", "network": "Mobi.E", "opening_hours": "24/7", "operator": "Powerdot", "name": "VRL-00024", "addr:country": "ES", "socket:type2_combo": "1", "socket:type2_combo:output": "120.0 kW", "socket:chademo": "1", "socket:chademo:output": "50.0 kW", "charging_station:output": "120.0 kW", "capacity": "2", "authentication:none": "", "_source": "worldwide"}}, {"type": "node", "id": 1368508382, "lat": 41.310949, "lon": -7.73395, "tags": {"amenity": "charging_station", "access": "yes", "fee": "yes", "brand": "Continente Plug&Charge", "network": "Continente Plug&Charge", "opening_hours": "24/7", "operator": "Continente", "name": "Continente Vila Real", "addr:street": "Avenida do Regimento de Infantaria", "addr:postcode": "5000-436", "addr:city": "Vila Real", "capacity": "6", "_source": "worldwide"}}, {"type": "node", "id": 1440046655, "lat": 41.311707, "lon": -7.72457, "tags": {"amenity": "charging_station", "access": "yes", "fee": "yes", "brand": "Powerdot", "network": "Mobi.E", "opening_hours": "24/7", "operator": "Powerdot", "name": "VRL-00015", "addr:country": "ES", "capacity": "4", "_source": "worldwide"}}, {"type": "node", "id": 11275817605, "lat": 41.501959, "lon": -7.166475, "tags": {"amenity": "charging_station", "access": "yes", "fee": "yes", "brand": "Galp electric", "network": "Mobi.E", "opening_hours": "24/7", "operator": "Galp Power", "name": "MDL-00009", "addr:country": "PT", "socket:type2": "2", "socket:type2:output": "22.0 kW", "charging_station:output": "22.0 kW", "capacity": "2", "authentication:none": "", "_source": "worldwide"}}, {"type": "node", "id": 11292042515, "lat": 41.74038, "lon": -7.475135, "tags": {"amenity": "charging_station", "access": "yes", "fee": "yes", "brand": "Atlante", "network": "Mobi.E", "opening_hours": "09:00-21:00", "operator": "Atlante", "name": "CHV-00018", "addr:country": "ES", "socket:type2_combo": "1", "socket:type2_combo:output": "60.0 kW", "socket:chademo": "1", "socket:chademo:output": "50.0 kW", "charging_station:output": "60.0 kW", "capacity": "2", "authentication:none": "", "_source": "worldwide"}}, {"type": "node", "id": 11404287214, "lat": 41.73975, "lon": -7.476045, "tags": {"amenity": "charging_station", "access": "yes", "fee": "yes", "brand": "Repsol", "network": "Mobi.E", "opening_hours": "24/7", "operator": "Repsol", "name": "CHV-00019", "addr:country": "ES", "capacity": "1", "authentication:none": "", "_source": "worldwide"}}, {"type": "node", "id": 12437722204, "lat": 41.738648, "lon": -7.470734, "tags": {"amenity": "charging_station", "access": "customers", "fee": "yes", "brand": "edp Charge", "network": "Mobi.E", "opening_hours": "24/7", "operator": "EDP", "name": "EDP - edp Charge", "addr:country": "ES", "socket:type2": "2", "socket:type2:output": "7.4 kW", "charging_station:output": "7.4 kW", "capacity": "2", "authentication:none": "", "_source": "worldwide"}}, {"type": "node", "id": 11352291973, "lat": 41.759446, "lon": -7.468506, "tags": {"amenity": "charging_station", "access": "yes", "fee": "yes", "brand": "Atlante", "network": "Mobi.E", "opening_hours": "24/7", "operator": "Atlante", "name": "CHV-00017", "addr:country": "ES", "socket:type2_combo": "1", "socket:type2_combo:output": "60.0 kW", "socket:chademo": "1", "socket:chademo:output": "50.0 kW", "charging_station:output": "60.0 kW", "capacity": "2", "authentication:none": "", "_source": "worldwide"}}, {"type": "node", "id": 1378594734, "lat": 41.761209, "lon": -7.46742, "tags": {"amenity": "charging_station", "access": "yes", "fee": "yes", "brand": "Powerdot", "network": "Mobi.E", "opening_hours": "24/7", "operator": "Powerdot", "name": "CHV-00014", "addr:country": "ES", "capacity": "4", "_source": "worldwide"}}, {"type": "node", "id": 11359073364, "lat": 41.507873, "lon": -7.988869, "tags": {"amenity": "charging_station", "access": "yes", "fee": "yes", "network": "Mobi.E", "opening_hours": "24/7", "operator": "Evio", "name": "CBC-00011", "addr:country": "PT", "socket:type2_combo": "2", "socket:type2_combo:output": "120.0 kW", "charging_station:output": "120.0 kW", "capacity": "2", "authentication:none": "", "_source": "worldwide"}}, {"type": "node", "id": 11359196944, "lat": 41.487622, "lon": -7.182601, "tags": {"amenity": "charging_station", "access": "yes", "fee": "yes", "brand": "edp Charge", "network": "Mobi.E", "opening_hours": "24/7", "operator": "EDP", "name": "MDL-00006", "addr:country": "ES", "socket:type2_combo": "1", "socket:type2_combo:output": "50.0 kW", "socket:chademo": "1", "socket:chademo:output": "50.0 kW", "charging_station:output": "50.0 kW", "capacity": "2", "authentication:none": "", "_source": "worldwide"}}, {"type": "node", "id": 11359317369, "lat": 41.162266, "lon": -7.5699, "tags": {"amenity": "charging_station", "access": "customers", "fee": "yes", "brand": "edp Charge", "network": "Mobi.E", "opening_hours": "24/7", "operator": "EDP", "name": "EDP - edp Charge", "addr:country": "PT", "socket:type2": "2", "socket:type2:output": "22.0 kW", "charging_station:output": "22.0 kW", "capacity": "2", "authentication:none": "", "_source": "worldwide"}}, {"type": "node", "id": 11483104396, "lat": 41.0907, "lon": -7.799495, "tags": {"amenity": "charging_station", "access": "yes", "fee": "yes", "brand": "edp Charge", "network": "Mobi.E", "opening_hours": "24/7", "operator": "EDP", "name": "LMG-00013", "addr:country": "ES", "socket:type2": "1", "socket:type2:output": "22.0 kW", "socket:type2_combo": "1", "socket:type2_combo:output": "90.0 kW", "socket:chademo": "1", "socket:chademo:output": "50.0 kW", "charging_station:output": "90.0 kW", "capacity": "2", "authentication:none": "", "_source": "worldwide"}}, {"type": "node", "id": 1454759312, "lat": 41.088911, "lon": -7.798352, "tags": {"amenity": "charging_station", "access": "yes", "fee": "yes", "brand": "Powerdot", "network": "Mobi.E", "opening_hours": "09:00-21:00", "operator": "Powerdot", "name": "LMG-00007/8", "addr:city": "Lamego", "capacity": "4", "_source": "worldwide"}}, {"type": "node", "id": 11540540868, "lat": 41.108373, "lon": -7.956352, "tags": {"amenity": "charging_station", "access": "yes", "fee": "yes", "brand": "edp Charge", "network": "Mobi.E", "opening_hours": "24/7", "operator": "EDP", "name": "RSD-00002", "addr:country": "ES", "socket:type2": "2", "socket:type2:output": "22.0 kW", "charging_station:output": "22.0 kW", "capacity": "2", "authentication:none": "", "_source": "worldwide"}}, {"type": "node", "id": 12142756326, "lat": 41.106588, "lon": -7.962969, "tags": {"amenity": "charging_station", "access": "yes", "fee": "yes", "brand": "Galp electric", "network": "Mobi.E", "opening_hours": "24/7", "operator": "Galp Power", "name": "RSD-00003", "addr:country": "ES", "socket:type2_combo": "2", "socket:type2_combo:output": "120.0 kW", "charging_station:output": "120.0 kW", "capacity": "2", "authentication:none": "", "_source": "worldwide"}}, {"type": "node", "id": 11616428066, "lat": 41.142806, "lon": -7.94993, "tags": {"amenity": "charging_station", "access": "yes", "fee": "yes", "brand": "edp Charge", "network": "Mobi.E", "opening_hours": "24/7", "operator": "EDP", "name": "BAO-00003", "addr:country": "ES", "socket:type2": "2", "socket:type2:output": "22.0 kW", "charging_station:output": "22.0 kW", "capacity": "2", "authentication:none": "", "_source": "worldwide"}}, {"type": "node", "id": 11705037616, "lat": 41.709417, "lon": -7.567896, "tags": {"amenity": "charging_station", "access": "customers", "fee": "yes", "brand": "MobiSmart", "network": "Mobi.E", "opening_hours": "24/7", "operator": "EVCE", "name": "CHV-00021", "addr:country": "ES", "socket:type2": "2", "socket:type2:output": "22.0 kW", "charging_station:output": "22.0 kW", "capacity": "2", "authentication:none": "", "_source": "worldwide"}}, {"type": "node", "id": 11795142908, "lat": 41.503938, "lon": -7.641659, "tags": {"amenity": "charging_station", "access": "yes", "fee": "yes", "brand": "Continente Plug&Charge", "network": "Continente Plug&Charge", "opening_hours": "24/7", "operator": "Continente", "name": "Continente Bom Dia Vila Pouca de Aguiar", "addr:street": "Avenida Miguel Torga", "addr:postcode": "5450-034", "addr:city": "Vila Pouca de Aguiar", "socket:type2": "2", "socket:type2:output": "22.0 kW", "charging_station:output": "22.0 kW", "capacity": "2", "authentication:none": "", "_source": "worldwide"}}, {"type": "node", "id": 11808213996, "lat": 41.279525, "lon": -7.706309, "tags": {"amenity": "charging_station", "access": "yes", "fee": "yes", "brand": "edp Charge", "network": "Mobi.E", "opening_hours": "24/7", "operator": "EDP", "name": "VRL-00032", "addr:country": "ES", "socket:type2_combo": "2", "socket:type2_combo:output": "120.0 kW", "charging_station:output": "120.0 kW", "capacity": "2", "authentication:none": "", "_source": "worldwide"}}, {"type": "node", "id": 1495869151, "lat": 41.279172, "lon": -7.711799, "tags": {"amenity": "charging_station", "access": "private", "addr:country": "ES", "capacity": "3", "_source": "worldwide"}}, {"type": "node", "id": 11822870201, "lat": 41.151013, "lon": -7.417162, "tags": {"amenity": "charging_station", "access": "yes", "fee": "yes", "brand": "edp Charge", "network": "Mobi.E", "opening_hours": "24/7", "operator": "EDP", "name": "SJP-00003", "addr:country": "PT", "socket:type2": "2", "socket:type2:output": "11.0 kW", "charging_station:output": "11.0 kW", "capacity": "2", "authentication:none": "", "_source": "worldwide"}}, {"type": "node", "id": 11895647852, "lat": 41.422123, "lon": -7.985988, "tags": {"amenity": "charging_station", "access": "yes", "fee": "yes", "brand": "edp Charge", "network": "Mobi.E", "opening_hours": "24/7", "operator": "EDP", "name": "CBT-00002", "addr:country": "PT", "socket:type2": "2", "socket:type2:output": "22.0 kW", "charging_station:output": "22.0 kW", "capacity": "2", "authentication:none": "", "_source": "worldwide"}}, {"type": "node", "id": 11895647853, "lat": 41.312284, "lon": -7.760681, "tags": {"amenity": "charging_station", "access": "yes", "fee": "yes", "brand": "Atlante", "network": "Mobi.E", "opening_hours": "24/7", "operator": "Atlante", "name": "VRL-00037", "addr:country": "ES", "socket:type2_combo": "1", "socket:type2_combo:output": "60.0 kW", "socket:chademo": "1", "socket:chademo:output": "50.0 kW", "charging_station:output": "60.0 kW", "capacity": "2", "authentication:none": "", "_source": "worldwide"}}, {"type": "node", "id": 11921711742, "lat": 41.945402, "lon": -7.416067, "tags": {"amenity": "charging_station", "operator": "Repsol", "name": "Ladestation Repsol", "addr:country": "ES", "_source": "worldwide"}}, {"type": "node", "id": 11921711743, "lat": 41.939295, "lon": -7.446208, "tags": {"amenity": "charging_station", "operator": "Repsol", "name": "Ladestation Repsol", "addr:country": "ES", "_source": "worldwide"}}, {"type": "node", "id": 11949726698, "lat": 41.239109, "lon": -7.084534, "tags": {"amenity": "charging_station", "access": "customers", "fee": "yes", "brand": "edp Charge", "network": "Mobi.E", "opening_hours": "24/7", "operator": "EDP", "name": "TMC-00002", "addr:country": "ES", "socket:type2": "2", "socket:type2:output": "7.4 kW", "charging_station:output": "7.4 kW", "capacity": "2", "authentication:none": "", "_source": "worldwide"}}, {"type": "node", "id": 11963115974, "lat": 41.069427, "lon": -7.15495, "tags": {"amenity": "charging_station", "access": "yes", "fee": "yes", "brand": "Prio", "network": "Mobi.E", "opening_hours": "24/7", "operator": "Prio.E", "name": "VLF-00005", "addr:country": "ES", "socket:type2_combo": "1", "socket:type2_combo:output": "150.0 kW", "socket:chademo": "1", "socket:chademo:output": "50.0 kW", "charging_station:output": "150.0 kW", "capacity": "2", "authentication:none": "", "_source": "worldwide"}}, {"type": "node", "id": 11992891053, "lat": 41.14458, "lon": -7.755098, "tags": {"amenity": "charging_station", "access": "customers", "fee": "yes", "brand": "Iberdrola", "network": "Mobi.E", "opening_hours": "24/7", "operator": "Iberdrola", "name": "Iberdrola - Iberdrola", "addr:country": "ES", "capacity": "2", "authentication:none": "", "_source": "worldwide"}}, {"type": "node", "id": 12018724376, "lat": 41.2573, "lon": -7.651727, "tags": {"amenity": "charging_station", "access": "yes", "fee": "yes", "brand": "edp Charge", "network": "Mobi.E", "opening_hours": "24/7", "operator": "EDP", "name": "VRL-00025", "addr:country": "ES", "socket:type2": "2", "socket:type2:output": "22.0 kW", "charging_station:output": "22.0 kW", "capacity": "2", "authentication:none": "", "_source": "worldwide"}}, {"type": "node", "id": 12068698214, "lat": 41.178196, "lon": -7.041445, "tags": {"amenity": "charging_station", "access": "yes", "fee": "yes", "brand": "Galp electric", "network": "Mobi.E", "opening_hours": "24/7", "operator": "Galp Power", "name": "TMC-00003", "addr:country": "ES", "socket:type2_combo": "2", "socket:type2_combo:output": "120.0 kW", "charging_station:output": "120.0 kW", "capacity": "2", "authentication:none": "", "_source": "worldwide"}}, {"type": "node", "id": 12075901727, "lat": 41.505904, "lon": -7.799218, "tags": {"amenity": "charging_station", "access": "yes", "fee": "yes", "network": "Mobi.E", "opening_hours": "24/7", "operator": "SOLX", "name": "RPN-00005", "addr:country": "PT", "socket:type2": "2", "socket:type2:output": "22.0 kW", "charging_station:output": "22.0 kW", "capacity": "2", "authentication:none": "", "_source": "worldwide"}}, {"type": "node", "id": 12101523362, "lat": 41.485307, "lon": -7.188179, "tags": {"amenity": "charging_station", "access": "yes", "fee": "yes", "brand": "edp Charge", "network": "Mobi.E", "opening_hours": "24/7", "operator": "EDP", "name": "MDL-00012", "addr:country": "ES", "socket:type2": "1", "socket:type2:output": "22.0 kW", "socket:type2_combo": "1", "socket:type2_combo:output": "90.0 kW", "socket:chademo": "1", "socket:chademo:output": "50.0 kW", "charging_station:output": "90.0 kW", "capacity": "2", "authentication:none": "", "_source": "worldwide"}}, {"type": "node", "id": 12146693128, "lat": 41.782549, "lon": -7.438531, "tags": {"amenity": "charging_station", "access": "yes", "fee": "yes", "brand": "Atlante", "network": "Mobi.E", "opening_hours": "24/7", "operator": "Atlante", "name": "CHV-00024", "addr:country": "ES", "socket:type2": "1", "socket:type2:output": "22.0 kW", "socket:type2_combo": "2", "socket:type2_combo:output": "40.0 kW", "charging_station:output": "40.0 kW", "capacity": "2", "authentication:none": "", "_source": "worldwide"}}, {"type": "node", "id": 12200052185, "lat": 41.081559, "lon": -7.798708, "tags": {"amenity": "charging_station", "access": "yes", "fee": "yes", "brand": "Lidl", "network": "Mobi.E", "opening_hours": "24/7", "operator": "Galp Power", "name": "LMG-00017", "addr:country": "ES", "socket:type2_combo": "1", "socket:type2_combo:output": "50.0 kW", "socket:chademo": "1", "socket:chademo:output": "50.0 kW", "charging_station:output": "50.0 kW", "capacity": "2", "authentication:none": "", "_source": "worldwide"}}, {"type": "node", "id": 12233069523, "lat": 41.109612, "lon": -7.953117, "tags": {"amenity": "charging_station", "access": "yes", "fee": "yes", "brand": "Iberdrola bp pulse", "network": "Mobi.E", "opening_hours": "24/7", "operator": "Charging Together", "name": "RSD-00004", "addr:country": "ES", "socket:type2_combo": "2", "socket:type2_combo:output": "150.0 kW", "socket:chademo": "1", "socket:chademo:output": "80.0 kW", "charging_station:output": "150.0 kW", "capacity": "2", "authentication:none": "", "_source": "worldwide"}}, {"type": "node", "id": 12244249343, "lat": 41.16259, "lon": -7.803449, "tags": {"amenity": "charging_station", "access": "yes", "fee": "yes", "brand": "Powerdot", "network": "Mobi.E", "opening_hours": "24/7", "operator": "Powerdot", "name": "PRG-00004", "addr:country": "ES", "socket:type2": "1", "socket:type2:output": "22.0 kW", "socket:type2_combo": "1", "socket:type2_combo:output": "100.0 kW", "socket:chademo": "1", "socket:chademo:output": "50.0 kW", "charging_station:output": "100.0 kW", "capacity": "2", "authentication:none": "", "_source": "worldwide"}}, {"type": "node", "id": 12297700041, "lat": 41.632872, "lon": -7.572598, "tags": {"amenity": "charging_station", "access": "customers", "fee": "yes", "brand": "edp Charge", "network": "Mobi.E", "opening_hours": "24/7", "operator": "EDP", "name": "EDP - edp Charge", "addr:country": "ES", "socket:type2": "2", "socket:type2:output": "7.4 kW", "charging_station:output": "7.4 kW", "capacity": "2", "authentication:none": "", "_source": "worldwide"}}, {"type": "node", "id": 12396651756, "lat": 41.168036, "lon": -7.8028, "tags": {"amenity": "charging_station", "access": "yes", "fee": "yes", "brand": "Atlante", "network": "Mobi.E", "opening_hours": "24/7", "operator": "Atlante", "name": "PRG-00005", "addr:country": "PT", "socket:type2_combo": "2", "socket:type2_combo:output": "110.0 kW", "charging_station:output": "110.0 kW", "capacity": "2", "authentication:none": "", "_source": "worldwide"}}, {"type": "node", "id": 13516727515, "lat": 41.170897, "lon": -7.805234, "tags": {"amenity": "charging_station", "access": "yes", "fee": "yes", "brand": "wowplug", "network": "Mobi.E", "opening_hours": "24/7", "operator": "True Kare", "name": "PRG-00015", "addr:country": "ES", "socket:type2": "2", "socket:type2:output": "22.0 kW", "charging_station:output": "22.0 kW", "capacity": "2", "_source": "worldwide"}}, {"type": "node", "id": 13516727517, "lat": 41.166669, "lon": -7.803809, "tags": {"amenity": "charging_station", "access": "yes", "fee": "yes", "brand": "wowplug", "network": "Mobi.E", "opening_hours": "24/7", "operator": "True Kare", "name": "PRG-00012", "addr:country": "ES", "socket:type2": "2", "socket:type2:output": "22.0 kW", "charging_station:output": "22.0 kW", "capacity": "2", "_source": "worldwide"}}, {"type": "node", "id": 12400641239, "lat": 41.201014, "lon": -7.685091, "tags": {"amenity": "charging_station", "access": "customers", "fee": "yes", "brand": "edp Charge", "network": "Mobi.E", "opening_hours": "24/7", "operator": "EDP", "name": "VRL-00040", "addr:country": "ES", "socket:type2": "2", "socket:type2:output": "22.0 kW", "charging_station:output": "22.0 kW", "capacity": "2", "authentication:none": "", "_source": "worldwide"}}, {"type": "node", "id": 12471528373, "lat": 41.549733, "lon": -7.605645, "tags": {"amenity": "charging_station", "access": "customers", "fee": "yes", "brand": "Iberdrola", "network": "Mobi.E", "opening_hours": "24/7", "operator": "Iberdrola", "name": "Iberdrola - Iberdrola", "addr:country": "ES", "capacity": "2", "authentication:none": "", "_source": "worldwide"}}, {"type": "node", "id": 12505490808, "lat": 41.308477, "lon": -7.761219, "tags": {"amenity": "charging_station", "access": "customers", "fee": "yes", "brand": "edp Charge", "network": "Mobi.E", "opening_hours": "24/7", "operator": "EDP", "name": "VRL-00039", "addr:country": "ES", "socket:type2": "2", "socket:type2:output": "22.0 kW", "charging_station:output": "22.0 kW", "capacity": "2", "authentication:none": "", "_source": "worldwide"}}, {"type": "node", "id": 12580194887, "lat": 41.484178, "lon": -7.959533, "tags": {"amenity": "charging_station", "access": "yes", "fee": "yes", "brand": "wowplug", "network": "Mobi.E", "opening_hours": "24/7", "operator": "True Kare", "name": "CBC-00016", "addr:country": "ES", "socket:type2": "2", "socket:type2:output": "22.0 kW", "charging_station:output": "22.0 kW", "capacity": "2", "authentication:none": "", "_source": "worldwide"}}, {"type": "node", "id": 1460608736, "lat": 41.479396, "lon": -7.954571, "tags": {"amenity": "charging_station", "access": "yes", "brand": "Renewing", "network": "Mobi.E", "opening_hours": "24/7", "operator": "Mota Engil II", "name": "CBC-?????", "addr:country": "ES", "capacity": "3", "_source": "worldwide"}}, {"type": "node", "id": 12580232472, "lat": 41.487942, "lon": -7.96157, "tags": {"amenity": "charging_station", "access": "yes", "fee": "yes", "brand": "wowplug", "network": "Mobi.E", "opening_hours": "24/7", "operator": "True Kare", "name": "CBC-00017", "addr:country": "ES", "socket:type2": "2", "socket:type2:output": "22.0 kW", "charging_station:output": "22.0 kW", "capacity": "2", "authentication:none": "", "_source": "worldwide"}}, {"type": "node", "id": 12706036736, "lat": 41.49385, "lon": -7.983226, "tags": {"amenity": "charging_station", "access": "yes", "fee": "yes", "brand": "Helexia", "network": "Mobi.E", "opening_hours": "07:00-23:00", "operator": "Helexia II", "name": "CBC-00018", "addr:country": "ES", "socket:type2_combo": "2", "socket:type2_combo:output": "100.0 kW", "charging_station:output": "100.0 kW", "capacity": "2", "authentication:none": "", "_source": "worldwide"}}, {"type": "node", "id": 12871913979, "lat": 41.477643, "lon": -7.178638, "tags": {"amenity": "charging_station", "access": "yes", "fee": "yes", "brand": "Galp electric", "network": "Mobi.E", "opening_hours": "24/7", "operator": "Galp Power", "name": "MDL-00013", "addr:country": "PT", "socket:type2": "2", "socket:type2:output": "22.0 kW", "charging_station:output": "22.0 kW", "capacity": "2", "authentication:none": "", "_source": "worldwide"}}, {"type": "node", "id": 12955158967, "lat": 41.543943, "lon": -7.601519, "tags": {"amenity": "charging_station", "access": "yes", "fee": "yes", "brand": "Iberdrola", "network": "Mobi.E", "opening_hours": "24/7", "operator": "Iberdrola", "name": "VPA-00005", "addr:country": "ES", "socket:type2_combo": "2", "socket:type2_combo:output": "50.0 kW", "charging_station:output": "50.0 kW", "capacity": "2", "authentication:none": "", "_source": "worldwide"}}, {"type": "node", "id": 13012277297, "lat": 41.264826, "lon": -7.589549, "tags": {"amenity": "charging_station", "access": "yes", "fee": "yes", "brand": "Iberdrola bp pulse", "network": "Mobi.E", "opening_hours": "24/7", "operator": "Charging Together", "name": "Charging Together - Iberdrola bp pulse", "addr:country": "ES", "socket:type2_combo": "2", "socket:type2_combo:output": "150.0 kW", "socket:chademo": "1", "socket:chademo:output": "80.0 kW", "charging_station:output": "150.0 kW", "capacity": "2", "authentication:none": "", "_source": "worldwide"}}, {"type": "node", "id": 13050861880, "lat": 41.029912, "lon": -7.771374, "tags": {"amenity": "charging_station", "access": "yes", "fee": "yes", "brand": "Atlante", "network": "Mobi.E", "opening_hours": "24/7", "operator": "Atlante", "name": "TRC-00002", "addr:country": "ES", "socket:type2_combo": "2", "socket:type2_combo:output": "120.0 kW", "charging_station:output": "120.0 kW", "capacity": "2", "authentication:none": "", "_source": "worldwide"}}, {"type": "node", "id": 1391020270, "lat": 41.031663, "lon": -7.774365, "tags": {"amenity": "charging_station", "access": "yes", "fee": "yes", "brand": "Continente Plug&Charge", "network": "Continente Plug&Charge", "opening_hours": "24/7", "operator": "Continente", "name": "Continente Bom Dia Tarouca", "addr:street": "EN 226", "addr:postcode": "3610-013", "addr:city": "Tarouca", "capacity": "2", "_source": "worldwide"}}, {"type": "node", "id": 13121741617, "lat": 41.10776, "lon": -7.80676, "tags": {"amenity": "charging_station", "access": "yes", "fee": "yes", "brand": "edp Charge", "network": "Mobi.E", "opening_hours": "24/7", "operator": "EDP", "name": "LMG-00018", "addr:country": "ES", "socket:type2": "2", "socket:type2:output": "22.0 kW", "charging_station:output": "22.0 kW", "capacity": "2", "_source": "worldwide"}}, {"type": "node", "id": 13173766779, "lat": 41.829986, "lon": -7.010225, "tags": {"amenity": "charging_station", "access": "yes", "fee": "yes", "brand": "edp Charge", "network": "Mobi.E", "opening_hours": "24/7", "operator": "EDP", "name": "VNH-00002", "addr:country": "ES", "socket:type2": "1", "socket:type2:output": "43.0 kW", "socket:type2_combo": "1", "socket:type2_combo:output": "50.0 kW", "socket:chademo": "1", "socket:chademo:output": "50.0 kW", "charging_station:output": "50.0 kW", "capacity": "2", "_source": "worldwide"}}, {"type": "node", "id": 13268649070, "lat": 41.091458, "lon": -7.805246, "tags": {"amenity": "charging_station", "access": "yes", "fee": "yes", "brand": "edp Charge", "network": "Mobi.E", "opening_hours": "24/7", "operator": "EDP", "name": "LMG-00019", "addr:country": "ES", "socket:type2": "2", "socket:type2:output": "22.0 kW", "charging_station:output": "22.0 kW", "capacity": "2", "_source": "worldwide"}}, {"type": "node", "id": 13339523334, "lat": 41.094232, "lon": -7.811365, "tags": {"amenity": "charging_station", "access": "yes", "fee": "yes", "brand": "edp Charge", "network": "Mobi.E", "opening_hours": "24/7", "operator": "EDP", "name": "LMG-00024", "addr:country": "ES", "socket:type2_combo": "2", "socket:type2_combo:output": "60.0 kW", "charging_station:output": "60.0 kW", "capacity": "2", "_source": "worldwide"}}, {"type": "node", "id": 13384440910, "lat": 41.157864, "lon": -7.777963, "tags": {"amenity": "charging_station", "access": "yes", "fee": "yes", "brand": "wowplug", "network": "Mobi.E", "opening_hours": "24/7", "operator": "True Kare", "name": "PRG-00013", "addr:country": "ES", "socket:type2": "2", "socket:type2:output": "22.0 kW", "charging_station:output": "22.0 kW", "capacity": "2", "_source": "worldwide"}}, {"type": "node", "id": 13516727514, "lat": 41.169303, "lon": -7.79927, "tags": {"amenity": "charging_station", "access": "yes", "fee": "yes", "brand": "wowplug", "network": "Mobi.E", "opening_hours": "24/7", "operator": "True Kare", "name": "PRG-00016", "addr:country": "ES", "socket:type2": "2", "socket:type2:output": "22.0 kW", "charging_station:output": "22.0 kW", "capacity": "2", "_source": "worldwide"}}, {"type": "node", "id": 13516727518, "lat": 41.15961, "lon": -7.786861, "tags": {"amenity": "charging_station", "access": "yes", "fee": "yes", "brand": "wowplug", "network": "Mobi.E", "opening_hours": "24/7", "operator": "True Kare", "name": "PRG-00010", "addr:country": "ES", "socket:type2": "2", "socket:type2:output": "22.0 kW", "charging_station:output": "22.0 kW", "capacity": "2", "_source": "worldwide"}}, {"type": "node", "id": 13516727519, "lat": 41.161276, "lon": -7.778955, "tags": {"amenity": "charging_station", "access": "yes", "fee": "yes", "brand": "wowplug", "network": "Mobi.E", "opening_hours": "24/7", "operator": "True Kare", "name": "PRG-00008", "addr:country": "ES", "socket:type2": "2", "socket:type2:output": "22.0 kW", "charging_station:output": "22.0 kW", "capacity": "2", "_source": "worldwide"}}, {"type": "node", "id": 13618986689, "lat": 41.165943, "lon": -7.783, "tags": {"amenity": "charging_station", "access": "yes", "fee": "yes", "brand": "wowplug", "network": "Mobi.E", "opening_hours": "24/7", "operator": "True Kare", "name": "PRG-00014", "addr:country": "ES", "socket:type2": "2", "socket:type2:output": "22.0 kW", "charging_station:output": "22.0 kW", "capacity": "2", "_source": "worldwide"}}, {"type": "node", "id": 13648350558, "lat": 41.127657, "lon": -7.802757, "tags": {"amenity": "charging_station", "access": "yes", "fee": "yes", "brand": "edp Charge", "network": "Mobi.E", "opening_hours": "24/7", "operator": "EDP", "name": "LMG-00022", "addr:country": "ES", "socket:type2": "1", "socket:type2:output": "22.0 kW", "socket:type2_combo": "2", "socket:type2_combo:output": "60.0 kW", "charging_station:output": "60.0 kW", "capacity": "2", "_source": "worldwide"}}, {"type": "node", "id": 1348344183, "lat": 41.178568, "lon": -7.794464, "tags": {"amenity": "charging_station", "access": "yes", "brand": "Continente Plug&Charge", "network": "Continente Plug&Charge", "opening_hours": "24/7", "operator": "Continente", "name": "Continente Modelo Régua", "addr:street": "Rua de Lousada", "addr:postcode": "5050-106", "addr:city": "Peso da Régua", "capacity": "4", "_source": "worldwide"}}, {"type": "node", "id": 1355503512, "lat": 41.270167, "lon": -7.6964, "tags": {"amenity": "charging_station", "access": "yes", "fee": "yes", "opening_hours": "24/7", "name": "Régia Douro Park", "addr:country": "ES", "capacity": "6", "_source": "worldwide"}}, {"type": "node", "id": 1392423029, "lat": 41.245765, "lon": -7.305677, "tags": {"amenity": "charging_station", "access": "yes", "brand": "edp Charge", "network": "Mobi.E", "opening_hours": "24/7", "operator": "EDP", "name": "CRZ-00002/3", "addr:country": "ES", "capacity": "4", "_source": "worldwide"}}, {"type": "node", "id": 1417752688, "lat": 41.162595, "lon": -7.595519, "tags": {"amenity": "charging_station", "access": "customers", "fee": "yes", "brand": "Galp electric", "network": "Mobi.E", "opening_hours": "24/7", "operator": "Galp Power", "name": "SBR-00002/3", "addr:country": "PT", "capacity": "4", "_source": "worldwide"}}, {"type": "node", "id": 1432639700, "lat": 41.175956, "lon": -7.515187, "tags": {"amenity": "charging_station", "access": "customers", "fee": "no", "brand": "Tesla", "network": "Tesla", "operator": "Tesla", "name": "Quinta do Ventozelo Tesla Destination Charger", "addr:country": "PT", "capacity": "3", "_source": "worldwide"}}, {"type": "node", "id": 1441485078, "lat": 41.396439, "lon": -7.970377, "tags": {"amenity": "charging_station", "access": "yes", "fee": "yes", "network": "Mobi.E", "opening_hours": "24/7", "operator": "Circuitos Energy Solutions", "name": "MDB-00002/3", "addr:country": "PT", "capacity": "4", "_source": "worldwide"}}, {"type": "node", "id": 1454924811, "lat": 41.506382, "lon": -7.661054, "tags": {"amenity": "charging_station", "access": "yes", "fee": "yes", "brand": "edp Charge", "network": "Mobi.E", "opening_hours": "24/7", "operator": "EDP", "name": "VPA-00003/4", "addr:country": "ES", "capacity": "4", "_source": "worldwide"}}, {"type": "node", "id": 1454928781, "lat": 41.323695, "lon": -7.641101, "tags": {"amenity": "charging_station", "access": "yes", "fee": "yes", "brand": "Shell Recharge", "network": "Mobi.E", "opening_hours": "24/7", "operator": "Cable Energia", "name": "VRL-00043/44", "addr:country": "ES", "capacity": "4", "_source": "worldwide"}}, {"type": "node", "id": 1454928782, "lat": 41.324448, "lon": -7.641029, "tags": {"amenity": "charging_station", "access": "yes", "fee": "yes", "brand": "Shell Recharge", "network": "Mobi.E", "opening_hours": "24/7", "operator": "Cable Energia", "name": "VRL-00041/42", "addr:country": "ES", "capacity": "4", "_source": "worldwide"}}, {"type": "node", "id": 1459652518, "lat": 41.083308, "lon": -7.137078, "tags": {"amenity": "charging_station", "access": "yes", "fee": "yes", "brand": "edp Charge", "network": "Mobi.E", "opening_hours": "24/7", "operator": "EDP", "name": "VLF-00006/7", "addr:country": "ES", "capacity": "4", "_source": "worldwide"}}, {"type": "node", "id": 1468758424, "lat": 41.143819, "lon": -7.810893, "tags": {"amenity": "charging_station", "access": "customers", "fee": "yes", "brand": "Iberdrola", "network": "Mobi.E", "opening_hours": "24/7", "operator": "Iberdrola", "name": "LMG-00025/26", "addr:country": "ES", "capacity": "4", "_source": "worldwide"}}, {"type": "node", "id": 1495823704, "lat": 41.153399, "lon": -7.784727, "tags": {"amenity": "charging_station", "access": "customers", "fee": "yes", "brand": "edp Charge", "network": "Mobi.E", "opening_hours": "24/7", "operator": "EDP", "name": "EDP - edp Charge", "addr:country": "ES", "capacity": "2", "_source": "worldwide"}}, {"type": "node", "id": 1495823946, "lat": 41.154288, "lon": -7.647747, "tags": {"amenity": "charging_station", "access": "customers", "fee": "yes", "brand": "edp Charge", "network": "Mobi.E", "opening_hours": "24/7", "operator": "EDP", "name": "EDP - edp Charge", "addr:country": "ES", "capacity": "2", "_source": "worldwide"}}, {"type": "node", "id": 1495871268, "lat": 41.632152, "lon": -7.574357, "tags": {"amenity": "charging_station", "access": "customers", "fee": "yes", "brand": "Iberdrola", "network": "Mobi.E", "opening_hours": "24/7", "operator": "Iberdrola", "name": "Iberdrola - Iberdrola", "addr:country": "ES", "capacity": "2", "_source": "worldwide"}}]}