{"id": "-33-115", "latMin": -33, "lonMin": 115, "latMax": -32, "lonMax": 116, "generated": "2026-04-16T18:39:07.197Z", "count": 15, "pois": [{"type": "node", "id": 3203111051, "lat": -32.034655, "lon": 115.834855, "tags": {"amenity": "charging_station", "brand": "ChargePoint", "operator": "ChargePoint", "name": "ChargePoint", "_source": "worldwide"}}, {"type": "node", "id": 9413056471, "lat": -32.527699, "lon": 115.721203, "tags": {"amenity": "charging_station", "fee": "yes", "access": "yes", "brand": "RAC", "operator": "RAC", "name": "RAC", "_source": "worldwide"}}, {"type": "node", "id": 9607930796, "lat": -32.522369, "lon": 115.970335, "tags": {"amenity": "charging_station", "name": "EV Charging Station", "_source": "worldwide"}}, {"type": "node", "id": 9682737335, "lat": -32.058485, "lon": 115.746943, "tags": {"amenity": "charging_station", "name": "EV Charging Station", "_source": "worldwide"}}, {"type": "node", "id": 9682737336, "lat": -32.05758, "lon": 115.746122, "tags": {"amenity": "charging_station", "brand": "Tesla", "name": "Tesla Destination Charger", "_source": "worldwide"}}, {"type": "node", "id": 9682737337, "lat": -32.057384, "lon": 115.747228, "tags": {"amenity": "charging_station", "brand": "Tesla", "name": "Tesla Destination Charger", "_source": "worldwide"}}, {"type": "node", "id": 10925453549, "lat": -32.039695, "lon": 115.904494, "tags": {"amenity": "charging_station", "access": "customers", "opening_hours": "24/7", "brand": "Tesla", "name": "Tesla Destination Charger", "_source": "worldwide"}}, {"type": "node", "id": 10967531522, "lat": -32.530502, "lon": 115.720533, "tags": {"amenity": "charging_station", "name": "EV Charging Station", "_source": "worldwide"}}, {"type": "node", "id": 11800735919, "lat": -32.007739, "lon": 115.893177, "tags": {"amenity": "charging_station", "brand": "Tritium", "name": "Tritium", "_source": "worldwide"}}, {"type": "node", "id": 11806155972, "lat": -32.041319, "lon": 115.763156, "tags": {"amenity": "charging_station", "fee": "yes", "brand": "EVlink", "operator": "EVlink", "name": "EVlink", "_source": "worldwide"}}, {"type": "node", "id": 12718341938, "lat": -32.038683, "lon": 115.907647, "tags": {"amenity": "charging_station", "access": "customers", "opening_hours": "24/7", "brand": "Evie", "operator": "Evie Networks", "name": "Evie", "_source": "worldwide"}}, {"type": "node", "id": 12718341939, "lat": -32.038677, "lon": 115.907782, "tags": {"amenity": "charging_station", "access": "customers", "opening_hours": "24/7", "brand": "Evie", "operator": "Evie Networks", "name": "Evie", "_source": "worldwide"}}, {"type": "node", "id": 12848118528, "lat": -32.03216, "lon": 115.832471, "tags": {"amenity": "charging_station", "operator": "ChargeHub", "name": "ChargeHub", "_source": "worldwide"}}, {"type": "node", "id": 12896018175, "lat": -32.076616, "lon": 115.896682, "tags": {"amenity": "charging_station", "name": "EV Charging Station", "_source": "worldwide"}}, {"type": "node", "id": 13688552801, "lat": -32.103058, "lon": 115.76265, "tags": {"amenity": "charging_station", "fee": "yes", "access": "yes", "opening_hours": "24/7", "brand": "Tesla Supercharger", "network": "Supercharger", "operator": "Tesla", "name": "Tesla Supercharger", "_source": "worldwide"}}]}