{"id": "45-21", "latMin": 45, "lonMin": 21, "latMax": 46, "lonMax": 22, "generated": "2026-04-16T18:39:08.110Z", "count": 60, "pois": [{"type": "node", "id": 4235395793, "lat": 45.768693, "lon": 21.220862, "tags": {"amenity": "charging_station", "access": "yes", "opening_hours": "8:00-19:00", "capacity": "2", "_source": "worldwide"}}, {"type": "node", "id": 4235396553, "lat": 45.753687, "lon": 21.226659, "tags": {"amenity": "charging_station", "access": "yes", "fee": "no", "operator": "Primăria Municipiului Timișoara", "name": "Ladestation Primăria Municipiului Timișoara", "capacity": "1", "_source": "worldwide"}}, {"type": "node", "id": 8588108986, "lat": 45.755121, "lon": 21.233128, "tags": {"amenity": "charging_station", "access": "customers", "fee": "yes", "brand": "Tesla Supercharger", "opening_hours": "24/7", "operator": "Tesla", "name": "Timișoara Supercharger", "socket:type2_combo": "6", "socket:type2_combo:output": "250.0 kW", "charging_station:output": "250.0 kW", "capacity": "6", "_source": "worldwide"}}, {"type": "node", "id": 9672267281, "lat": 45.753104, "lon": 21.231227, "tags": {"amenity": "charging_station", "operator": "Primăria Timișoara", "name": "Ladestation Primăria Timișoara", "capacity": "2", "_source": "worldwide"}}, {"type": "node", "id": 9672267283, "lat": 45.757163, "lon": 21.232293, "tags": {"amenity": "charging_station", "operator": "Municipiul Timișoara", "name": "Ladestation Municipiul Timișoara", "capacity": "2", "_source": "worldwide"}}, {"type": "node", "id": 4235399499, "lat": 45.724257, "lon": 21.200568, "tags": {"amenity": "charging_station", "access": "yes", "brand": "evconnect.ro", "operator": "Citylimo", "name": "Citylimo - evconnect.ro", "capacity": "2", "_source": "worldwide"}}, {"type": "node", "id": 5181107750, "lat": 45.791752, "lon": 21.238647, "tags": {"amenity": "charging_station", "operator": "Lidl", "name": "Ladestation Lidl", "capacity": "3", "_source": "worldwide"}}, {"type": "node", "id": 5208158210, "lat": 45.77261, "lon": 21.287457, "tags": {"amenity": "charging_station", "access": "yes", "name": "Socar", "capacity": "1", "_source": "worldwide"}}, {"type": "node", "id": 5234481611, "lat": 45.757777, "lon": 21.224204, "tags": {"amenity": "charging_station", "access": "yes", "fee": "yes", "brand": "lek3.co", "operator": "hub700", "name": "lek3.co", "capacity": "6", "_source": "worldwide"}}, {"type": "node", "id": 6889027514, "lat": 45.75309, "lon": 21.216869, "tags": {"amenity": "charging_station", "access": "yes", "fee": "no", "operator": "Incuboxx", "name": "Ladestation Incuboxx", "capacity": "2", "_source": "worldwide"}}, {"type": "node", "id": 7622357576, "lat": 45.754572, "lon": 21.21657, "tags": {"amenity": "charging_station", "operator": "Lidl", "name": "Ladestation Lidl", "capacity": "2", "_source": "worldwide"}}, {"type": "node", "id": 9672267275, "lat": 45.753637, "lon": 21.223876, "tags": {"amenity": "charging_station", "operator": "ev +go", "name": "Ladestation ev +go", "capacity": "2", "_source": "worldwide"}}, {"type": "node", "id": 9672267282, "lat": 45.757365, "lon": 21.222828, "tags": {"amenity": "charging_station", "operator": "Primăria Timișoara", "name": "Ladestation Primăria Timișoara", "capacity": "3", "_source": "worldwide"}}, {"type": "node", "id": 5234481612, "lat": 45.739243, "lon": 21.211984, "tags": {"amenity": "charging_station", "access": "yes", "fee": "yes", "brand": "Renovatio/Efacec", "operator": "Kaufland", "name": "Kaufland - Renovatio/Efacec", "capacity": "3", "_source": "worldwide"}}, {"type": "node", "id": 8425173949, "lat": 45.738352, "lon": 21.210098, "tags": {"amenity": "charging_station", "operator": "Enel", "name": "Ladestation Enel", "_source": "worldwide"}}, {"type": "node", "id": 9672267287, "lat": 45.736791, "lon": 21.209619, "tags": {"amenity": "charging_station", "_source": "worldwide"}}, {"type": "node", "id": 5234481613, "lat": 45.734579, "lon": 21.266714, "tags": {"amenity": "charging_station", "access": "yes", "fee": "no", "brand": "EVLink", "operator": "EVlink", "name": "EVlink - EVLink", "capacity": "6", "_source": "worldwide"}}, {"type": "node", "id": 5234481615, "lat": 45.809939, "lon": 21.319715, "tags": {"amenity": "charging_station", "access": "yes", "brand": "Schneider Electric", "operator": "Enel", "name": "Enel - Schneider Electric", "capacity": "3", "_source": "worldwide"}}, {"type": "node", "id": 5238114038, "lat": 45.763064, "lon": 21.252304, "tags": {"amenity": "charging_station", "access": "yes", "fee": "yes", "brand": "ABB", "operator": "Lidl", "name": "Lidl - ABB", "capacity": "3", "_source": "worldwide"}}, {"type": "node", "id": 6665550730, "lat": 45.748417, "lon": 21.239556, "tags": {"amenity": "charging_station", "fee": "no", "operator": "S.T.P.T.", "name": "Trotinete electrice STPT", "_source": "worldwide"}}, {"type": "node", "id": 6665550731, "lat": 45.747584, "lon": 21.226685, "tags": {"amenity": "charging_station", "access": "yes", "fee": "no", "operator": "S.T.P.T.", "name": "Trotinete electrice STPT", "_source": "worldwide"}}, {"type": "node", "id": 6888920870, "lat": 45.75124, "lon": 21.226253, "tags": {"amenity": "charging_station", "access": "yes", "fee": "no", "brand": "Enel", "operator": "Enel", "name": "Enel - Enel", "capacity": "1", "_source": "worldwide"}}, {"type": "node", "id": 7057849175, "lat": 45.747424, "lon": 21.231597, "tags": {"amenity": "charging_station", "access": "yes", "fee": "no", "operator": "S.T.P.T.", "name": "Trotinete electrice STPT", "_source": "worldwide"}}, {"type": "node", "id": 9672267280, "lat": 45.751244, "lon": 21.233525, "tags": {"amenity": "charging_station", "operator": "Primăria Timișoara", "name": "Ladestation Primăria Timișoara", "capacity": "3", "_source": "worldwide"}}, {"type": "node", "id": 6889044000, "lat": 45.749338, "lon": 21.212803, "tags": {"amenity": "charging_station", "access": "yes", "brand": "Scame", "operator": "Nokia", "name": "Nokia - Scame", "capacity": "3", "_source": "worldwide"}}, {"type": "node", "id": 9672267277, "lat": 45.749291, "lon": 21.214108, "tags": {"amenity": "charging_station", "_source": "worldwide"}}, {"type": "node", "id": 6889115220, "lat": 45.767162, "lon": 21.226426, "tags": {"amenity": "charging_station", "access": "yes", "brand": "evconnect.ro", "operator": "Iulius Town", "name": "Iulius Town - evconnect.ro", "capacity": "2", "_source": "worldwide"}}, {"type": "node", "id": 6889247509, "lat": 45.76894, "lon": 21.235194, "tags": {"amenity": "charging_station", "access": "yes", "name": "Socar", "capacity": "1", "_source": "worldwide"}}, {"type": "node", "id": 6889206963, "lat": 45.764962, "lon": 21.24562, "tags": {"amenity": "charging_station", "access": "yes", "fee": "no", "brand": "Renovatio", "operator": "Renovatio e-charge", "name": "Renovatio e-charge - Renovatio", "capacity": "4", "_source": "worldwide"}}, {"type": "node", "id": 6889273913, "lat": 45.713131, "lon": 21.191671, "tags": {"amenity": "charging_station", "access": "yes", "brand": "Schneider Electric", "operator": "Schneider Electric", "name": "Schneider Electric - Schneider Electric", "capacity": "1", "_source": "worldwide"}}, {"type": "node", "id": 6889328179, "lat": 45.69579, "lon": 21.177434, "tags": {"amenity": "charging_station", "access": "yes", "fee": "yes", "operator": "Paul Trans Service", "name": "Ladestation Paul Trans Service", "capacity": "1", "_source": "worldwide"}}, {"type": "node", "id": 6889460325, "lat": 45.787517, "lon": 21.322669, "tags": {"amenity": "charging_station", "access": "yes", "operator": "FanCourier", "name": "Ladestation FanCourier", "capacity": "2", "_source": "worldwide"}}, {"type": "node", "id": 13321811149, "lat": 45.789342, "lon": 21.31539, "tags": {"amenity": "charging_station", "operator": "EVBox", "name": "Ladestation EVBox", "_source": "worldwide"}}, {"type": "node", "id": 7056387968, "lat": 45.751349, "lon": 21.223329, "tags": {"amenity": "charging_station", "access": "yes", "fee": "no", "operator": "S.T.P.T.", "name": "Trotinete electrice STPT", "_source": "worldwide"}}, {"type": "node", "id": 7108831726, "lat": 45.751644, "lon": 21.216435, "tags": {"amenity": "charging_station", "access": "yes", "fee": "no", "operator": "S.T.P.T.", "name": "Trotinete electrice STPT", "_source": "worldwide"}}, {"type": "node", "id": 9672267278, "lat": 45.747086, "lon": 21.225485, "tags": {"amenity": "charging_station", "operator": "Primăria Timișoara", "name": "Ladestation Primăria Timișoara", "_source": "worldwide"}}, {"type": "node", "id": 7056387969, "lat": 45.758727, "lon": 21.225983, "tags": {"amenity": "charging_station", "access": "yes", "fee": "no", "operator": "S.T.P.T.", "name": "Trotinete electrice STPT", "_source": "worldwide"}}, {"type": "node", "id": 7056387971, "lat": 45.759482, "lon": 21.229651, "tags": {"amenity": "charging_station", "access": "yes", "fee": "no", "operator": "S.T.P.T.", "name": "Trotinete electrice STPT", "_source": "worldwide"}}, {"type": "node", "id": 7108831725, "lat": 45.75651, "lon": 21.237196, "tags": {"amenity": "charging_station", "access": "yes", "fee": "no", "operator": "S.T.P.T.", "name": "Trotinete electrice STPT", "_source": "worldwide"}}, {"type": "node", "id": 9672267284, "lat": 45.755742, "lon": 21.237401, "tags": {"amenity": "charging_station", "_source": "worldwide"}}, {"type": "node", "id": 7144901566, "lat": 45.73764, "lon": 21.241228, "tags": {"amenity": "charging_station", "fee": "no", "operator": "S.T.P.T.", "name": "Trotinete electrice STPT", "_source": "worldwide"}}, {"type": "node", "id": 7235057684, "lat": 45.775149, "lon": 21.213371, "tags": {"amenity": "charging_station", "access": "yes", "fee": "yes", "operator": "Flow", "name": "Flow", "_source": "worldwide"}}, {"type": "node", "id": 7263032710, "lat": 45.762697, "lon": 21.211332, "tags": {"amenity": "charging_station", "access": "yes", "fee": "no", "operator": "S.T.P.T.", "name": "Trotinete electrice STPT", "_source": "worldwide"}}, {"type": "node", "id": 7291307209, "lat": 45.783572, "lon": 21.218744, "tags": {"amenity": "charging_station", "access": "yes", "fee": "no", "operator": "S.T.P.T.", "name": "Trotinete electrice STPT", "_source": "worldwide"}}, {"type": "node", "id": 7525762020, "lat": 45.722668, "lon": 21.299311, "tags": {"amenity": "charging_station", "_source": "worldwide"}}, {"type": "node", "id": 7817112380, "lat": 45.71918, "lon": 21.315672, "tags": {"amenity": "charging_station", "brand": "E.ON Drive", "operator": "E.ON", "name": "E.ON - E.ON Drive", "_source": "worldwide"}}, {"type": "node", "id": 8660324052, "lat": 45.730602, "lon": 21.188022, "tags": {"amenity": "charging_station", "_source": "worldwide"}}, {"type": "node", "id": 9376420008, "lat": 45.727893, "lon": 21.235683, "tags": {"amenity": "charging_station", "_source": "worldwide"}}, {"type": "node", "id": 9672267279, "lat": 45.746902, "lon": 21.233031, "tags": {"amenity": "charging_station", "operator": "Primăria Timișoara", "name": "Ladestation Primăria Timișoara", "_source": "worldwide"}}, {"type": "node", "id": 9672267285, "lat": 45.760057, "lon": 21.24002, "tags": {"amenity": "charging_station", "_source": "worldwide"}}, {"type": "node", "id": 9672267286, "lat": 45.777036, "lon": 21.220568, "tags": {"amenity": "charging_station", "_source": "worldwide"}}, {"type": "node", "id": 9672323088, "lat": 45.713116, "lon": 21.212279, "tags": {"amenity": "charging_station", "operator": "Lidl", "name": "Ladestation Lidl", "_source": "worldwide"}}, {"type": "node", "id": 9727096959, "lat": 45.739889, "lon": 21.258301, "tags": {"amenity": "charging_station", "_source": "worldwide"}}, {"type": "node", "id": 11235694791, "lat": 45.793367, "lon": 21.210639, "tags": {"amenity": "charging_station", "operator": "IKEA", "name": "Ladestation IKEA", "capacity": "11", "_source": "worldwide"}}, {"type": "node", "id": 12351817790, "lat": 45.039604, "lon": 21.680749, "tags": {"amenity": "charging_station", "fee": "yes", "brand": "Petrom", "name": "Petrom Electric Charging Station", "_source": "worldwide"}}, {"type": "node", "id": 12776392513, "lat": 45.763267, "lon": 21.186648, "tags": {"amenity": "charging_station", "access": "yes", "brand": "Lidl Charging Station", "name": "Ladestation Lidl Charging Station", "capacity": "2", "_source": "worldwide"}}, {"type": "node", "id": 12852831301, "lat": 45.864492, "lon": 21.572877, "tags": {"amenity": "charging_station", "opening_hours": "24/7", "name": "BRK charging station 230 V", "addr:street": "Gogenova de Sus 18", "addr:postcode": "307347", "_source": "worldwide"}}, {"type": "node", "id": 13200341162, "lat": 45.774012, "lon": 21.211583, "tags": {"amenity": "charging_station", "access": "yes", "fee": "yes", "brand": "Tesla Supercharger", "opening_hours": "24/7", "operator": "Tesla", "name": "Timișoara Supercharger", "socket:type2_combo": "12", "socket:type2_combo:output": "250.0 kW", "charging_station:output": "250.0 kW", "capacity": "12", "_source": "worldwide"}}, {"type": "node", "id": 13266711547, "lat": 45.67797, "lon": 21.905083, "tags": {"amenity": "charging_station", "brand": "E.ON Drive", "operator": "E.ON", "name": "E.ON - E.ON Drive", "_source": "worldwide"}}, {"type": "node", "id": 13293914029, "lat": 45.706771, "lon": 21.234386, "tags": {"amenity": "charging_station", "brand": "E.ON Drive", "operator": "E.ON", "name": "E.ON - E.ON Drive", "_source": "worldwide"}}]}