{"id": "64--15", "latMin": 64, "lonMin": -15, "latMax": 65, "lonMax": -14, "generated": "2026-04-16T18:39:08.806Z", "count": 5, "pois": [{"type": "node", "id": 6721193269, "lat": 64.312098, "lon": -15.228878, "tags": {"amenity": "charging_station", "access": "permissive", "fee": "yes", "brand": "ON", "operator": "Orka náttúrunnar", "name": "Nesjahverfi (Höfn - Hótel Jökull)", "socket:type2": "1", "socket:type2:output": "22.0 kW", "socket:type2_combo": "2", "socket:type2_combo:output": "100.0 kW", "socket:chademo": "1", "socket:chademo:output": "50.0 kW", "charging_station:output": "100.0 kW", "capacity": "3", "_source": "worldwide"}}, {"type": "node", "id": 8934186032, "lat": 64.255318, "lon": -15.208961, "tags": {"amenity": "charging_station", "fee": "yes", "operator": "Isorka", "name": "Olís Höfn", "socket:type2": "1", "socket:type2:output": "22 kW", "socket:chademo": "1", "socket:chademo:output": "50.0 kW", "charging_station:output": "50.0 kW", "capacity": "2", "_source": "worldwide"}}, {"type": "node", "id": 9219977709, "lat": 64.250162, "lon": -15.205568, "tags": {"amenity": "charging_station", "access": "customers", "fee": "yes", "brand": "Tesla Supercharger", "opening_hours": "24/7", "operator": "Tesla", "name": "Höfn Supercharger", "addr:street": "Víkurbraut 1", "addr:postcode": "780", "addr:city": "Höfn", "addr:country": "IS", "socket:type2_combo": "3", "socket:type2_combo:output": "250.0 kW", "charging_station:output": "250.0 kW", "capacity": "3", "_source": "worldwide"}}, {"type": "node", "id": 11055266661, "lat": 64.249666, "lon": -15.207444, "tags": {"amenity": "charging_station", "access": "permissive", "fee": "yes", "brand": "ON", "operator": "Orka náttúrunnar", "name": "Hótel Edda - Höfn", "socket:type2": "2", "socket:type2:output": "22.0 kW", "charging_station:output": "22.0 kW", "capacity": "2", "_source": "worldwide"}}, {"type": "node", "id": 12919627001, "lat": 64.252729, "lon": -15.211569, "tags": {"amenity": "charging_station", "_source": "worldwide"}}]}