{"id": "34-43", "latMin": 34, "lonMin": 43, "latMax": 35, "lonMax": 44, "generated": "2026-04-16T18:39:07.300Z", "count": 879, "pois": [{"type": "node", "id": 8068037788, "lat": 34.0831174, "lon": 43.0424616, "tags": {"name": "علوة حمدي", "tourism": "attraction"}}, {"type": "node", "id": 5212058327, "lat": 34.0646039, "lon": 43.4166422, "tags": {"man_made": "water_well"}}, {"type": "node", "id": 5940207485, "lat": 34.0476236, "lon": 43.56691, "tags": {"tourism": "camp_site"}}, {"type": "node", "id": 11443106069, "lat": 34.6230827, "lon": 43.0713784, "tags": {"amenity": "hospital", "name:en": "Awat Center"}}, {"type": "node", "id": 5985984585, "lat": 34.625439, "lon": 43.0854538, "tags": {"tourism": "camp_site"}}, {"type": "node", "id": 4381244091, "lat": 34.7353106, "lon": 43.1905157, "tags": {"name": "صيادة الدواعش", "name:ar": "صيادة الدواعش", "tourism": "viewpoint"}}, {"type": "node", "id": 10248507509, "lat": 34.7242009, "lon": 43.3212237, "tags": {"name": "مزارع زيونة", "tourism": "caravan_site"}}, {"type": "node", "id": 7966886085, "lat": 34.6703286, "lon": 43.5758447, "tags": {"amenity": "fuel", "name": "محطة"}}, {"type": "node", "id": 13602516001, "lat": 34.7034941, "lon": 43.5565554, "tags": {"name": "سبايكر", "name:en": "اسبايكر الجوي", "tourism": "camp_site"}}, {"type": "node", "id": 8922032785, "lat": 34.6865766, "lon": 43.5760528, "tags": {"amenity": "hospital", "name:en": "TIKRIT HOSPITAL AIR FORCE ACADEMY"}}, {"type": "node", "id": 5594304628, "lat": 34.6910895, "lon": 43.6168403, "tags": {"internet_access": "wlan", "name": "مخيم الكرامة", "tourism": "camp_site"}}, {"type": "node", "id": 11055936006, "lat": 34.693808, "lon": 43.6194891, "tags": {"name": "اسواق الشهامه. الشارع العام", "shop": "supermarket"}}, {"type": "node", "id": 11097066611, "lat": 34.6964553, "lon": 43.6184907, "tags": {"name": "أسواق الغيث.حماد شهاب", "shop": "supermarket"}}, {"type": "node", "id": 11097067413, "lat": 34.6938721, "lon": 43.6195848, "tags": {"name": "أسواق الشهامة.الشهامةالشارع العام", "shop": "supermarket"}}, {"type": "node", "id": 6942385285, "lat": 34.7036317, "lon": 43.6114535, "tags": {"amenity": "restaurant", "name": "مطعم السلطان طريق موصل"}}, {"type": "node", "id": 9870475319, "lat": 34.70142, "lon": 43.6093089, "tags": {"addr:housenumber": "07703025307", "name": "اسواق العطواني . رافت", "shop": "supermarket"}}, {"type": "node", "id": 9870476217, "lat": 34.6996938, "lon": 43.6084862, "tags": {"name": "اسواق الحدباء", "shop": "supermarket"}}, {"type": "node", "id": 9870476317, "lat": 34.7000158, "lon": 43.6084881, "tags": {"addr:housenumber": "07824225253", "name": "اسواق ابو سرمد", "shop": "supermarket"}}, {"type": "node", "id": 11097067414, "lat": 34.6998205, "lon": 43.6084325, "tags": {"name": "أسواق ابو سرمد.الصقور", "shop": "supermarket"}}, {"type": "node", "id": 11097067415, "lat": 34.6995027, "lon": 43.6081117, "tags": {"name": "أسواق ابو حسام.الصقور", "shop": "supermarket"}}, {"type": "node", "id": 9870475318, "lat": 34.6982656, "lon": 43.6201344, "tags": {"addr:housenumber": "07731317710", "name": "اسواق ام علي", "shop": "supermarket"}}, {"type": "node", "id": 9870475517, "lat": 34.7016571, "lon": 43.6168258, "tags": {"addr:housenumber": "07713285184", "name": "اسواق بلبل", "shop": "supermarket"}}, {"type": "node", "id": 11036836406, "lat": 34.6997007, "lon": 43.6171981, "tags": {"name": "اسواق اللغيث. حماد شهاب", "shop": "supermarket"}}, {"type": "node", "id": 11097058020, "lat": 34.7007684, "lon": 43.6181709, "tags": {"shop": "supermarket"}}, {"type": "node", "id": 11097058021, "lat": 34.7018318, "lon": 43.6170882, "tags": {"name": "أسواق محمد الجليل.حماد شهاب", "shop": "supermarket"}}, {"type": "node", "id": 6937701788, "lat": 34.7237818, "lon": 43.5968724, "tags": {"man_made": "water_well"}}, {"type": "node", "id": 7799282486, "lat": 34.8142322, "lon": 43.428854, "tags": {"man_made": "water_well"}}, {"type": "node", "id": 9893742620, "lat": 34.8281493, "lon": 43.4965554, "tags": {"name": "أسواق خميس.قرية السعد", "shop": "supermarket"}}, {"type": "node", "id": 11205138044, "lat": 34.8270594, "lon": 43.4970291, "tags": {"name": "أسواق رعد الجبوري.قريه السعد", "shop": "supermarket"}}, {"type": "node", "id": 9893742619, "lat": 34.8290473, "lon": 43.5156358, "tags": {"name": "اسواق عبد العزيز", "shop": "supermarket"}}, {"type": "node", "id": 9893743018, "lat": 34.8282611, "lon": 43.5151473, "tags": {"name": "اسواق العائله", "shop": "supermarket"}}, {"type": "node", "id": 5387171722, "lat": 34.7473435, "lon": 43.5894924, "tags": {"man_made": "water_well"}}, {"type": "node", "id": 5387171723, "lat": 34.7473788, "lon": 43.5895119, "tags": {"man_made": "water_well"}}, {"type": "node", "id": 5496942022, "lat": 34.7480911, "lon": 43.5880312, "tags": {"addr:street": "شار تكريت", "name": "مقر الحمره", "tourism": "attraction"}}, {"type": "node", "id": 11055936105, "lat": 34.7679183, "lon": 43.5908212, "tags": {"name": "اسواق ابو عمر. الحمره", "shop": "supermarket"}}, {"type": "node", "id": 11097067212, "lat": 34.7679716, "lon": 43.59078, "tags": {"name": "أسواق ابوعمر.الحمرة", "shop": "supermarket"}}, {"type": "node", "id": 11036836006, "lat": 34.7526557, "lon": 43.6064963, "tags": {"name": "اسواق محمود. الحمره", "shop": "supermarket"}}, {"type": "node", "id": 11097066612, "lat": 34.7529413, "lon": 43.6064675, "tags": {"name": "أسواق محمد.الحمرة", "shop": "supermarket"}}, {"type": "node", "id": 9907072118, "lat": 34.7645976, "lon": 43.5965263, "tags": {"name": "اسواق اركان", "shop": "supermarket"}}, {"type": "node", "id": 11036836407, "lat": 34.764301, "lon": 43.5945788, "tags": {"name": "اسواق نصير. الحمره", "shop": "supermarket"}}, {"type": "node", "id": 11097069205, "lat": 34.7636929, "lon": 43.5948201, "tags": {"name": "أسواق ابو نصير.الحمرة", "shop": "supermarket"}}, {"type": "node", "id": 5772547553, "lat": 34.796695, "lon": 43.5190864, "tags": {"amenity": "fuel", "name": "محطة وقود ابو طعم", "name:en": "Abu Ta'm gas station"}}, {"type": "node", "id": 9949105617, "lat": 34.8215842, "lon": 43.5193869, "tags": {"name": "اسواق الاخوين البوطعمه", "shop": "supermarket"}}, {"type": "node", "id": 11097058012, "lat": 34.8215815, "lon": 43.516632, "tags": {"name": "أسواق خماس.البوطعمة", "shop": "supermarket"}}, {"type": "node", "id": 11097058013, "lat": 34.8212746, "lon": 43.5187521, "tags": {"name": "أسواق دجلة.البوطعمة", "shop": "supermarket"}}, {"type": "node", "id": 11097067208, "lat": 34.8220478, "lon": 43.5206428, "tags": {"name": "أسواق الرحمة.البوطعمة", "shop": "supermarket"}}, {"type": "node", "id": 11097067505, "lat": 34.8203348, "lon": 43.5175341, "tags": {"name": "اسواق الياسين", "shop": "supermarket"}}, {"type": "node", "id": 11205129639, "lat": 34.8223372, "lon": 43.5174862, "tags": {"name": "أسواق محمود.البوطعمه", "shop": "supermarket"}}, {"type": "node", "id": 9891466823, "lat": 34.8209174, "lon": 43.5243832, "tags": {"addr:housenumber": "07714080238", "name": "اسواق عدنان البوطعمه", "shop": "supermarket"}}, {"type": "node", "id": 9893742518, "lat": 34.8269306, "lon": 43.5219924, "tags": {"name": "اسواق طه سويد .رافت", "shop": "supermarket"}}, {"type": "node", "id": 9893742618, "lat": 34.8278016, "lon": 43.5184239, "tags": {"name": "اسواق احمد صالح", "shop": "supermarket"}}, {"type": "node", "id": 9893742818, "lat": 34.8229025, "lon": 43.5187686, "tags": {"name": "ايواق حجي جاسم", "shop": "supermarket"}}, {"type": "node", "id": 9893742917, "lat": 34.8235852, "lon": 43.5195683, "tags": {"name": "اسواق الدخيل.", "shop": "supermarket"}}, {"type": "node", "id": 9893743017, "lat": 34.8231023, "lon": 43.5186419, "tags": {"addr:housenumber": "07833180326", "name": "اسواق مصطفى سامي العكله", "shop": "supermarket"}}, {"type": "node", "id": 10171862317, "lat": 34.8240062, "lon": 43.5180502, "tags": {"name": "اسواق حمود الجاسم رافت", "shop": "supermarket"}}, {"type": "node", "id": 11097058010, "lat": 34.8270981, "lon": 43.5167303, "tags": {"name": "أسواق حميد.البوطعمة", "shop": "supermarket"}}, {"type": "node", "id": 11097058011, "lat": 34.8269637, "lon": 43.5217037, "tags": {"name": "أسواق حجي مهدي.البوطعمة", "shop": "supermarket"}}, {"type": "node", "id": 11097067406, "lat": 34.825885, "lon": 43.5165297, "tags": {"name": "أسواق الاخوين سجاد.البوطعمة", "shop": "supermarket"}}, {"type": "node", "id": 11097067407, "lat": 34.8230403, "lon": 43.5182326, "tags": {"name": "أسواق المصطفى.البوطعمة", "shop": "supermarket"}}, {"type": "node", "id": 11097067408, "lat": 34.823058, "lon": 43.5221018, "tags": {"name": "أسواق غصن الزيتون.البوطعمة", "shop": "supermarket"}}, {"type": "node", "id": 11141033905, "lat": 34.8230143, "lon": 43.5189558, "tags": {"name": "استاذ تايه علي", "tourism": "guest_house"}}, {"type": "node", "id": 11205141839, "lat": 34.8228252, "lon": 43.5189852, "tags": {"name": "أسواق حجي جاسم.البوطعمه", "shop": "supermarket"}}, {"type": "node", "id": 11205141840, "lat": 34.8279988, "lon": 43.5198639, "tags": {"name": "أسواق عطاء الرحمن.البوطعمه", "shop": "supermarket"}}, {"type": "node", "id": 11205141841, "lat": 34.828892, "lon": 43.5171469, "tags": {"name": "أسواق نزار.الحجاج", "shop": "supermarket"}}, {"type": "node", "id": 11234018643, "lat": 34.8267936, "lon": 43.5210947, "tags": {"name": "أسواق عبدالعزيز.البوطعمه", "shop": "supermarket"}}, {"type": "node", "id": 9893742417, "lat": 34.8241492, "lon": 43.5238418, "tags": {"addr:housenumber": "07807822003", "name": "اسواق الريان", "shop": "supermarket"}}, {"type": "node", "id": 11097066608, "lat": 34.8256008, "lon": 43.5258898, "tags": {"name": "أسواق ابو ليث.البوطعمة", "shop": "supermarket"}}, {"type": "node", "id": 11097067209, "lat": 34.8245059, "lon": 43.5246213, "tags": {"name": "أسواق الريان.البوطعمة", "shop": "supermarket"}}, {"type": "node", "id": 11097067210, "lat": 34.8254103, "lon": 43.5242129, "tags": {"name": "أسواق عبدالسلام.البوطعمة", "shop": "supermarket"}}, {"type": "node", "id": 11205138038, "lat": 34.8265508, "lon": 43.5277753, "tags": {"name": "أسواق فرحان.البوطعمه", "shop": "supermarket"}}, {"type": "node", "id": 11205141837, "lat": 34.8236534, "lon": 43.5230948, "tags": {"name": "أسواق حجي مطلك.البوطعمه", "shop": "supermarket"}}, {"type": "node", "id": 11234018642, "lat": 34.8261487, "lon": 43.5269019, "tags": {"name": "أسواق ابويحيى. البو طعمه", "shop": "supermarket"}}, {"type": "node", "id": 9936236718, "lat": 34.795535, "lon": 43.6062952, "tags": {"name": "اسواق ابو حميد ربيضه رافت", "shop": "supermarket"}}, {"type": "node", "id": 9936236719, "lat": 34.7936558, "lon": 43.6070521, "tags": {"name": "اسواق نزار ربيضه رافت", "shop": "supermarket"}}, {"type": "node", "id": 9936236717, "lat": 34.7986483, "lon": 43.6069196, "tags": {"name": "اسواق ابو عمار ربيضه رافت", "shop": "supermarket"}}, {"type": "node", "id": 5426953023, "lat": 34.7927966, "lon": 43.6114216, "tags": {"name": "مركز ربيضة", "tourism": "viewpoint"}}, {"type": "node", "id": 11159155611, "lat": 34.7963302, "lon": 43.6117962, "tags": {"name": "أسواق ابو حسين.ربيضه", "shop": "supermarket"}}, {"type": "node", "id": 11159155715, "lat": 34.7960472, "lon": 43.6111607, "tags": {"name": "أسواق ابو زيد.ربيضه", "shop": "supermarket"}}, {"type": "node", "id": 11159156108, "lat": 34.79104, "lon": 43.6127683, "tags": {"name": "أسواق الورد.ربيضه", "shop": "supermarket"}}, {"type": "node", "id": 9936236618, "lat": 34.7923799, "lon": 43.6172358, "tags": {"name": "اسواق ابو احمد ربيضه .رافت", "shop": "supermarket"}}, {"type": "node", "id": 9936236617, "lat": 34.798624, "lon": 43.6138561, "tags": {"name": "اسواق ابو عمر ربيضه .رافت", "shop": "supermarket"}}, {"type": "node", "id": 9936236318, "lat": 34.8190276, "lon": 43.5790111, "tags": {"name": "اسواق ثائر رافت.تل السيباط", "shop": "supermarket"}}, {"type": "node", "id": 9936236417, "lat": 34.8179274, "lon": 43.5795185, "tags": {"name": "اسواق ناصر تل السيباط رافت", "shop": "supermarket"}}, {"type": "node", "id": 9936236418, "lat": 34.8183166, "lon": 43.5775817, "tags": {"name": "اسواق عدنان تل السيباط رافت", "shop": "supermarket"}}, {"type": "node", "id": 4922439821, "lat": 34.8874267, "lon": 43.0825402, "tags": {"historic": "memorial", "name": "جسر السكرية", "name:ar": "جسر السكرية"}}, {"type": "node", "id": 8807734718, "lat": 34.9319981, "lon": 43.3236332, "tags": {"historic": "castle", "name": "ال صحن الجنابي"}}, {"type": "node", "id": 8807741417, "lat": 34.9297873, "lon": 43.4091199, "tags": {"addr:street": "حي ال هراط", "internet_access": "wlan", "name": "ال صحن", "tourism": "camp_site"}}, {"type": "node", "id": 11159155706, "lat": 34.9414395, "lon": 43.4054246, "tags": {"shop": "supermarket"}}, {"type": "node", "id": 11159156009, "lat": 34.9410344, "lon": 43.4065134, "tags": {"name": "أسواق أبو نشوان.الصينية", "shop": "supermarket"}}, {"type": "node", "id": 4489335991, "lat": 34.8334493, "lon": 43.5019054, "tags": {"amenity": "fuel", "name": "محطة وقود الحجاج", "name:ar": "محطة وقود الحجاج"}}, {"type": "node", "id": 4608020989, "lat": 34.8336652, "lon": 43.5016708, "tags": {"amenity": "fuel", "name": "محطة الحجاج", "name:ar": "محطة الحجاج"}}, {"type": "node", "id": 9893742717, "lat": 34.8327461, "lon": 43.5117523, "tags": {"name": "اسواق ابو جاسم حجاج", "shop": "supermarket"}}, {"type": "node", "id": 5307682323, "lat": 34.8364611, "lon": 43.5064437, "tags": {"amenity": "restaurant", "internet_access": "wlan", "name": "مطعم القلعة السياحي", "name:ar": "مطعم القلعة", "name:en": "Citadel restaurant", "name:ku": "خوارهنگه قه لات", "opening_hours": "24/7"}}, {"type": "node", "id": 11691463269, "lat": 34.8364849, "lon": 43.5062844, "tags": {"amenity": "restaurant", "name": "مطعم تشريب عراوي"}}, {"type": "node", "id": 4938485621, "lat": 34.8437767, "lon": 43.5027119, "tags": {"amenity": "restaurant", "name": "مطعم ماشاء الله", "name:ar": "مطعم ماشاء الله"}}, {"type": "node", "id": 4959281921, "lat": 34.8438695, "lon": 43.5022101, "tags": {"amenity": "restaurant", "name": "مطعم ماشاء الله", "name:ar": "مطعم ماشاء الله"}}, {"type": "node", "id": 9893742517, "lat": 34.8423131, "lon": 43.5053518, "tags": {"addr:housenumber": "07705153575", "name": "اسواق جاسم المجهد", "shop": "supermarket"}}, {"type": "node", "id": 9893742617, "lat": 34.8449612, "lon": 43.5067445, "tags": {"name": "اسواق حمد .", "shop": "supermarket"}}, {"type": "node", "id": 10092448780, "lat": 34.8433261, "lon": 43.5032426, "tags": {"amenity": "fuel"}}, {"type": "node", "id": 11205142241, "lat": 34.845755, "lon": 43.5074917, "tags": {"name": "أسواق عمر.الحجاج", "shop": "supermarket"}}, {"type": "node", "id": 11205138043, "lat": 34.8478167, "lon": 43.5110634, "tags": {"name": "أسواق حمودي.الحجاج", "shop": "supermarket"}}, {"type": "node", "id": 4845819021, "lat": 34.9102236, "lon": 43.4259081, "tags": {"name": "حي الفرهود", "name:ar": "حي الفرهود", "tourism": "caravan_site"}}, {"type": "node", "id": 4583041289, "lat": 34.9248657, "lon": 43.413381, "tags": {"name": "متنزة الصينية", "name:ar": "متنزة الصينية", "tourism": "artwork"}}, {"type": "node", "id": 4583041389, "lat": 34.9263152, "lon": 43.4136794, "tags": {"amenity": "cafe", "name": "مقهى الصينية", "name:ar": "مقهى الصينية"}}, {"type": "node", "id": 4583167790, "lat": 34.9241856, "lon": 43.4147959, "tags": {"amenity": "hospital", "name": "مستوصف الصينية القديم", "name:ar": "مستوصف الصينية القديم"}}, {"type": "node", "id": 4583245691, "lat": 34.9250558, "lon": 43.4140811, "tags": {"addr:street": "طريق الصينية-بيجي", "amenity": "cafe", "name": "مقهى الصينية", "name:ar": "مقهى الصينية"}}, {"type": "node", "id": 4875628122, "lat": 34.9247457, "lon": 43.414156, "tags": {"amenity": "cafe", "name": "مقهى الصينية القديم", "name:ar": "مقهى الصينية القديم"}}, {"type": "node", "id": 4875635624, "lat": 34.9236229, "lon": 43.4142198, "tags": {"name": "متنزة الصينية", "name:ar": "متنزة الصينية", "tourism": "attraction"}}, {"type": "node", "id": 4875635626, "lat": 34.9253844, "lon": 43.413926, "tags": {"name": "محلات الصينية القديمة", "name:ar": "محلات الصينية القديمة", "shop": "convenience"}}, {"type": "node", "id": 4875645924, "lat": 34.9268991, "lon": 43.413763, "tags": {"name": "محلات تجارية", "name:ar": "محلات تجارية", "shop": "convenience"}}, {"type": "node", "id": 2924121459, "lat": 34.9228024, "lon": 43.4232601, "tags": {"addr:street": "طريق الصينية-بيجي", "amenity": "fuel", "name": "محطة وقود الصينية", "name:ar": "محطة وقود الصينية", "name:en": "Chinese gas station", "opening_hours": "24/7"}}, {"type": "node", "id": 11159155606, "lat": 34.9269976, "lon": 43.4210299, "tags": {"name": "أسواق مصطفى.الصينية", "shop": "supermarket"}}, {"type": "node", "id": 11159155614, "lat": 34.9270884, "lon": 43.4220153, "tags": {"name": "أسواق ابو ايوب.الصينية", "shop": "supermarket"}}, {"type": "node", "id": 4583271489, "lat": 34.9282926, "lon": 43.4128997, "tags": {"addr:street": "طريق الصينية-بيجي", "amenity": "place_of_worship", "building": "mosque", "name": "سوق الصينية الجديد", "name:ar": "سوق الصينية الجديد", "religion": "muslim", "tourism": "attraction"}}, {"type": "node", "id": 4583828989, "lat": 34.9276889, "lon": 43.4130058, "tags": {"addr:street": "شارع السوق", "amenity": "place_of_worship", "name": "مزگه وت نور", "name:ar": "جامع النور", "name:en": "Noor Mosque", "name:ku": "مزگه وت نور", "opening_hours": "24/7", "tourism": "attraction"}}, {"type": "node", "id": 4583835891, "lat": 34.9300213, "lon": 43.412623, "tags": {"addr:street": "طريق الصينية-بيجي", "name": "مول الصينية", "name:ar": "مول الصينية", "name:en": "Chinese Mall", "shop": "supermarket"}}, {"type": "node", "id": 4583841989, "lat": 34.9307989, "lon": 43.4130799, "tags": {"amenity": "bicycle_parking", "operator": "فلكة الصينية"}}, {"type": "node", "id": 4658965190, "lat": 34.9281782, "lon": 43.4124647, "tags": {"addr:street": "شارع المستشفى", "amenity": "hospital", "name": "مستشفى الصينية", "name:ar": "مستشفى الصينية", "opening_hours": "24/7"}}, {"type": "node", "id": 4750872725, "lat": 34.9281357, "lon": 43.4121186, "tags": {"amenity": "hospital", "name": "مستشفى الصينية الجديد", "name:ar": "مستشفى الصينية صالة الولادة"}}, {"type": "node", "id": 4875635628, "lat": 34.928243, "lon": 43.4131672, "tags": {"amenity": "pharmacy", "name": "صيدلية اياد", "name:ar": "صيدلية اياد"}}, {"type": "node", "id": 4875635629, "lat": 34.928211, "lon": 43.412958, "tags": {"amenity": "hospital", "name": "مستشفى الصينية المدخل الرئيسي", "name:ar": "مستشفى الصينية المدخل الرئيسي", "opening_hours": "24/7"}}, {"type": "node", "id": 4875635632, "lat": 34.9292974, "lon": 43.4133194, "tags": {"addr:street": "شارع السوق", "name": "مول الصينية", "name:ar": "مول الصينية", "opening_hours": "24/7", "shop": "convenience"}}, {"type": "node", "id": 4933560322, "lat": 34.9325104, "lon": 43.4145874, "tags": {"name": "ناحية الصينية", "name:ar": "ناحية الصينية", "tourism": "attraction"}}, {"type": "node", "id": 9891417218, "lat": 34.9292511, "lon": 43.4133415, "tags": {"addr:housenumber": "07701894991", "name": "اسواق ابو فواز .رافت", "shop": "supermarket"}}, {"type": "node", "id": 9891433217, "lat": 34.9283987, "lon": 43.4135238, "tags": {"addr:housenumber": "07823386410", "name": "اسواق المدينه المنوره .رافت", "shop": "supermarket"}}, {"type": "node", "id": 9891433218, "lat": 34.9282993, "lon": 43.4132844, "tags": {"addr:housenumber": "07821114752", "name": "اسواق ابو امجد", "shop": "supermarket"}}, {"type": "node", "id": 9891433317, "lat": 34.9288868, "lon": 43.4134188, "tags": {"addr:housenumber": "07806800691", "name": "اسواق الكوثر", "shop": "supermarket"}}, {"type": "node", "id": 9891433318, "lat": 34.9287893, "lon": 43.4133126, "tags": {"addr:housenumber": "07705101173", "name": "اسواق ابو عمر", "shop": "supermarket"}}, {"type": "node", "id": 9891433417, "lat": 34.9290324, "lon": 43.4130242, "tags": {"addr:housenumber": "07716950662", "name": "اسواق السيد خلف.رافت", "shop": "supermarket"}}, {"type": "node", "id": 9907071918, "lat": 34.9286893, "lon": 43.4134629, "tags": {"name": "اسواق الكوثر.رافت", "shop": "supermarket"}}, {"type": "node", "id": 11205142637, "lat": 34.9293621, "lon": 43.4135431, "tags": {"name": "ابو فواز.الصينيه", "shop": "supermarket"}}, {"type": "node", "id": 11234018537, "lat": 34.9282149, "lon": 43.413254, "tags": {"name": "أسواق أبو امجد.الصينيه", "shop": "supermarket"}}, {"type": "node", "id": 4583801893, "lat": 34.9292047, "lon": 43.4234167, "tags": {"man_made": "water_well"}}, {"type": "node", "id": 4583816992, "lat": 34.929279, "lon": 43.4234218, "tags": {"amenity": "drinking_water", "name": "مشروع ماء الصينية", "name:ar": "مشروع ماء الصينية", "name:en": "Chinese water"}}, {"type": "node", "id": 9907072119, "lat": 34.9286297, "lon": 43.4186747, "tags": {"name": "اسواق عمر الصينيه داخل لبيوت", "shop": "supermarket"}}, {"type": "node", "id": 4845819022, "lat": 34.9235153, "lon": 43.4364107, "tags": {"name": "حي الفاروق", "name:ar": "حي الفاروق", "tourism": "caravan_site"}}, {"type": "node", "id": 9891417220, "lat": 34.9335733, "lon": 43.4247237, "tags": {"addr:housenumber": "07818740647", "name": "اسواق ثائر", "shop": "supermarket"}}, {"type": "node", "id": 4868837022, "lat": 34.8888766, "lon": 43.4644269, "tags": {"name": "جسر هونداي", "name:ar": "جسر هونداي", "tourism": "attraction"}}, {"type": "node", "id": 11205142238, "lat": 34.8921625, "lon": 43.4707268, "tags": {"name": "اسواق مصطفى.هونداي", "shop": "supermarket"}}, {"type": "node", "id": 9891417221, "lat": 34.8857002, "lon": 43.4891043, "tags": {"name": "اسواق عزالدين", "shop": "supermarket"}}, {"type": "node", "id": 9891433219, "lat": 34.8854925, "lon": 43.4874064, "tags": {"addr:housenumber": "07806278607", "name": "اسواق محمد", "shop": "supermarket"}}, {"type": "node", "id": 9891433220, "lat": 34.88585, "lon": 43.488838, "tags": {"addr:housenumber": "07801696263", "name": "اسواق الملاك", "shop": "supermarket"}}, {"type": "node", "id": 11159156007, "lat": 34.8857939, "lon": 43.4890323, "tags": {"name": "أسواق عزالدين.بيجي الصينية", "shop": "supermarket"}}, {"type": "node", "id": 9891466821, "lat": 34.9011073, "lon": 43.4884412, "tags": {"addr:housenumber": "07703024529", "name": "اسواق صالح.", "shop": "supermarket"}}, {"type": "node", "id": 9891466822, "lat": 34.8976164, "lon": 43.4859422, "tags": {"addr:housenumber": "07714026782", "name": "اسواق عمار.", "shop": "supermarket"}}, {"type": "node", "id": 9891488719, "lat": 34.9061928, "lon": 43.4878072, "tags": {"addr:housenumber": "07823693975", "name": "اسواق الكابتن احمد.", "shop": "supermarket"}}, {"type": "node", "id": 9891433221, "lat": 34.886337, "lon": 43.4915937, "tags": {"addr:housenumber": "07813951302", "name": "اسواق مروان", "shop": "supermarket"}}, {"type": "node", "id": 9891466818, "lat": 34.8867234, "lon": 43.4950516, "tags": {"addr:housenumber": "07706149043", "name": "اسواق عمر الدوشان.", "shop": "supermarket"}}, {"type": "node", "id": 9891488517, "lat": 34.8823665, "lon": 43.4944206, "tags": {"addr:housenumber": "07742562715", "name": "اسواق احمد محجوب", "shop": "supermarket"}}, {"type": "node", "id": 9981007317, "lat": 34.8828681, "lon": 43.4905887, "tags": {"name": "اسواق همام", "shop": "supermarket"}}, {"type": "node", "id": 11159277005, "lat": 34.8833153, "lon": 43.493766, "tags": {"name": "أسواق المدريدي.المزرعه", "shop": "supermarket"}}, {"type": "node", "id": 11205142140, "lat": 34.8862709, "lon": 43.4911319, "tags": {"name": "أسواق فائق.المزرعه", "shop": "supermarket"}}, {"type": "node", "id": 9891466819, "lat": 34.8828816, "lon": 43.4982423, "tags": {"addr:housenumber": "07807461027", "name": "اسواق الطارق", "shop": "supermarket"}}, {"type": "node", "id": 11159155707, "lat": 34.8846803, "lon": 43.4967014, "tags": {"name": "أسواق موفق الدليمي.المزرعة", "shop": "supermarket"}}, {"type": "node", "id": 11159258505, "lat": 34.8859234, "lon": 43.4971977, "tags": {"name": "اسواق الهادي.المزرعه", "shop": "supermarket"}}, {"type": "node", "id": 11205138041, "lat": 34.8840133, "lon": 43.5003, "tags": {"name": "أسواق الدوشان.المزرعه", "shop": "supermarket"}}, {"type": "node", "id": 11159155906, "lat": 34.8882154, "lon": 43.4914044, "tags": {"name": "أسواق خميس.المزرعة", "shop": "supermarket"}}, {"type": "node", "id": 9891466820, "lat": 34.8851318, "lon": 43.5105508, "tags": {"addr:housenumber": "07714080238", "name": "اسواق رياض جريش.رافت", "shop": "supermarket"}}, {"type": "node", "id": 11205141845, "lat": 34.8996749, "lon": 43.5105015, "tags": {"name": "أسواق ابو عبدالله.البعيجي", "shop": "supermarket"}}, {"type": "node", "id": 9899345619, "lat": 34.9061283, "lon": 43.5154835, "tags": {"name": "اسواق طه .رافت", "shop": "supermarket"}}, {"type": "node", "id": 9899345917, "lat": 34.9058973, "lon": 43.5156185, "tags": {"name": "اسواق الرشيد .رافت", "shop": "supermarket"}}, {"type": "node", "id": 9909005417, "lat": 34.9062449, "lon": 43.5154924, "tags": {"name": "اسواق حمودي بعيجي .رافت", "shop": "supermarket"}}, {"type": "node", "id": 11055936205, "lat": 34.9112963, "lon": 43.4786142, "tags": {"name": "اسواق الفقير", "shop": "supermarket"}}, {"type": "node", "id": 11159155605, "lat": 34.9110829, "lon": 43.4787184, "tags": {"name": "أسواق الفقير.حي التأميم", "shop": "supermarket"}}, {"type": "node", "id": 9899346217, "lat": 34.9084397, "lon": 43.4844502, "tags": {"name": "اسواق كمال", "shop": "supermarket"}}, {"type": "node", "id": 11205142240, "lat": 34.9168317, "lon": 43.4812367, "tags": {"name": "أسواق عمر.حي التأميم", "shop": "supermarket"}}, {"type": "node", "id": 9865226418, "lat": 34.9199003, "lon": 43.4835357, "tags": {"addr:housenumber": "07835559544", "name": "اسواق برزان", "shop": "supermarket"}}, {"type": "node", "id": 9865248817, "lat": 34.919102, "lon": 43.4831829, "tags": {"name": "اسواق ابو ليث", "shop": "supermarket"}}, {"type": "node", "id": 9865248917, "lat": 34.9206115, "lon": 43.4866238, "tags": {"addr:housenumber": "07708449494", "name": "اسواق وائل", "shop": "supermarket"}}, {"type": "node", "id": 11055936305, "lat": 34.9190701, "lon": 43.4841133, "tags": {"name": "اسواق ابو اركان", "shop": "supermarket"}}, {"type": "node", "id": 11159155705, "lat": 34.9191146, "lon": 43.4841297, "tags": {"name": "أسواق ابو ركان.التأميم", "shop": "supermarket"}}, {"type": "node", "id": 9899345919, "lat": 34.9245423, "lon": 43.4783368, "tags": {"name": "اسواق الاخوين الملاحمه", "shop": "supermarket"}}, {"type": "node", "id": 9865248617, "lat": 34.9231864, "lon": 43.487954, "tags": {"name": "اسواق الحياة", "shop": "supermarket"}}, {"type": "node", "id": 11055936005, "lat": 34.9255572, "lon": 43.4890922, "tags": {"name": "اسواق عبيده. بيجي", "shop": "supermarket"}}, {"type": "node", "id": 11055936007, "lat": 34.9216042, "lon": 43.4868918, "tags": {"name": "اسواق العجاج. بيجي", "shop": "supermarket"}}, {"type": "node", "id": 11055936106, "lat": 34.923107, "lon": 43.4883086, "tags": {"name": "اسواق واثق. شارع المقبره", "shop": "supermarket"}}, {"type": "node", "id": 11159155905, "lat": 34.9256034, "lon": 43.488432, "tags": {"name": "اسواق عبيدة.حي الرسالة", "shop": "supermarket"}}, {"type": "node", "id": 11205142139, "lat": 34.9216814, "lon": 43.4868054, "tags": {"name": "أسواق العجاج.حي التأميم", "shop": "supermarket"}}, {"type": "node", "id": 11235299537, "lat": 34.9225896, "lon": 43.4863553, "tags": {"name": "أسواق أحمد السلامي.حي التأميم", "shop": "supermarket"}}, {"type": "node", "id": 11235326837, "lat": 34.9237097, "lon": 43.4840784, "tags": {"name": "أسواق مصطفى.شارع المقبرة", "shop": "supermarket"}}, {"type": "node", "id": 7787373685, "lat": 34.9290852, "lon": 43.4811782, "tags": {"tourism": "picnic_site"}}, {"type": "node", "id": 9899345818, "lat": 34.9300165, "lon": 43.4819743, "tags": {"name": "اسواق سعد البجاري", "shop": "supermarket"}}, {"type": "node", "id": 9899346017, "lat": 34.9307973, "lon": 43.4825438, "tags": {"name": "اسواق ابو عهد .", "shop": "supermarket"}}, {"type": "node", "id": 9957944518, "lat": 34.9280015, "lon": 43.477865, "tags": {"name": "اسواق محمد احسان", "shop": "supermarket"}}, {"type": "node", "id": 11055936008, "lat": 34.929019, "lon": 43.4781502, "tags": {"name": "اسواق الشهد", "shop": "supermarket"}}, {"type": "node", "id": 11055936107, "lat": 34.9280686, "lon": 43.4779499, "tags": {"name": "اسواق ابو اياد ثرب المستوصف", "shop": "supermarket"}}, {"type": "node", "id": 11159156005, "lat": 34.9298754, "lon": 43.4772123, "tags": {"name": "أسواق ماشاء الله.حي العسكري", "shop": "supermarket"}}, {"type": "node", "id": 9899345620, "lat": 34.9332906, "lon": 43.4842627, "tags": {"name": "اسواق الملاحمه .", "shop": "supermarket"}}, {"type": "node", "id": 9899345819, "lat": 34.9303811, "lon": 43.4873045, "tags": {"name": "اسواق السلام.", "shop": "supermarket"}}, {"type": "node", "id": 10044081044, "lat": 34.9303394, "lon": 43.487477, "tags": {"name": "مكتبة بغداد", "opening_hours": "24/7", "operator": "عبدالوهاب الجميلي", "phone": "9647840601002", "shop": "supermarket"}}, {"type": "node", "id": 11159156105, "lat": 34.9311772, "lon": 43.4876787, "tags": {"name": "أسواق السلام.قرب السوق", "shop": "supermarket"}}, {"type": "node", "id": 11205142737, "lat": 34.930637, "lon": 43.4869769, "tags": {"name": "أسواق سولاف.بيحي", "shop": "supermarket"}}, {"type": "node", "id": 11591149169, "lat": 34.9320632, "lon": 43.4887592, "tags": {"name": "حجي لائق مشعل", "tourism": "viewpoint"}}, {"type": "node", "id": 9865249017, "lat": 34.9246716, "lon": 43.4961486, "tags": {"addr:housenumber": "07703737867", "name": "اسواق الاخوين", "shop": "supermarket"}}, {"type": "node", "id": 9911340217, "lat": 34.922706, "lon": 43.4899684, "tags": {"name": "اسواق الريان", "shop": "supermarket"}}, {"type": "node", "id": 9865248517, "lat": 34.9271237, "lon": 43.500314, "tags": {"name": "اسواق الرحمه", "shop": "supermarket"}}, {"type": "node", "id": 9865248818, "lat": 34.9222583, "lon": 43.4984876, "tags": {"addr:housenumber": "07735904828", "name": "اسواق محمد السلوم", "shop": "supermarket"}}, {"type": "node", "id": 9865248819, "lat": 34.922283, "lon": 43.500048, "tags": {"addr:housenumber": "07703372622", "name": "اسواق محمود رافت", "shop": "supermarket"}}, {"type": "node", "id": 9899345517, "lat": 34.9269001, "lon": 43.5003257, "tags": {"addr:housenumber": "07710134766", "name": "اسواق ابو سجاد .رافت", "shop": "supermarket"}}, {"type": "node", "id": 11159155911, "lat": 34.927264, "lon": 43.4999993, "tags": {"name": "اسواق الرحمه.حي العصري", "shop": "supermarket"}}, {"type": "node", "id": 11159155912, "lat": 34.9269888, "lon": 43.4985216, "tags": {"name": "اسواق الليث.حي العصري", "shop": "supermarket"}}, {"type": "node", "id": 4363633127, "lat": 34.9331925, "lon": 43.4934908, "tags": {"amenity": "fuel", "name": "محطة تعبئة بيجي الحكومية"}}, {"type": "node", "id": 6783382486, "lat": 34.9298255, "lon": 43.4935323, "tags": {"amenity": "fast_food", "name": "مأكولات كل يوم"}}, {"type": "node", "id": 11159155714, "lat": 34.9297864, "lon": 43.4958363, "tags": {"name": "اسواق كل يوم.حي العصري", "shop": "supermarket"}}, {"type": "node", "id": 11159156013, "lat": 34.9327004, "lon": 43.4959497, "tags": {"name": "اسواق زياد.حي العصري", "shop": "supermarket"}}, {"type": "node", "id": 11205142138, "lat": 34.9296292, "lon": 43.4902021, "tags": {"name": "أسواق المدينه.بيجي", "shop": "supermarket"}}, {"type": "node", "id": 9865248918, "lat": 34.9322256, "lon": 43.5018711, "tags": {"addr:housenumber": "07741075923", "name": "اسواق ام صباح", "shop": "supermarket"}}, {"type": "node", "id": 9899345617, "lat": 34.932716, "lon": 43.5004057, "tags": {"addr:housenumber": "07705138958", "name": "اسواق معتز", "shop": "supermarket"}}, {"type": "node", "id": 11159155610, "lat": 34.9295233, "lon": 43.5082817, "tags": {"name": "ابو يحيى.حي العصري", "shop": "supermarket"}}, {"type": "node", "id": 11159155910, "lat": 34.9293664, "lon": 43.5040351, "tags": {"name": "اسواق الجزيره.حي العصري", "shop": "supermarket"}}, {"type": "node", "id": 9899345518, "lat": 34.9298794, "lon": 43.5109572, "tags": {"name": "اسواق اركان", "shop": "supermarket"}}, {"type": "node", "id": 9899345918, "lat": 34.9338065, "lon": 43.5135795, "tags": {"name": "اسواق جوان", "shop": "supermarket"}}, {"type": "node", "id": 9893742718, "lat": 34.8338505, "lon": 43.5214803, "tags": {"name": "اسواق احمد شلال.رافت", "shop": "supermarket"}}, {"type": "node", "id": 9893742817, "lat": 34.8324256, "lon": 43.5166517, "tags": {"addr:housenumber": "07731345548", "name": "اسواق علي حجاج.رافت", "shop": "supermarket"}}, {"type": "node", "id": 11205142739, "lat": 34.8324363, "lon": 43.5194093, "tags": {"name": "أسواق محمود.الحجاج", "shop": "supermarket"}}, {"type": "node", "id": 11774390969, "lat": 34.8322562, "lon": 43.5195102, "tags": {"name": "نصير", "tourism": "caravan_site"}}, {"type": "node", "id": 9891488718, "lat": 34.872594, "lon": 43.5201239, "tags": {"addr:housenumber": "07701875896", "name": "اسواق سامي المجهد.رافت", "shop": "supermarket"}}, {"type": "node", "id": 11159156008, "lat": 34.8724967, "lon": 43.5201539, "tags": {"name": "أسواق سامي المجيد.جريش", "shop": "supermarket"}}, {"type": "node", "id": 9891488617, "lat": 34.8774639, "lon": 43.5178252, "tags": {"addr:housenumber": "07703774177", "name": "اسواق اليمان.رافت", "shop": "supermarket"}}, {"type": "node", "id": 9891488717, "lat": 34.876336, "lon": 43.518164, "tags": {"addr:housenumber": "07824994878", "name": "اسواق التساهل.رافت", "shop": "supermarket"}}, {"type": "node", "id": 11205142239, "lat": 34.8783872, "lon": 43.5172823, "tags": {"name": "أسواق محمد.جريش", "shop": "supermarket"}}, {"type": "node", "id": 9975608017, "lat": 34.8373536, "lon": 43.5783199, "tags": {"name": "اسواق الوشاش الشارع العام", "shop": "supermarket"}}, {"type": "node", "id": 9936236317, "lat": 34.844875, "lon": 43.5700975, "tags": {"name": "اسواق عبدالله الرهيب الوشاش.رافت", "shop": "supermarket"}}, {"type": "node", "id": 10539284720, "lat": 34.8999898, "lon": 43.5333194, "tags": {"man_made": "monitoring_station", "monitoring:weather": "yes", "name:en": "BAIJI", "operator": "Iraqi Meteorological Organization and Seismology", "ref:wigos": "0-20000-0-40631", "source": "World Meteorological Organization", "start_date": "1978-01-01", "weather:anemometer": "yes", "weather:barometer": "yes", "weather:humidity_sensor": "yes", "weather:lightning_detector": "yes", "weather:precipitation_indicator": "yes", "weather:pyranometer": "yes", "weather:rain_gauge": "yes", "weather:soil_thermometer": "yes", "weather:thermometer": "yes"}}, {"type": "node", "id": 9891417219, "lat": 34.9380985, "lon": 43.4158151, "tags": {"addr:housenumber": "07824896667", "name": "اسواف الفهد .رافت", "shop": "supermarket"}}, {"type": "node", "id": 11159156006, "lat": 34.9351596, "lon": 43.4153246, "tags": {"name": "أسواق باسم.الصينية", "shop": "supermarket"}}, {"type": "node", "id": 4583802193, "lat": 34.9441611, "lon": 43.412041, "tags": {"amenity": "drinking_water", "name": "مشروع ماء الصينية الجديد", "name:ku": "مشروع ماء الصينية الجديد"}}, {"type": "node", "id": 9865248820, "lat": 34.9368783, "lon": 43.4809654, "tags": {"addr:housenumber": "07704934619", "name": "اسواق المصطفى حي الكهرباء.رافت", "shop": "supermarket"}}, {"type": "node", "id": 11205138040, "lat": 34.938294, "lon": 43.4808351, "tags": {"name": "أسواق ماشالله.حي الكهرباء", "shop": "supermarket"}}, {"type": "node", "id": 11205138039, "lat": 34.9342978, "lon": 43.4890483, "tags": {"name": "أسواق بركه الرحمن.تل زعتر", "shop": "supermarket"}}, {"type": "node", "id": 11205142237, "lat": 34.9354664, "lon": 43.4842344, "tags": {"name": "أسواق جمعية حي نفط الحكومي", "shop": "supermarket"}}, {"type": "node", "id": 9865823217, "lat": 34.9425784, "lon": 43.4803371, "tags": {"addr:housenumber": "07738328029", "name": "اسواق خير الله .رافت", "shop": "supermarket"}}, {"type": "node", "id": 9865805919, "lat": 34.9451261, "lon": 43.4837134, "tags": {"addr:housenumber": "07704294275", "name": "اسواق حي الاسمده.رافت", "shop": "supermarket"}}, {"type": "node", "id": 9899345920, "lat": 34.9349995, "lon": 43.4926562, "tags": {"name": "اسواق عبدالله", "shop": "supermarket"}}, {"type": "node", "id": 9911340317, "lat": 34.9351253, "lon": 43.4927668, "tags": {"name": "اسواق الملاحمه", "shop": "supermarket"}}, {"type": "node", "id": 11205141842, "lat": 34.9348391, "lon": 43.4916534, "tags": {"name": "أسواق التساهل.تل زعتر", "shop": "supermarket"}}, {"type": "node", "id": 9865249018, "lat": 34.9358015, "lon": 43.4971203, "tags": {"addr:housenumber": "07706140916", "name": "اسواق سفيان", "shop": "supermarket"}}, {"type": "node", "id": 9865249019, "lat": 34.9380791, "lon": 43.5019101, "tags": {"addr:housenumber": "07817265007", "name": "اسواق حجي ابراهيم", "shop": "supermarket"}}, {"type": "node", "id": 9899345618, "lat": 34.9343511, "lon": 43.5003837, "tags": {"name": "اسواق ابومريم .", "shop": "supermarket"}}, {"type": "node", "id": 9899345817, "lat": 34.9391647, "lon": 43.5007033, "tags": {"name": "اسواق الامراء", "shop": "supermarket"}}, {"type": "node", "id": 4363629183, "lat": 34.944188, "lon": 43.4933666, "tags": {"amenity": "restaurant", "name": "مطعم الزيتون"}}, {"type": "node", "id": 7848171785, "lat": 34.9432648, "lon": 43.4929563, "tags": {"amenity": "hospital", "name": "مركز صحي التوحيد بيجي"}}, {"type": "node", "id": 9865226419, "lat": 34.9417023, "lon": 43.490813, "tags": {"addr:housenumber": "07808489703", "name": "اسواق ياسر", "shop": "supermarket"}}, {"type": "node", "id": 6594484985, "lat": 34.935226, "lon": 43.5106829, "tags": {"man_made": "water_well"}}, {"type": "node", "id": 10040148735, "lat": 34.9496312, "lon": 43.4952914, "tags": {"amenity": "fuel", "name": "محطة وقود البابلية"}}, {"type": "node", "id": 10040183344, "lat": 34.9591289, "lon": 43.4955274, "tags": {"amenity": "fuel", "name": "محطة وقود الهنوف"}}, {"type": "node", "id": 4363630631, "lat": 34.9621113, "lon": 43.4953452, "tags": {"amenity": "restaurant", "name": "مطعم البركة"}}, {"type": "node", "id": 10040181780, "lat": 34.9631759, "lon": 43.4953008, "tags": {"amenity": "fuel", "name": "محطة وقود الجواهر"}}, {"type": "node", "id": 11205141843, "lat": 34.9832859, "lon": 43.5153834, "tags": {"name": "أسواق ايمن.البوجواري", "shop": "supermarket"}}, {"type": "node", "id": 13414358902, "lat": 34.9847854, "lon": 43.5158576, "tags": {"addr:housenumber": "1", "addr:postcode": "34000", "addr:street": "مضيف ايوب الطائي", "email": "ayoupfarok200@gmail.com", "internet_access": "wlan", "name:ar": "سلايل طي", "opening_hours": "24/7", "phone": "07707733765", "tourism": "guest_house", "website": "https://snapchat.com/t/r05lmL1o"}}, {"type": "node", "id": 4672352093, "lat": 34.9840054, "lon": 43.5196483, "tags": {"amenity": "atm"}}, {"type": "node", "id": 13414359001, "lat": 34.9847921, "lon": 43.5160471, "tags": {"addr:street": "قرية البوجواري", "name:ar": "مضيف ايوب الطائي", "tourism": "guest_house"}}, {"type": "node", "id": 13424747401, "lat": 34.9847591, "lon": 43.51606, "tags": {"addr:housenumber": "1", "addr:postcode": "34000", "addr:street": "طريق كركوك - بيجي", "name:ar": "دار الامير ايوب الطائي", "opening_hours": "24/7", "phone": "07707733765", "tourism": "guest_house"}}, {"type": "node", "id": 5340487523, "lat": 34.9556645, "lon": 43.5825178, "tags": {"amenity": "hospital", "name": "مفرزة الفتحة", "name:ar": "مفرزة الفتحة"}}, {"type": "node", "id": 11205142337, "lat": 34.9873901, "lon": 43.5159636, "tags": {"name": "أسواق خالد.البوجواري", "shop": "supermarket"}}, {"type": "node", "id": 11374059869, "lat": 34.0978057, "lon": 43.8292981, "tags": {"tourism": "hostel"}}, {"type": "node", "id": 11374042469, "lat": 34.1254572, "lon": 43.8163296, "tags": {"name": "othman aid.", "tourism": "hostel"}}, {"type": "node", "id": 4367885292, "lat": 34.1525708, "lon": 43.822729, "tags": {"amenity": "fuel", "name": "محطة وقود سريع سامراء", "name:ar": "محطة وقود سريع سامراء"}}, {"type": "node", "id": 4487529989, "lat": 34.1991407, "lon": 43.8135199, "tags": {"name": "ناحية الحويش", "name:ar": "ناحية الحويش", "name:en": "city hwaish", "name:ku": "ناحية الحويش", "tourism": "artwork"}}, {"type": "node", "id": 4574882592, "lat": 34.0674437, "lon": 43.918769, "tags": {"name": "سيطرة", "name:ar": "سيطرة", "tourism": "viewpoint"}}, {"type": "node", "id": 9749781117, "lat": 34.0314023, "lon": 43.9389448, "tags": {"name": "قرية الشيخ عبدالحميد عبدالعزيز", "tourism": "guest_house"}}, {"type": "node", "id": 5676248821, "lat": 34.0342906, "lon": 43.9599216, "tags": {"tourism": "picnic_site"}}, {"type": "node", "id": 4939629421, "lat": 34.042601, "lon": 43.9813113, "tags": {"tourism": "picnic_site"}}, {"type": "node", "id": 4574916397, "lat": 34.0370682, "lon": 43.9951951, "tags": {"name": "سيطرة", "name:ar": "سيطرة", "tourism": "viewpoint"}}, {"type": "node", "id": 4574896499, "lat": 34.0579164, "lon": 43.9426974, "tags": {"name": "سيطرة", "name:ar": "سيطرة", "tourism": "viewpoint"}}, {"type": "node", "id": 4939629321, "lat": 34.0580888, "lon": 43.9423404, "tags": {"amenity": "atm", "operator": "طسسسسسسسة"}}, {"type": "node", "id": 11556692869, "lat": 34.1117308, "lon": 43.8753027, "tags": {"name": "مفرق الى الرمادي", "tourism": "viewpoint"}}, {"type": "node", "id": 13385629001, "lat": 34.1107844, "lon": 43.8752662, "tags": {"amenity": "restaurant", "name": "مطعم الملوية السياحي"}}, {"type": "node", "id": 7067460285, "lat": 34.1179401, "lon": 43.8737865, "tags": {"amenity": "restaurant", "name": "مطعم الطاحونة السياحي"}}, {"type": "node", "id": 5563311121, "lat": 34.1264325, "lon": 43.8686644, "tags": {"amenity": "restaurant", "internet_access": "wlan", "name": "النور", "name:en": "Alnoor"}}, {"type": "node", "id": 2956843724, "lat": 34.1507049, "lon": 43.8573573, "tags": {"amenity": "fuel"}}, {"type": "node", "id": 4574896793, "lat": 34.1762277, "lon": 43.8553177, "tags": {"amenity": "atm", "operator": "الفرقة الرابعة ل18 ف2"}}, {"type": "node", "id": 9953495919, "lat": 34.1797721, "lon": 43.856212, "tags": {"amenity": "restaurant"}}, {"type": "node", "id": 10966519006, "lat": 34.1787857, "lon": 43.8558058, "tags": {"man_made": "water_well"}}, {"type": "node", "id": 10966519205, "lat": 34.1786886, "lon": 43.8558041, "tags": {"amenity": "drinking_water", "name": "جسر الاسحاقي / القلعة"}}, {"type": "node", "id": 2956850550, "lat": 34.1855108, "lon": 43.8557681, "tags": {"amenity": "fuel"}}, {"type": "node", "id": 4412909802, "lat": 34.1864738, "lon": 43.8558747, "tags": {"amenity": "restaurant", "name": "مطعم الأماميين", "name:ar": "مطعم الأماميين"}}, {"type": "node", "id": 4428756789, "lat": 34.1810089, "lon": 43.8564522, "tags": {"amenity": "restaurant", "name": "مطعم ماشاء الله", "name:ar": "مطعم ماشاء الله"}}, {"type": "node", "id": 11765448119, "lat": 34.1868868, "lon": 43.8555306, "tags": {"addr:country": "IQ", "addr:full": "ماركت البركة سامراء - القلعة - قرب محطة الوقود الحكومية - K135", "addr:state": "محافظة صلاح الدين", "name": "ماركت البركة", "shop": "convenience"}}, {"type": "node", "id": 4935225026, "lat": 34.1960483, "lon": 43.8504754, "tags": {"historic": "memorial"}}, {"type": "node", "id": 4935206954, "lat": 34.182635, "lon": 43.857522, "tags": {"name": "سيطرة الجسر", "name:ar": "سيطرة الجسر", "tourism": "viewpoint"}}, {"type": "node", "id": 4367885295, "lat": 34.18031, "lon": 43.870719, "tags": {"amenity": "fuel", "name": "محطة وقود", "name:ar": "محطة وقود", "name:en": "gaz station"}}, {"type": "node", "id": 8922032786, "lat": 34.188895, "lon": 43.867169, "tags": {"amenity": "hospital", "name:en": "SAMARRA HOSPITAL SAMARRAH"}}, {"type": "node", "id": 4487530389, "lat": 34.197311, "lon": 43.8571571, "tags": {"man_made": "water_well"}}, {"type": "node", "id": 4491545090, "lat": 34.1996952, "lon": 43.8662401, "tags": {"addr:street": "القاطول", "amenity": "hospital", "name": "مستشفى الشهيد محمدالماجد", "name:ar": "مستشفى الشهيد محمدالماجد", "name:en": "Muhamed Almajid Hospital"}}, {"type": "node", "id": 4935206947, "lat": 34.1970321, "lon": 43.8690127, "tags": {"amenity": "restaurant", "name": "مطعم ماشاء الله", "name:ar": "مطعم ماشاء الله", "name:en": "mashalla restaurant"}}, {"type": "node", "id": 4935225521, "lat": 34.1990736, "lon": 43.8662619, "tags": {"amenity": "hospital", "name": "القاطول", "name:ar": "القاطول", "name:en": "Alqatol hospital"}}, {"type": "node", "id": 5507903721, "lat": 34.1937947, "lon": 43.8690307, "tags": {"name": "اسواق دريد الغذائية", "name:en": "DZ", "phone": "07702723293", "shop": "supermarket"}}, {"type": "node", "id": 11034926811, "lat": 34.196669, "lon": 43.8690573, "tags": {"name": "سوق مريم", "name:ar": "سوق مريم", "name:en": "Mary Market", "shop": "convenience"}}, {"type": "node", "id": 4935225052, "lat": 34.1886541, "lon": 43.8755299, "tags": {"amenity": "restaurant", "name": "مطعم مشمشه", "name:ar": "مطعم مشمشه", "name:en": "mishmisha restaurant"}}, {"type": "node", "id": 4935225535, "lat": 34.1934056, "lon": 43.8715408, "tags": {"amenity": "cafe", "name": "مرطبات البو شامان", "name:ar": "مرطبات البو شامان"}}, {"type": "node", "id": 4935206943, "lat": 34.1926518, "lon": 43.8772892, "tags": {"amenity": "pharmacy", "name": "صيدلية خنساء حسين", "name:ar": "صيدلية خنساء حسين", "name:en": "khansaa hussein pharmacy"}}, {"type": "node", "id": 4935225048, "lat": 34.1917649, "lon": 43.8826095, "tags": {"amenity": "pharmacy", "name": "صيدلية يوزرسيف", "name:ar": "صيدلية يوزرسيف", "name:en": "jussef pharmacy"}}, {"type": "node", "id": 4935225044, "lat": 34.1949849, "lon": 43.8709153, "tags": {"amenity": "pharmacy"}}, {"type": "node", "id": 4935225326, "lat": 34.1967136, "lon": 43.876093, "tags": {"name": "افران", "name:ar": "افران", "name:en": "bakery", "shop": "bakery"}}, {"type": "node", "id": 4935225525, "lat": 34.1970324, "lon": 43.876163, "tags": {"amenity": "cafe", "name": "مقهى", "name:ar": "مقهى", "name:en": "cafe"}}, {"type": "node", "id": 4878888821, "lat": 34.1992067, "lon": 43.8764546, "tags": {"addr:street": "سامراء شارع المتحف", "name": "متحف سامراء", "name:ar": "متحف سامراء", "name:en": "Samarra Museum", "name:fa": "موزه سامرا", "tourism": "museum"}}, {"type": "node", "id": 4935206955, "lat": 34.1967245, "lon": 43.8783283, "tags": {"name": "مدخل البوباز", "name:ar": "مدخل البوباز", "name:en": "check point", "tourism": "viewpoint"}}, {"type": "node", "id": 4935225031, "lat": 34.1972224, "lon": 43.8767181, "tags": {"name": "افران بيتي", "name:ar": "افران بيتي", "name:en": "baity bakery", "shop": "bakery"}}, {"type": "node", "id": 4935225323, "lat": 34.198247, "lon": 43.8776742, "tags": {"amenity": "restaurant", "name": "مطعم حبايبنا", "name:ar": "مطعم حبايبنا", "name:en": "habaiebna hospital", "opening_hours": "Mo-Su 08:00-00:00"}}, {"type": "node", "id": 4935225530, "lat": 34.1935873, "lon": 43.8793738, "tags": {"name": "البحتري", "name:ar": "البحتري", "name:en": "albogtary supermarket", "shop": "supermarket"}}, {"type": "node", "id": 4995692222, "lat": 34.1974472, "lon": 43.8766196, "tags": {"amenity": "restaurant", "name": "رعد گلاب", "name:ar": "رعد گلاب", "name:en": "r3ad tipper"}}, {"type": "node", "id": 5042204621, "lat": 34.198809, "lon": 43.8822299, "tags": {"historic": "memorial", "name": "فلكة الملعب", "name:ar": "فلكة الملعب", "name:en": "al-malaab circle"}}, {"type": "node", "id": 6778878193, "lat": 34.1985332, "lon": 43.8766248, "tags": {"amenity": "restaurant", "name": "مطعم الامامين", "name:en": "imamain restaurant"}}, {"type": "node", "id": 4935225063, "lat": 34.1693142, "lon": 43.9128874, "tags": {"name": "سيطرة الضلوعية", "name:ar": "سيطرة الضلوعية", "tourism": "viewpoint"}}, {"type": "node", "id": 10539265703, "lat": 34.183323, "lon": 43.8833194, "tags": {"man_made": "monitoring_station", "monitoring:weather": "yes", "name:en": "SAMARAA", "operator": "Iraqi Meteorological Organization and Seismology", "ref:wigos": "0-20000-0-40635", "source": "World Meteorological Organization", "weather:anemometer": "yes", "weather:barometer": "yes", "weather:humidity_sensor": "yes", "weather:lightning_detector": "yes", "weather:precipitation_indicator": "yes", "weather:pyranometer": "yes", "weather:rain_gauge": "yes", "weather:soil_thermometer": "yes", "weather:thermometer": "yes"}}, {"type": "node", "id": 4367885293, "lat": 34.1804172, "lon": 43.8943361, "tags": {"amenity": "fuel", "fuel:diesel": "yes", "fuel:octane_92": "yes", "fuel:octane_95": "yes", "name": "محطة وقود البوهراط", "name:ar": "محطة وقود البوهراط", "self_service": "yes"}}, {"type": "node", "id": 6404009691, "lat": 34.1862422, "lon": 43.89899, "tags": {"amenity": "restaurant", "name:en": "Abo Abdullah Resturant"}}, {"type": "node", "id": 4935225324, "lat": 34.1910665, "lon": 43.8880664, "tags": {"amenity": "hospital", "name": "الاستشاريه", "name:ar": "الاستشاريه"}}, {"type": "node", "id": 10837561406, "lat": 34.1922761, "lon": 43.8870039, "tags": {"name": "مطبعة آبن الحسني", "name:en": "Ibn Alhasani Press", "tourism": "artwork"}}, {"type": "node", "id": 4935206945, "lat": 34.1903597, "lon": 43.8950493, "tags": {"amenity": "restaurant"}}, {"type": "node", "id": 4935225039, "lat": 34.1913476, "lon": 43.889692, "tags": {"name": "المول الصيني", "name:ar": "المول الصيني", "name:en": "Chinese mall", "shop": "convenience"}}, {"type": "node", "id": 6778878192, "lat": 34.1907721, "lon": 43.8932454, "tags": {"addr:city": "حي السجاد", "addr:street": "شارع الحنبلي", "amenity": "fast_food", "cuisine": "pizza;regional;chicken;juice", "diet:halal": "yes", "name": "مأكولات الصقر"}}, {"type": "node", "id": 3610724615, "lat": 34.1985849, "lon": 43.8836527, "tags": {"amenity": "fuel", "name": "الحكومية", "name:en": "gasoline station"}}, {"type": "node", "id": 10837262195, "lat": 34.1959267, "lon": 43.8857515, "tags": {"addr:city": "samara", "addr:housenumber": "11", "addr:postcode": "04002", "addr:street": "شارع السكك", "name": "A110911", "operator": "earthlink", "shop": "supermarket"}}, {"type": "node", "id": 10837529106, "lat": 34.198266, "lon": 43.8883822, "tags": {"name": "مطبعة ابن الحسني", "name:en": "Ibn Alhasani Press", "tourism": "artwork"}}, {"type": "node", "id": 4935206925, "lat": 34.1975775, "lon": 43.8955284, "tags": {"name": "ستي سنتر", "name:ar": "ستي سنتر", "name:en": "city center", "shop": "supermarket"}}, {"type": "node", "id": 4935225029, "lat": 34.1996267, "lon": 43.8912335, "tags": {"name": "متنزه سامراء", "name:ar": "متنزه سامراء", "name:en": "samarra park", "tourism": "attraction"}}, {"type": "node", "id": 4935225034, "lat": 34.1974014, "lon": 43.8899275, "tags": {"amenity": "fast_food", "name": "صاج رغدان", "name:ar": "صاج رغدان", "name:en": "Fast food"}}, {"type": "node", "id": 4935225061, "lat": 34.196731, "lon": 43.8949216, "tags": {"amenity": "pharmacy", "name": "صيدلية مريم", "name:ar": "صيدلية مريم", "name:en": "maryam pharmacy"}}, {"type": "node", "id": 6778880786, "lat": 34.1974116, "lon": 43.8957851, "tags": {"amenity": "restaurant", "name": "Al barake restaurant", "name:ar": "مطعم البركة"}}, {"type": "node", "id": 7944263185, "lat": 34.1976383, "lon": 43.8947111, "tags": {"amenity": "cafe", "name": "عمر ابو الشاي"}}, {"type": "node", "id": 8417324918, "lat": 34.1977014, "lon": 43.8943807, "tags": {"name": "حجی احمد جام", "name:en": "haji ahmad", "name:ku": "حاجی ئەحمەد", "tourism": "artwork"}}, {"type": "node", "id": 4683255793, "lat": 34.1883539, "lon": 43.8995226, "tags": {"amenity": "hospital", "name": "مستشفى الدكتور جمال", "name:ar": "مستشفى الدكتور جمال"}}, {"type": "node", "id": 4935224821, "lat": 34.1884483, "lon": 43.8996781, "tags": {"name": "سوق المريدي", "name:ar": "سوق مريدي الشعبي", "shop": "supermarket"}}, {"type": "node", "id": 6491266985, "lat": 34.1889402, "lon": 43.9041315, "tags": {"addr:street": "شارع الشهداء & الجبيرية", "amenity": "fast_food", "cuisine": "arab;american", "name": "مأكولات فستقة", "name:en": "fast food fastqa", "opening_hours": "Mo-Su 09:00-23:00"}}, {"type": "node", "id": 3590319767, "lat": 34.1992998, "lon": 43.9020014, "tags": {"amenity": "fuel", "name": "بانزينخانة ئالسەلمان", "name:ar": "محطة السلمان", "name:en": "Alsalman", "name:ku": "بانزينخانة ئالسەلمان"}}, {"type": "node", "id": 4834711422, "lat": 34.1978271, "lon": 43.896837, "tags": {"addr:street": "سامراء شارع الشرطة", "name": "الصقرللعقار", "name:ar": "الصقرللعقار", "name:en": "Alsaqer", "opening_hours": "Sa-Th 17:00-21:00", "phone": "07702671838", "shop": "convenience"}}, {"type": "node", "id": 4935206936, "lat": 34.1984805, "lon": 43.9019841, "tags": {"addr:street": "شارع الشهيد مهدي العران", "amenity": "restaurant", "name": "مطعم فريندز", "name:ar": "مطعم عيون سامراء", "name:en": "fast food"}}, {"type": "node", "id": 4935206938, "lat": 34.1987705, "lon": 43.8970816, "tags": {"amenity": "pharmacy", "name": "صيدلية الدليل", "name:ar": "صيدلية الدليل", "name:en": "aldaleel pharmacy"}}, {"type": "node", "id": 4935225037, "lat": 34.1991162, "lon": 43.8971613, "tags": {"amenity": "pharmacy", "name": "صيدلية البراء", "name:ar": "صيدلية البراء", "name:en": "albaraa pharmacy"}}, {"type": "node", "id": 4935225526, "lat": 34.1999715, "lon": 43.8974259, "tags": {"amenity": "pharmacy"}}, {"type": "node", "id": 10824742705, "lat": 34.1982044, "lon": 43.9018789, "tags": {"name": "حجي فاروق جام", "name:en": "Haji farwq jam", "name:ku": "حاجی فاروق شوشە", "tourism": "artwork"}}, {"type": "node", "id": 5143461421, "lat": 34.1935745, "lon": 43.9171001, "tags": {"name": "مخيم ابطال العروبه", "name:ar": "مخيم ابطال العروبه", "tourism": "camp_site"}}, {"type": "node", "id": 4487530089, "lat": 34.2054325, "lon": 43.8032437, "tags": {"historic": "castle", "name": "قلعة شيخ مجيد", "name:ar": "قلعة شيخ مجيد", "name:en": "castel sheek majid", "name:ku": "قلعة شيخ مجيد"}}, {"type": "node", "id": 4487530289, "lat": 34.2030865, "lon": 43.8021307, "tags": {"name": "فلاح الكصاب", "name:ar": "فلاح الكصاب", "name:en": "falah kassb", "name:ku": "فلاح الكصاب", "shop": "convenience"}}, {"type": "node", "id": 5489516121, "lat": 34.2289093, "lon": 43.825513, "tags": {"name": "جزرة نصر", "tourism": "viewpoint"}}, {"type": "node", "id": 10219765917, "lat": 34.2965818, "lon": 43.7696262, "tags": {"tourism": "picnic_site"}}, {"type": "node", "id": 6183821087, "lat": 34.256369, "lon": 43.8169537, "tags": {"man_made": "water_well"}}, {"type": "node", "id": 5489411623, "lat": 34.2783437, "lon": 43.8290263, "tags": {"name": "جزرة ام الفحم", "tourism": "viewpoint"}}, {"type": "node", "id": 5489516721, "lat": 34.2953293, "lon": 43.817186, "tags": {"name": "جزرة امسيرة", "tourism": "viewpoint"}}, {"type": "node", "id": 5489517021, "lat": 34.3023474, "lon": 43.8161942, "tags": {"name": "جزرة البو هلال السالم", "tourism": "viewpoint"}}, {"type": "node", "id": 9967918817, "lat": 34.3270887, "lon": 43.7753282, "tags": {"addr:housenumber": "0782332128", "name": "اسواق بغداد رافت", "shop": "supermarket"}}, {"type": "node", "id": 9967918818, "lat": 34.3270968, "lon": 43.7753631, "tags": {"addr:housenumber": "07713241093", "name": "اسواق سموم رافت", "shop": "supermarket"}}, {"type": "node", "id": 7117868385, "lat": 34.3439511, "lon": 43.7588022, "tags": {"amenity": "fuel", "name": "محطة وقود العراق المشيدة"}}, {"type": "node", "id": 9967918717, "lat": 34.3437989, "lon": 43.7726409, "tags": {"name": "اسواق تبارك الرحمن .رافت", "shop": "supermarket"}}, {"type": "node", "id": 9967918917, "lat": 34.350306, "lon": 43.7682976, "tags": {"addr:housenumber": "07704058664", "name": "اسواق الرحمن.رافت", "shop": "supermarket"}}, {"type": "node", "id": 9121576218, "lat": 34.3086824, "lon": 43.7816389, "tags": {"amenity": "fuel", "name": "تعبئة وادي الرافدين"}}, {"type": "node", "id": 5489498124, "lat": 34.3142419, "lon": 43.8136052, "tags": {"name": "جزرة ام الرمل", "tourism": "viewpoint"}}, {"type": "node", "id": 11463821069, "lat": 34.3332883, "lon": 43.778995, "tags": {"name": "أسواق حميد الرشيد.مكيشيفه", "shop": "supermarket"}}, {"type": "node", "id": 11463821169, "lat": 34.3340514, "lon": 43.7784606, "tags": {"name": "أسواق بشار.مكيشيفه", "shop": "supermarket"}}, {"type": "node", "id": 8180776517, "lat": 34.3648018, "lon": 43.7415448, "tags": {"addr:housenumber": "27i", "addr:postcode": "0000", "addr:street": "شارع ياسر المصلاوي", "email": "yasser82.ys@gmail.com", "name": "ياسر شهاب المصلاوي", "opening_hours": "Mo-Su 09:00-10:00, 18:00-18:00", "tourism": "attraction"}}, {"type": "node", "id": 8804799817, "lat": 34.3652915, "lon": 43.7437947, "tags": {"man_made": "water_well"}}, {"type": "node", "id": 11100031805, "lat": 34.3648742, "lon": 43.7408192, "tags": {"addr:housenumber": "49", "email": "yasser82.ys@gmail.com", "name": "ياسر شهاب احمد", "opening_hours": "24/7", "phone": "07723175368", "tourism": "guest_house"}}, {"type": "node", "id": 11159156706, "lat": 34.366441, "lon": 43.7451815, "tags": {"name": "أسواق فلاح.مكيشيفه", "shop": "supermarket"}}, {"type": "node", "id": 11463820869, "lat": 34.3668177, "lon": 43.7449503, "tags": {"name": "أسواق الخيرات.مكيشيفه", "shop": "supermarket"}}, {"type": "node", "id": 11503899369, "lat": 34.3663107, "lon": 43.7451679, "tags": {"amenity": "fast_food"}}, {"type": "node", "id": 11693443970, "lat": 34.3653788, "lon": 43.7418633, "tags": {"addr:housenumber": "77", "addr:street": "طريق الموصل - بغداد", "name": "ياسر شهاب احمد", "tourism": "attraction"}}, {"type": "node", "id": 11693448669, "lat": 34.3654014, "lon": 43.7419034, "tags": {"addr:housenumber": "77", "addr:street": "طريق الموصل - بغداد", "email": "yasser82.ys@gmail.com", "name": "عربيه", "opening_hours": "24/7", "phone": "07723175360", "tourism": "attraction", "website": "http://yasser82.ys@gmail .com"}}, {"type": "node", "id": 11939827969, "lat": 34.3653148, "lon": 43.7419548, "tags": {"addr:housenumber": "25", "internet_access": "wlan", "opening_hours": "24/7", "phone": "07723175360", "tourism": "guest_house"}}, {"type": "node", "id": 11964628469, "lat": 34.3655533, "lon": 43.7413796, "tags": {"opening_hours": "24/7", "tourism": "attraction"}}, {"type": "node", "id": 11093511805, "lat": 34.3675089, "lon": 43.7497031, "tags": {"name": "أسواق ستار. مكيشيفة", "shop": "supermarket"}}, {"type": "node", "id": 11548869771, "lat": 34.3666082, "lon": 43.7459139, "tags": {"name:en": "مكيشيفة.    ازدحام اكشاك", "tourism": "attraction"}}, {"type": "node", "id": 11093512205, "lat": 34.3714652, "lon": 43.7611386, "tags": {"name": "أسواق سنتر الخضراء.مكيشيفة", "shop": "supermarket"}}, {"type": "node", "id": 11159155612, "lat": 34.3773074, "lon": 43.7620346, "tags": {"name": "أسواق غزوان.مكيشيفه", "shop": "supermarket"}}, {"type": "node", "id": 11463821070, "lat": 34.3890704, "lon": 43.739786, "tags": {"name": "أسواق الفرحان وأولاده.مكيشيفه شارع العام", "shop": "supermarket"}}, {"type": "node", "id": 11093511806, "lat": 34.3850933, "lon": 43.7575283, "tags": {"name": "أسواق عبد المطلب.مكيشيفة", "shop": "supermarket"}}, {"type": "node", "id": 11093511905, "lat": 34.4025903, "lon": 43.7572105, "tags": {"name": "أسواق لؤي.مكيشيفة", "shop": "supermarket"}}, {"type": "node", "id": 11159155613, "lat": 34.409267, "lon": 43.7552555, "tags": {"name": "أسواق ابو براهيم.مكيشيفه", "shop": "supermarket"}}, {"type": "node", "id": 5143461422, "lat": 34.409658, "lon": 43.7589139, "tags": {"man_made": "water_well"}}, {"type": "node", "id": 5381388223, "lat": 34.4082828, "lon": 43.7898144, "tags": {"name": "السوق الثاني", "shop": "supermarket"}}, {"type": "node", "id": 5381388722, "lat": 34.4048111, "lon": 43.7848531, "tags": {"name": "السوق الرابع", "shop": "supermarket"}}, {"type": "node", "id": 5381389022, "lat": 34.4053721, "lon": 43.7909499, "tags": {"name": "سوق الجامع", "shop": "supermarket"}}, {"type": "node", "id": 5381389023, "lat": 34.4093154, "lon": 43.7864371, "tags": {"name": "السوق الثالث", "shop": "supermarket"}}, {"type": "node", "id": 5381389421, "lat": 34.4039, "lon": 43.7880081, "tags": {"name": "السوق الخامس", "shop": "supermarket"}}, {"type": "node", "id": 11035261206, "lat": 34.4053944, "lon": 43.7907261, "tags": {"name": "اسواق المنير سوق الجامع", "shop": "supermarket"}}, {"type": "node", "id": 11036829905, "lat": 34.4062697, "lon": 43.7874415, "tags": {"name": "اسواق ابو مصطفى سوق الثالث", "shop": "supermarket"}}, {"type": "node", "id": 11036836106, "lat": 34.4071618, "lon": 43.7876569, "tags": {"name": "اسواق عبيده خابور", "shop": "supermarket"}}, {"type": "node", "id": 4620782489, "lat": 34.3997774, "lon": 43.7937676, "tags": {"amenity": "fuel", "name": "محطة الانوار", "name:ar": "محطة الانوار", "name:en": "Gas station", "name:ku": "بانزين خانه"}}, {"type": "node", "id": 5381389024, "lat": 34.4025665, "lon": 43.7922083, "tags": {"name": "السوق السادس", "shop": "supermarket"}}, {"type": "node", "id": 11036830006, "lat": 34.4021657, "lon": 43.7920948, "tags": {"name": "اسواق التساهل. سوق السادس", "shop": "supermarket"}}, {"type": "node", "id": 5381389021, "lat": 34.4045981, "lon": 43.794664, "tags": {"name": "حديقة العاب اطفال", "name:en": "kids park", "tourism": "viewpoint"}}, {"type": "node", "id": 5381389025, "lat": 34.4074818, "lon": 43.7937698, "tags": {"name": "السوق الاول", "shop": "supermarket"}}, {"type": "node", "id": 11035261005, "lat": 34.4075087, "lon": 43.7936854, "tags": {"name": "مترو ماركت", "phone": "07716070010", "shop": "supermarket"}}, {"type": "node", "id": 11035261105, "lat": 34.4073042, "lon": 43.7935631, "tags": {"name": "اسواق ابو ايه", "phone": "07703761866", "shop": "supermarket"}}, {"type": "node", "id": 11035261106, "lat": 34.4073128, "lon": 43.793629, "tags": {"name": "اسواق هلا ماركت", "phone": "07712166941", "shop": "supermarket"}}, {"type": "node", "id": 11035261205, "lat": 34.4047886, "lon": 43.7919866, "tags": {"name": "اسواق سبلاش", "phone": "07805303853", "shop": "supermarket"}}, {"type": "node", "id": 11035261207, "lat": 34.4050437, "lon": 43.7913102, "tags": {"name": "اسواق زيد سوق الجامع", "shop": "supermarket"}}, {"type": "node", "id": 4610441989, "lat": 34.2040348, "lon": 43.8675457, "tags": {"amenity": "hospital", "internet_access": "wlan", "name": "مستشفى البتول الميداني -دائرة صحة النجف الاشرف", "name:ar": "مستشفى البتول الميداني -دائرة صحة النجف الاشرف", "name:en": "Al Batool Battle Field Hospital"}}, {"type": "node", "id": 4658431689, "lat": 34.2000013, "lon": 43.8661285, "tags": {"amenity": "hospital", "name": "مستشفى الشهيد محمد الماجد", "name:ar": "مستشفى الشهيد محمد الماجد", "name:en": "Mohammad almajid hospital"}}, {"type": "node", "id": 8922032782, "lat": 34.2001475, "lon": 43.8665307, "tags": {"amenity": "hospital", "name:en": "SAMARRA HOSPITAL SAMARRAH"}}, {"type": "node", "id": 4683208898, "lat": 34.2039966, "lon": 43.8756245, "tags": {"addr:street": "Tikrit-Samarra road", "amenity": "hospital", "name": "Al-hadi hospital", "name:ar": "مستشفى الهادي", "name:en": "Alhadi private hospital", "name:ku": "Al-hadi hospital"}}, {"type": "node", "id": 6102884285, "lat": 34.2030051, "lon": 43.8761193, "tags": {"amenity": "pharmacy", "name": "صيدلية البلسم"}}, {"type": "node", "id": 5490248226, "lat": 34.2492612, "lon": 43.8328314, "tags": {"name": "جزرة خليف", "tourism": "viewpoint"}}, {"type": "node", "id": 3969512455, "lat": 34.2296307, "lon": 43.8744417, "tags": {"castle_type": "palace", "historic": "castle", "name": "Dar al-Khilafa", "name:en": "Caliph's palace (Dar al-Khilafa)", "tourism": "yes"}}, {"type": "node", "id": 10725304106, "lat": 34.2310971, "lon": 43.8732114, "tags": {"name:en": "The virgin palace", "tourism": "attraction"}}, {"type": "node", "id": 8274244260, "lat": 34.2343084, "lon": 43.8740194, "tags": {"castle_type": "stately", "historic": "castle", "name:en": "al-Jawsaq al-Khaqani"}}, {"type": "node", "id": 4935225057, "lat": 34.2022295, "lon": 43.8879916, "tags": {"amenity": "hospital", "healthcare": "hospital", "name": "المستشفى الالماني", "name:ar": "المستشفى الالماني", "name:en": "German Hospital"}}, {"type": "node", "id": 3588037873, "lat": 34.2026149, "lon": 43.8909897, "tags": {"amenity": "fuel"}}, {"type": "node", "id": 3589012032, "lat": 34.2001125, "lon": 43.8905307, "tags": {"amenity": "fuel", "name": "الگراج", "name:en": "Garage oil station"}}, {"type": "node", "id": 4935225035, "lat": 34.2009717, "lon": 43.8957164, "tags": {"amenity": "fast_food", "name": "مطعم بالميرا", "name:ar": "مطعم بالميرا"}}, {"type": "node", "id": 4935225036, "lat": 34.2011602, "lon": 43.8954391, "tags": {"addr:street": "سامراء شارع العرموشيه", "amenity": "pharmacy", "name": "صيدلية عثمان", "name:ar": "صيدلية الشام", "name:en": "Al Sham Pharmacy", "name:ku": "Al Sham Pharmacy", "opening_hours": "24/7", "operator": "صيدلاني اكرم", "phone": "07731982282"}}, {"type": "node", "id": 4935225059, "lat": 34.2053284, "lon": 43.8955188, "tags": {"amenity": "cafe", "name": "كوفي النخيل", "name:ar": "كوفي النخيل", "name:en": "alnakhel cafe"}}, {"type": "node", "id": 4935225062, "lat": 34.2036597, "lon": 43.8923624, "tags": {"name": "متنزه سامراء 2", "name:ar": "متنزه سامراء 2", "name:en": "samarra park 2", "tourism": "attraction"}}, {"type": "node", "id": 7080485186, "lat": 34.2066092, "lon": 43.88808, "tags": {"addr:housenumber": "07701090209", "addr:postcode": "00964", "addr:street": "شارع حي المعمل", "amenity": "pharmacy", "name": "مكتب البذور الذهبيه", "name:ar": "مكتب البذور الذهبية", "name:en": "Golden Seed Office", "opening_hours": "Mo-Su 09:00-18:00", "phone": "7701090209"}}, {"type": "node", "id": 4935206928, "lat": 34.2023507, "lon": 43.8979058, "tags": {"amenity": "restaurant", "cuisine": "sandwich;diner;burger;pizza;chicken;fish;tea;breakfast;barbecue;friture", "name": "مطعم العلوي", "name:ar": "مطعم العلوي", "name:en": "alawi restaurant", "opening_hours": "Mo-Su 08:00-00:00"}}, {"type": "node", "id": 4935225023, "lat": 34.2041128, "lon": 43.9000013, "tags": {"name": "سامراء مول", "name:ar": "سامراء مول", "name:en": "samarra mall", "shop": "convenience"}}, {"type": "node", "id": 4935225041, "lat": 34.2015539, "lon": 43.8977341, "tags": {"amenity": "pharmacy", "name": "صيدلية غزوان", "name:ar": "صيدلية غزوان", "name:en": "Gazwan school"}}, {"type": "node", "id": 4935225327, "lat": 34.2008555, "lon": 43.8961828, "tags": {"amenity": "pharmacy", "name": "الصيدلية المركزية", "name:ar": "الصيدلية المركزية"}}, {"type": "node", "id": 4935225527, "lat": 34.2001746, "lon": 43.8962092, "tags": {"amenity": "pharmacy", "name": "صيدلية الطب المركزي", "name:ar": "صيدلية الطب المركزي"}}, {"type": "node", "id": 6778880791, "lat": 34.2047991, "lon": 43.896438, "tags": {"name": "گاردينيا", "name:en": "Gardinia supermarket", "shop": "supermarket"}}, {"type": "node", "id": 6894106185, "lat": 34.204392, "lon": 43.8988239, "tags": {"addr:street": "سامراء شارع العرموشيه", "name": "ابن الحسني للعسل الطبيعي", "name:ar": "أبن الحسني للعسل الطبيعي", "phone": "+964774078545", "shop": "convenience", "website": "https://honeyalhusniu.business.site/"}}, {"type": "node", "id": 7492240586, "lat": 34.2023078, "lon": 43.8976879, "tags": {"addr:street": "سامراء شارع العرموشيه", "amenity": "cafe", "name": "رويال كافيه", "opening_hours": "Mo-Su 11:00-12:00"}}, {"type": "node", "id": 11737098469, "lat": 34.2001685, "lon": 43.8963553, "tags": {"addr:housenumber": "1", "addr:postcode": "00964", "amenity": "pharmacy", "email": "mosh.1995@gmail.com", "name": "صيدلية محمد عبد", "name:en": "Mohammad Abid Pharmacy", "opening_hours": "Fr-We 15:00-22:30; Th 00:00-24:00", "phone": "009647819952012"}}, {"type": "node", "id": 6182248693, "lat": 34.2073605, "lon": 43.8992395, "tags": {"amenity": "cafe", "name": "كوفي حمدي", "name:en": "coffee hamde", "opening_hours": "Mo-Su 09:00-00:00", "phone": "07709979511", "website": "https://www.youtube.com/channel/UCxC2bXhcMtK8Av2ElxVXZ-g"}}, {"type": "node", "id": 4516825689, "lat": 34.2207231, "lon": 43.8831391, "tags": {"tourism": "artwork"}}, {"type": "node", "id": 4935225064, "lat": 34.2206552, "lon": 43.8830925, "tags": {"name": "سيطرة الدور", "name:ar": "سيطرة الدور", "tourism": "viewpoint"}}, {"type": "node", "id": 10009161599, "lat": 34.2540767, "lon": 43.8783658, "tags": {"amenity": "fuel"}}, {"type": "node", "id": 10725623205, "lat": 34.2892577, "lon": 43.846195, "tags": {"name:en": "Ruined castle", "tourism": "attraction"}}, {"type": "node", "id": 4516825789, "lat": 34.2532511, "lon": 43.9227192, "tags": {"tourism": "artwork"}}, {"type": "node", "id": 2480260250, "lat": 34.216667, "lon": 43.966667, "tags": {"alt_name": "ملبة", "int_name": "Malbah, Malbah", "name": "ملبة", "name:ar": "ملبة", "name:ar1": "ملبة", "name:de": "Malbah", "name:en": "Malbah", "name:fr": "Malbah", "natural": "spring"}}, {"type": "node", "id": 4715718093, "lat": 34.299334, "lon": 43.9826218, "tags": {"name": "ماتر", "name:ar": "ماتر", "tourism": "artwork"}}, {"type": "node", "id": 12389548301, "lat": 34.4738439, "lon": 43.719873, "tags": {"name": "مخازن صلاح الدين", "tourism": "attraction"}}, {"type": "node", "id": 12389917901, "lat": 34.47464, "lon": 43.7196605, "tags": {"name": "مخازن كهرباء صلاح الدين/منطقة عوينات", "tourism": "attraction"}}, {"type": "node", "id": 11093511807, "lat": 34.4216713, "lon": 43.750693, "tags": {"name": "أسواق ماجد ومجيد.الزلاية", "shop": "supermarket"}}, {"type": "node", "id": 11097066605, "lat": 34.4167199, "lon": 43.7511859, "tags": {"name": "أسواق عزالدين.الزلاية", "shop": "supermarket"}}, {"type": "node", "id": 9967918718, "lat": 34.4353329, "lon": 43.7399632, "tags": {"addr:housenumber": "07806238233", "name": "اسواق سيد صفاء", "shop": "supermarket"}}, {"type": "node", "id": 11093511906, "lat": 34.4229867, "lon": 43.7518805, "tags": {"name": "أسواق ابوايمن.الزلاية", "shop": "supermarket"}}, {"type": "node", "id": 11145671206, "lat": 34.436834, "lon": 43.7311638, "tags": {"name": "اسواق ابو ايمن زلايه", "shop": "supermarket"}}, {"type": "node", "id": 5233358221, "lat": 34.4519789, "lon": 43.726415, "tags": {"name": "مكيشيفة", "name:en": "Mekisgifa", "tourism": "caravan_site"}}, {"type": "node", "id": 11097058006, "lat": 34.4492005, "lon": 43.7490224, "tags": {"name": "أسواق سلام.البودور", "shop": "supermarket"}}, {"type": "node", "id": 11036830005, "lat": 34.4100916, "lon": 43.78664, "tags": {"name": "اسواق ابومحمود", "shop": "supermarket"}}, {"type": "node", "id": 4269562185, "lat": 34.4461557, "lon": 43.787119, "tags": {"name": "اسواق نزار", "name:ar": "اسواق نزار", "name:en": "Nazar Market", "shop": "supermarket"}}, {"type": "node", "id": 10296834609, "lat": 34.4471179, "lon": 43.786754, "tags": {"name": "اسواق النعمان الغذائية (جملة)", "name:en": "-", "name:ku": "-", "shop": "supermarket"}}, {"type": "node", "id": 11029575005, "lat": 34.4470021, "lon": 43.7867208, "tags": {"name": "اسواق حيدر نعمان", "shop": "supermarket"}}, {"type": "node", "id": 11029595505, "lat": 34.4466148, "lon": 43.7890726, "tags": {"name": "اسواق البركة", "phone": "07712157772", "shop": "supermarket"}}, {"type": "node", "id": 11159155608, "lat": 34.446679, "lon": 43.7889322, "tags": {"name": "أسواق البركة.الدور خلف مدرسة الشرقية", "shop": "supermarket"}}, {"type": "node", "id": 11157760437, "lat": 34.4468479, "lon": 43.796205, "tags": {"addr:city": "الدور", "addr:street": "طريق تكريت - سامراء", "amenity": "hospital", "healthcare": "hospital", "name": "المركز الصحي الرئيسي", "name:en": "Main health center", "source": "hospital;local knowledge"}}, {"type": "node", "id": 11029637305, "lat": 34.44655, "lon": 43.800324, "tags": {"name": "اسواق التقوى", "phone": "07755081607", "shop": "supermarket"}}, {"type": "node", "id": 11029637405, "lat": 34.4462722, "lon": 43.7998222, "tags": {"name": "اسواق الهاشمي. تل البنات", "shop": "supermarket"}}, {"type": "node", "id": 11159156206, "lat": 34.4462301, "lon": 43.7999872, "tags": {"name": "أسواق الهاشمي.الدور تل بنات", "shop": "supermarket"}}, {"type": "node", "id": 11234018640, "lat": 34.4464867, "lon": 43.8003394, "tags": {"name": "أسواق التقوى.الدور تل البنات", "shop": "supermarket"}}, {"type": "node", "id": 11029556205, "lat": 34.4510243, "lon": 43.7877197, "tags": {"name": "اسواق ابو انس. شويخات", "shop": "supermarket"}}, {"type": "node", "id": 11030138805, "lat": 34.4525483, "lon": 43.7892605, "tags": {"name": "اسواق علي فاظل", "shop": "supermarket"}}, {"type": "node", "id": 11159155708, "lat": 34.4541383, "lon": 43.790322, "tags": {"name": "أسواق عباس.الدور", "shop": "supermarket"}}, {"type": "node", "id": 11159155709, "lat": 34.4515387, "lon": 43.789507, "tags": {"name": "أسواق علي فاضل.الدور", "shop": "supermarket"}}, {"type": "node", "id": 11159155710, "lat": 34.4511584, "lon": 43.7874813, "tags": {"name": "أسواق ابو أنس.الدور", "shop": "supermarket"}}, {"type": "node", "id": 11159155711, "lat": 34.4507838, "lon": 43.7876076, "tags": {"name": "أسواق الفارس.الدور", "shop": "supermarket"}}, {"type": "node", "id": 11234018737, "lat": 34.452904, "lon": 43.7911493, "tags": {"name": "أسواق أحمد فاضل.الدور", "shop": "supermarket"}}, {"type": "node", "id": 11234018738, "lat": 34.4509697, "lon": 43.7875974, "tags": {"name": "أسواق أبو انس.الشويخات", "shop": "supermarket"}}, {"type": "node", "id": 4108936689, "lat": 34.4578412, "lon": 43.7849617, "tags": {"name": "ضريح محمد الدري", "tourism": "artwork"}}, {"type": "node", "id": 5107602222, "lat": 34.4544178, "lon": 43.7936399, "tags": {"amenity": "fuel", "name": "محطة الدور", "name:ar": "محطة تعبئة وقود الدور", "name:en": "Ad Dawr Gas Station"}}, {"type": "node", "id": 6872651885, "lat": 34.4551906, "lon": 43.7928235, "tags": {"internet_access": "wlan", "name": "سوبر ماركت اولاد الحاج محسن", "opening_hours": "Mo-Su 06:00-00:00", "shop": "supermarket"}}, {"type": "node", "id": 11030135805, "lat": 34.4529003, "lon": 43.7912859, "tags": {"name": "اسواق احمد فاظل", "shop": "supermarket"}}, {"type": "node", "id": 11030136305, "lat": 34.4532592, "lon": 43.7912164, "tags": {"name": "اسواق فرقد جمله", "shop": "supermarket"}}, {"type": "node", "id": 11234018539, "lat": 34.455018, "lon": 43.7988442, "tags": {"name": "أسواق الخيرات.الدور شارع النائب", "shop": "supermarket"}}, {"type": "node", "id": 11029534507, "lat": 34.4594457, "lon": 43.7925749, "tags": {"name": "اسواق كنعان", "shop": "supermarket"}}, {"type": "node", "id": 11029534508, "lat": 34.4577276, "lon": 43.7925797, "tags": {"name": "اسواق المصطفى", "shop": "supermarket"}}, {"type": "node", "id": 11029548305, "lat": 34.4604112, "lon": 43.7924635, "tags": {"name": "اسواق سيد ايوب", "shop": "supermarket"}}, {"type": "node", "id": 11029548306, "lat": 34.4573391, "lon": 43.7936309, "tags": {"name": "اسواق المصطفى", "shop": "supermarket"}}, {"type": "node", "id": 11029548405, "lat": 34.4588133, "lon": 43.7925633, "tags": {"name": "اسواق الكرم", "shop": "supermarket"}}, {"type": "node", "id": 11029548406, "lat": 34.4561067, "lon": 43.7929765, "tags": {"name": "اسواق الحجي", "shop": "supermarket"}}, {"type": "node", "id": 11234018637, "lat": 34.4604623, "lon": 43.7927451, "tags": {"name": "أسواق سيد أيوب.الدور", "shop": "supermarket"}}, {"type": "node", "id": 11234018638, "lat": 34.4578564, "lon": 43.7926838, "tags": {"name": "أسواق المصطفى.الدور قرب الفلكه", "shop": "supermarket"}}, {"type": "node", "id": 11234018639, "lat": 34.4587757, "lon": 43.7926127, "tags": {"name": "أسواق الكرم.الدور", "shop": "supermarket"}}, {"type": "node", "id": 11159155907, "lat": 34.4576319, "lon": 43.7986011, "tags": {"name": "اسواق حاج قدوري.الدور", "shop": "supermarket"}}, {"type": "node", "id": 11159156205, "lat": 34.4594912, "lon": 43.7987439, "tags": {"name": "أسواق الحلواني.الدور", "shop": "supermarket"}}, {"type": "node", "id": 11234018538, "lat": 34.4578822, "lon": 43.7987003, "tags": {"name": "أسواق الناعوري.الدور", "shop": "supermarket"}}, {"type": "node", "id": 11234018837, "lat": 34.4592622, "lon": 43.7987348, "tags": {"name": "أسواق الحسنين.الدور", "shop": "supermarket"}}, {"type": "node", "id": 11097066606, "lat": 34.473277, "lon": 43.7302123, "tags": {"name": "أسواق أمجيد.عوينات", "shop": "supermarket"}}, {"type": "node", "id": 11097067405, "lat": 34.473258, "lon": 43.7315217, "tags": {"name": "أسواق العايد.عوينات", "shop": "supermarket"}}, {"type": "node", "id": 11463821269, "lat": 34.4737733, "lon": 43.72753, "tags": {"name": "أسواق ابوأنمار.العوينات", "shop": "supermarket"}}, {"type": "node", "id": 11097058007, "lat": 34.4727512, "lon": 43.7369097, "tags": {"name": "أسواق النور.عوينات", "shop": "supermarket"}}, {"type": "node", "id": 11097066607, "lat": 34.4750333, "lon": 43.7331633, "tags": {"name": "أسواق ميار.عوينات", "shop": "supermarket"}}, {"type": "node", "id": 11097067005, "lat": 34.4727267, "lon": 43.73551, "tags": {"name": "أسواق الفهد.عوينات", "shop": "supermarket"}}, {"type": "node", "id": 11097067207, "lat": 34.4746736, "lon": 43.7356451, "tags": {"name": "أسواق عبدالله الفهد.عوينات", "shop": "supermarket"}}, {"type": "node", "id": 11159156707, "lat": 34.4749866, "lon": 43.7384317, "tags": {"name": "أسواق الرحمن.العوينات", "shop": "supermarket"}}, {"type": "node", "id": 11097058008, "lat": 34.4753358, "lon": 43.7307247, "tags": {"name": "أسواق حسن.عوينات", "shop": "supermarket"}}, {"type": "node", "id": 11097067205, "lat": 34.475485, "lon": 43.7299328, "tags": {"name": "أسواق ماركت النعمان.عوينات", "shop": "supermarket"}}, {"type": "node", "id": 11097067206, "lat": 34.475991, "lon": 43.7282254, "tags": {"name": "أسواق العزاوي.عوينات", "shop": "supermarket"}}, {"type": "node", "id": 11159155913, "lat": 34.4783749, "lon": 43.7288169, "tags": {"name": "أسواق أثير.العوينات", "shop": "supermarket"}}, {"type": "node", "id": 11097058009, "lat": 34.475432, "lon": 43.7379338, "tags": {"name": "أسواق مزهر التركي.عوينات", "shop": "supermarket"}}, {"type": "node", "id": 6346768086, "lat": 34.462242, "lon": 43.7863348, "tags": {"amenity": "drinking_water", "name": "مشروع ماء الدور الوسطي"}}, {"type": "node", "id": 4108925292, "lat": 34.4704994, "lon": 43.7798854, "tags": {"name": "المعبر", "tourism": "attraction"}}, {"type": "node", "id": 8824545517, "lat": 34.4704686, "lon": 43.7797314, "tags": {"addr:street": "شارع المعبر", "name": "المعبر", "tourism": "attraction"}}, {"type": "node", "id": 11234018641, "lat": 34.4727508, "lon": 43.7884636, "tags": {"name": "أسواق سيف السعد.الدور حي القادسيه", "shop": "supermarket"}}, {"type": "node", "id": 8109983222, "lat": 34.4742975, "lon": 43.7925944, "tags": {"tourism": "picnic_site"}}, {"type": "node", "id": 4609521697, "lat": 34.5344564, "lon": 43.6954504, "tags": {"addr:city": "Tikrit", "addr:postcode": "34001", "addr:street": "Al Awja", "amenity": "hospital", "emergency": "yes", "healthcare:speciality": "general", "internet_access": "wlan", "name": "مستشفى دجلة", "name:ar": "مستشفى دجلة", "name:en": "AL-JAZIRA HOSPITAL", "operator": "Iraqi Health Ministery", "operator:type": "public"}}, {"type": "node", "id": 8922032778, "lat": 34.5265133, "lon": 43.7050778, "tags": {"amenity": "hospital", "name:en": "TIKRIT HOSPITAL CHILDRENS MEDICAL CLINIC"}}, {"type": "node", "id": 9891023250, "lat": 34.5302703, "lon": 43.7045842, "tags": {"historic": "memorial", "memorial": "grave", "name": "قبر برزان إبراهيم الحسن", "subject:wikidata": "Q342263", "subject:wikipedia": "ar:برزان إبراهيم التكريتي"}}, {"type": "node", "id": 9891023251, "lat": 34.5302587, "lon": 43.7045585, "tags": {"historic": "memorial", "memorial": "grave", "name": "قبر عواد حمد البندر", "subject:wikidata": "Q461434", "subject:wikipedia": "ar:عواد البندر"}}, {"type": "node", "id": 9891023252, "lat": 34.5302696, "lon": 43.7044971, "tags": {"historic": "memorial", "memorial": "grave", "name": "قبر علي حسن المجيد", "subject:wikidata": "Q214955", "subject:wikipedia": "ar:علي حسن المجيد"}}, {"type": "node", "id": 9891023253, "lat": 34.5302813, "lon": 43.7045232, "tags": {"historic": "memorial", "memorial": "grave", "name": "قبر مصطفى قصي صدام حسين", "subject:wikidata": "Q260361", "subject:wikipedia": "ar:مصطفى قصي صدام حسين"}}, {"type": "node", "id": 9891023254, "lat": 34.5303049, "lon": 43.704576, "tags": {"historic": "memorial", "memorial": "grave", "name": "قبر عدي صدام حسين", "subject:wikidata": "Q311916", "subject:wikipedia": "ar:عدي صدام حسين"}}, {"type": "node", "id": 9891023324, "lat": 34.5302937, "lon": 43.704551, "tags": {"historic": "memorial", "memorial": "grave", "name": "قبر قصي صدام حسين", "subject:wikidata": "Q336347", "subject:wikipedia": "ar:قصي صدام حسين"}}, {"type": "node", "id": 10743847871, "lat": 34.5302466, "lon": 43.7045313, "tags": {"historic": "memorial", "memorial": "grave", "name": "قبر طه ياسين رمضان", "subject:wikidata": "Q359319", "subject:wikipedia": "ar:طه ياسين رمضان"}}, {"type": "node", "id": 10122891117, "lat": 34.544644, "lon": 43.7017258, "tags": {"name": "مجمع سكني", "tourism": "hostel"}}, {"type": "node", "id": 10539284723, "lat": 34.5666564, "lon": 43.6999861, "tags": {"man_made": "monitoring_station", "monitoring:weather": "yes", "name:en": "TIKRIT", "operator": "Iraqi Meteorological Organization and Seismology", "ref:wigos": "0-20000-0-40633", "source": "World Meteorological Organization", "start_date": "1985-01-01", "weather:anemometer": "yes", "weather:barometer": "yes", "weather:humidity_sensor": "yes", "weather:lightning_detector": "yes", "weather:precipitation_indicator": "yes", "weather:pyranometer": "yes", "weather:rain_gauge": "yes", "weather:soil_thermometer": "yes", "weather:thermometer": "yes"}}, {"type": "node", "id": 2940979776, "lat": 34.5814722, "lon": 43.6477484, "tags": {"amenity": "fuel"}}, {"type": "node", "id": 7626275586, "lat": 34.5836406, "lon": 43.6727582, "tags": {"name": "شركة الاقاليم", "tourism": "attraction"}}, {"type": "node", "id": 12538093101, "lat": 34.5907239, "lon": 43.6644302, "tags": {"historic": "memorial"}}, {"type": "node", "id": 3878375926, "lat": 34.5879059, "lon": 43.6729431, "tags": {"name": "القاسم مول", "shop": "supermarket"}}, {"type": "node", "id": 3878375927, "lat": 34.5876931, "lon": 43.6730479, "tags": {"name": "افران الكرخ", "shop": "bakery"}}, {"type": "node", "id": 3878382644, "lat": 34.5897076, "lon": 43.6726564, "tags": {"amenity": "restaurant", "name": "لحم بعجين الزهور"}}, {"type": "node", "id": 3878382645, "lat": 34.5896475, "lon": 43.6723459, "tags": {"amenity": "cafe", "name": "مرطبات الزهور"}}, {"type": "node", "id": 3878382646, "lat": 34.5895401, "lon": 43.6723824, "tags": {"amenity": "pharmacy", "name": "صيدلية الزهور"}}, {"type": "node", "id": 3878402022, "lat": 34.5900186, "lon": 43.6721974, "tags": {"amenity": "pharmacy", "name": "صيدلية الفردوس", "name:ar": "صيدلية الفردوس", "name:en": "Al Firdous Pharmacy"}}, {"type": "node", "id": 3878402024, "lat": 34.5891599, "lon": 43.6724998, "tags": {"amenity": "pharmacy", "name": "صيدلية التعاون"}}, {"type": "node", "id": 4361253328, "lat": 34.589673, "lon": 43.6723353, "tags": {"amenity": "cafe", "name": "كافتيريا صاج الريف"}}, {"type": "node", "id": 4423761429, "lat": 34.5914448, "lon": 43.6722618, "tags": {"name": "اسواق ما شاء الله", "shop": "supermarket"}}, {"type": "node", "id": 4423761430, "lat": 34.5914099, "lon": 43.6715469, "tags": {"name": "اسواق السيد للتسوق المنزلي", "shop": "supermarket"}}, {"type": "node", "id": 4423762812, "lat": 34.5908796, "lon": 43.6720707, "tags": {"name": "سنتر مول", "shop": "supermarket"}}, {"type": "node", "id": 4501039056, "lat": 34.5913311, "lon": 43.6719746, "tags": {"name": "الامير لتجهيز صالونات الحلاقة", "shop": "supermarket"}}, {"type": "node", "id": 4501039057, "lat": 34.591786, "lon": 43.6719129, "tags": {"name": "معجنات الزهور", "shop": "bakery"}}, {"type": "node", "id": 4501042454, "lat": 34.5896804, "lon": 43.6726431, "tags": {"name": "افران الشرقية للصمون الحجري", "shop": "bakery"}}, {"type": "node", "id": 4623979141, "lat": 34.5892227, "lon": 43.672789, "tags": {"amenity": "restaurant", "name": "دلع كرشك"}}, {"type": "node", "id": 4955179270, "lat": 34.5884225, "lon": 43.6727165, "tags": {"name": "اسواق المتوكل", "shop": "supermarket"}}, {"type": "node", "id": 5106348621, "lat": 34.5908672, "lon": 43.6723953, "tags": {"amenity": "fast_food", "name": "عربة عمار الشاطي"}}, {"type": "node", "id": 6221130285, "lat": 34.5906377, "lon": 43.6720958, "tags": {"amenity": "atm", "operator": "منفذ وصيرفة زهور الهدى"}}, {"type": "node", "id": 6274642369, "lat": 34.5900261, "lon": 43.672607, "tags": {"amenity": "pharmacy", "dispensing": "yes", "healthcare": "pharmacy", "name": "صيدلية ألماس"}}, {"type": "node", "id": 6446789828, "lat": 34.5917262, "lon": 43.6722348, "tags": {"addr:street": "شارع الزهور", "amenity": "restaurant", "name": "مأكولات ومشويات بيت الصاج"}}, {"type": "node", "id": 11476071469, "lat": 34.5890527, "lon": 43.672663, "tags": {"amenity": "fast_food", "name:en": "مأكولات البطريق"}}, {"type": "node", "id": 5772492253, "lat": 34.5949075, "lon": 43.6361725, "tags": {"amenity": "fuel", "name": "محطة وقود الشيش", "name:en": "Alshish gas station"}}, {"type": "node", "id": 11145655706, "lat": 34.6049876, "lon": 43.6465021, "tags": {"name": "اسواق ابو يحيى. الديوم", "shop": "supermarket"}}, {"type": "node", "id": 11145671005, "lat": 34.6061088, "lon": 43.6460937, "tags": {"name": "اسواق المصطفى. الديوم", "shop": "supermarket"}}, {"type": "node", "id": 5772469453, "lat": 34.6093616, "lon": 43.6239094, "tags": {"amenity": "fuel", "name": "محطة وقود اليعربة", "name:en": "Alyaeraba gas station"}}, {"type": "node", "id": 11145671006, "lat": 34.6104837, "lon": 43.6467624, "tags": {"name": "اسواق ام علاوب الديوم", "shop": "supermarket"}}, {"type": "node", "id": 11159156207, "lat": 34.5963642, "lon": 43.653862, "tags": {"name": "أسواق العلي .الديوم", "shop": "supermarket"}}, {"type": "node", "id": 4658954501, "lat": 34.6038817, "lon": 43.6493396, "tags": {"name": "افران الديوم", "name:ar": "افران الديوم", "shop": "bakery"}}, {"type": "node", "id": 4361184092, "lat": 34.5952421, "lon": 43.6719431, "tags": {"name": "مؤسسة الشرق للتنمية والتعليم", "name:ar": "مؤسسة الشرق للتنمية والتعليم", "tourism": "viewpoint"}}, {"type": "node", "id": 4508059922, "lat": 34.5932904, "lon": 43.6718389, "tags": {"amenity": "cafe", "name": "مرطبات جنات"}}, {"type": "node", "id": 5581429822, "lat": 34.5966099, "lon": 43.6714388, "tags": {"addr:street": "شارع الزهور", "internet_access": "wlan", "name": "اسواق الورد", "name:ar": "ليدي شيك ليث الورد", "name:en": "ليدي شيك", "shop": "supermarket"}}, {"type": "node", "id": 5581430022, "lat": 34.5965438, "lon": 43.6714834, "tags": {"internet_access": "wlan", "name": "محل ابو علي للحاجة الف", "shop": "convenience"}}, {"type": "node", "id": 5594288122, "lat": 34.5955315, "lon": 43.6706882, "tags": {"name": "اسواق عبيدة", "shop": "supermarket"}}, {"type": "node", "id": 5594288126, "lat": 34.5969378, "lon": 43.6713332, "tags": {"internet_access": "wlan", "name": "ابو علي للحاجة الف", "shop": "convenience"}}, {"type": "node", "id": 5594304621, "lat": 34.5956946, "lon": 43.6707542, "tags": {"internet_access": "wlan", "name": "افران المتوكل للصمون الكهربائي", "shop": "bakery"}}, {"type": "node", "id": 5594304624, "lat": 34.5970279, "lon": 43.6713285, "tags": {"internet_access": "wlan", "name": "اسواق الورد", "shop": "supermarket"}}, {"type": "node", "id": 5594304626, "lat": 34.5972205, "lon": 43.6710474, "tags": {"amenity": "restaurant", "cuisine": "kebab;grill", "internet_access": "wlan", "name": "كباب ومشويات ابو عمرو"}}, {"type": "node", "id": 5856650788, "lat": 34.5964806, "lon": 43.6689661, "tags": {"man_made": "water_well"}}, {"type": "node", "id": 8078962117, "lat": 34.5945927, "lon": 43.6717343, "tags": {"addr:street": "شارع الزهور", "amenity": "restaurant", "name": "لحم بعجين وبيتزا الموصل"}}, {"type": "node", "id": 8121719923, "lat": 34.5954108, "lon": 43.6717201, "tags": {"addr:street": "شارع الزهور", "amenity": "cafe", "internet_access": "wlan", "name": "كوفي شوب لوف", "name:en": "Cafe LoVE", "opening_hours": "Mo-Su 12:00-00:00", "phone": "+9647700568804"}}, {"type": "node", "id": 9873445417, "lat": 34.5973306, "lon": 43.671253, "tags": {"amenity": "atm", "name": "صيفة الفاتح"}}, {"type": "node", "id": 4690218789, "lat": 34.6034331, "lon": 43.6674351, "tags": {"historic": "memorial", "name": "ساحة الاحتفالات", "name:ar": "ساحة الاحتفالات"}}, {"type": "node", "id": 5594288132, "lat": 34.6029281, "lon": 43.6731846, "tags": {"amenity": "fast_food", "internet_access": "wlan", "name:en": "Buffalo"}}, {"type": "node", "id": 5594288135, "lat": 34.6060629, "lon": 43.6708779, "tags": {"addr:street": "شارع الاربعين", "internet_access": "wlan", "name": "فندق تـكريت بــلازا", "name:ar": "فندق تكريت بلازا", "name:en": "Tikrit plaza Hotel", "opening_hours": "24/7", "tourism": "hotel"}}, {"type": "node", "id": 5711927321, "lat": 34.6036809, "lon": 43.6717382, "tags": {"addr:street": "شارع الاربعين", "name": "Oxfam", "name:ar": "المكتب", "name:en": "office", "office": "ngo", "tourism": "attraction"}}, {"type": "node", "id": 6981555788, "lat": 34.6052921, "lon": 43.6715979, "tags": {"internet_access": "wlan", "name": "فندق بلازا", "name:en": "Blaza hotel", "tourism": "hotel"}}, {"type": "node", "id": 7228442385, "lat": 34.6037733, "lon": 43.6722091, "tags": {"addr:postcode": "34001", "addr:street": "شارع الاربعين", "amenity": "restaurant", "name": "بيتنا زمان", "name:en": "betna zaman", "phone": "009647711116337"}}, {"type": "node", "id": 7535805686, "lat": 34.6030856, "lon": 43.6729868, "tags": {"addr:street": "شارع الاربعين", "internet_access": "wlan", "name": "ماركت الاربعين", "shop": "supermarket"}}, {"type": "node", "id": 7611148585, "lat": 34.6045258, "lon": 43.6721536, "tags": {"addr:street": "شارع الاربعين", "amenity": "pharmacy", "name": "صيدلية اشبيلية"}}, {"type": "node", "id": 9372952417, "lat": 34.6001391, "lon": 43.6701644, "tags": {"amenity": "restaurant", "name": "بكان"}}, {"type": "node", "id": 11145671205, "lat": 34.6101314, "lon": 43.6523085, "tags": {"name": "اسواق السيد. الديوم قرب جامع الخير", "shop": "supermarket"}}, {"type": "node", "id": 11099000805, "lat": 34.6075118, "lon": 43.6559267, "tags": {"name": "أسواق التنين.الديوم", "shop": "supermarket"}}, {"type": "node", "id": 10156853917, "lat": 34.6118081, "lon": 43.6726015, "tags": {"name": "نغم العبيدي", "tourism": "attraction"}}, {"type": "node", "id": 4875646921, "lat": 34.6169366, "lon": 43.668401, "tags": {"amenity": "fuel", "name": "محطة وقود نور السلام الاهلية", "name:ar": "محطة وقود نور السلام الاهلية"}}, {"type": "node", "id": 4620563304, "lat": 34.5775065, "lon": 43.682886, "tags": {"amenity": "hospital", "name": "مركز ابن سينا الصحي"}}, {"type": "node", "id": 11036835806, "lat": 34.5754857, "lon": 43.681078, "tags": {"name": "اسواق هبي لاند. الانواء", "shop": "supermarket"}}, {"type": "node", "id": 11036836105, "lat": 34.5767997, "lon": 43.6824669, "tags": {"name": "اسواق سيف. قرب ابن سسنا", "shop": "supermarket"}}, {"type": "node", "id": 11097066610, "lat": 34.5749437, "lon": 43.6818355, "tags": {"name": "أسواق الملك .تكريت", "shop": "supermarket"}}, {"type": "node", "id": 6780614488, "lat": 34.5794165, "lon": 43.689746, "tags": {"shop": "supermarket"}}, {"type": "node", "id": 6780615286, "lat": 34.5793509, "lon": 43.6921794, "tags": {"shop": "supermarket"}}, {"type": "node", "id": 6780615485, "lat": 34.5796285, "lon": 43.6927793, "tags": {"amenity": "pharmacy"}}, {"type": "node", "id": 6780614491, "lat": 34.5797777, "lon": 43.6962758, "tags": {"amenity": "hospital", "name": "مستشفى الطوارئ", "name:en": "Emergency"}}, {"type": "node", "id": 6780614500, "lat": 34.5798274, "lon": 43.6956013, "tags": {"amenity": "hospital", "name": "مصرف الدم"}}, {"type": "node", "id": 6780615393, "lat": 34.5799093, "lon": 43.6930654, "tags": {"shop": "supermarket"}}, {"type": "node", "id": 5794235656, "lat": 34.5860686, "lon": 43.676699, "tags": {"addr:street": "شارع الساعة", "name": "شركة كيش للسفر والسياحة", "opening_hours": "Mo-Su 10:00-23:00", "phone": "07701991150", "tourism": "information"}}, {"type": "node", "id": 5856684686, "lat": 34.5864831, "lon": 43.6785585, "tags": {"tourism": "picnic_site"}}, {"type": "node", "id": 5856684687, "lat": 34.5865365, "lon": 43.6785655, "tags": {"tourism": "picnic_site"}}, {"type": "node", "id": 5856690185, "lat": 34.5865198, "lon": 43.6785421, "tags": {"tourism": "picnic_site"}}, {"type": "node", "id": 5856690186, "lat": 34.5865139, "lon": 43.6785063, "tags": {"tourism": "picnic_site"}}, {"type": "node", "id": 10251013571, "lat": 34.5816503, "lon": 43.6754635, "tags": {"name": "أسواق غصن الزيتون", "shop": "supermarket"}}, {"type": "node", "id": 10251071628, "lat": 34.5860301, "lon": 43.6764056, "tags": {"name": "داستي تكريت", "shop": "supermarket"}}, {"type": "node", "id": 10251076214, "lat": 34.5860184, "lon": 43.6760906, "tags": {"name": "ماركت الساعة", "shop": "supermarket"}}, {"type": "node", "id": 10251077661, "lat": 34.5802178, "lon": 43.6760996, "tags": {"name": "أسواق الريان", "shop": "supermarket"}}, {"type": "node", "id": 10251078028, "lat": 34.5801174, "lon": 43.6761464, "tags": {"name": "ماركت الاحمدين", "shop": "supermarket"}}, {"type": "node", "id": 11097058018, "lat": 34.5838575, "lon": 43.6755426, "tags": {"name": "أسواق البركة.تكريت افران القلعة", "shop": "supermarket"}}, {"type": "node", "id": 11343523073, "lat": 34.5826753, "lon": 43.6797395, "tags": {"name": "تك ماركت", "shop": "supermarket"}}, {"type": "node", "id": 9961636917, "lat": 34.5860769, "lon": 43.6808212, "tags": {"addr:street": "شارع الاربعين", "internet_access": "wlan", "name": "فندق باي روك", "name:en": "Bay Rock Hotel", "tourism": "hotel"}}, {"type": "node", "id": 10170622617, "lat": 34.5860176, "lon": 43.6810009, "tags": {"name": "فندق باي روك", "name:en": "Bay Rock Hotel", "tourism": "hotel"}}, {"type": "node", "id": 11036836305, "lat": 34.5833441, "lon": 43.6798282, "tags": {"name": "اسواق الريان. شارع التجنيد", "shop": "supermarket"}}, {"type": "node", "id": 11090890705, "lat": 34.5860999, "lon": 43.6808561, "tags": {"tourism": "hotel"}}, {"type": "node", "id": 11090891205, "lat": 34.5860483, "lon": 43.6810039, "tags": {"name": "فندق باي  روك", "name:en": "Bay Rock Hotel", "phone": "07714499888", "tourism": "hotel"}}, {"type": "node", "id": 13280864803, "lat": 34.5862383, "lon": 43.6809565, "tags": {"addr:street": "شارع الاربعين", "amenity": "restaurant", "cuisine": "beef_bowl;breakfast;burger;chicken;coffee_shop;diner;friture", "name": "مطعم وكافيه ابو عبدالله", "name:en": "abuabdullah restaurant"}}, {"type": "node", "id": 3958443507, "lat": 34.5901306, "lon": 43.6781921, "tags": {"amenity": "restaurant", "name": "العريش", "name:ar": "العريش"}}, {"type": "node", "id": 4423750227, "lat": 34.5894164, "lon": 43.6783889, "tags": {"amenity": "restaurant", "name": "ماكولات كل يوم"}}, {"type": "node", "id": 7099561286, "lat": 34.5895616, "lon": 43.675284, "tags": {"tourism": "attraction"}}, {"type": "node", "id": 11036830007, "lat": 34.5918203, "lon": 43.6772517, "tags": {"name": "اسواق مصطفى. شركة دمشق", "shop": "supermarket"}}, {"type": "node", "id": 11036830306, "lat": 34.5880808, "lon": 43.6786717, "tags": {"name": "اسواق النخله. شارع ٤٠", "shop": "supermarket"}}, {"type": "node", "id": 11036830406, "lat": 34.5915952, "lon": 43.6757578, "tags": {"name": "اسواق ابوسايا . فرع شركة دمشق", "shop": "supermarket"}}, {"type": "node", "id": 11036836005, "lat": 34.5878221, "lon": 43.6785904, "tags": {"name": "اسواق العائله. شارع٤٠", "shop": "supermarket"}}, {"type": "node", "id": 11097058017, "lat": 34.5867821, "lon": 43.6791859, "tags": {"name": "أسواق الرحمة.تكريت تقاطع ساعة", "shop": "supermarket"}}, {"type": "node", "id": 11097067410, "lat": 34.5929244, "lon": 43.6773156, "tags": {"name": "أسواق جوهرة.تكريت", "shop": "supermarket"}}, {"type": "node", "id": 11097067411, "lat": 34.5915819, "lon": 43.6759032, "tags": {"name": "أسواق ابو سايا.تكريت", "shop": "supermarket"}}, {"type": "node", "id": 11205142141, "lat": 34.5917814, "lon": 43.6773894, "tags": {"name": "أسواق مصطفى.شركه دمشق تكريت", "shop": "supermarket"}}, {"type": "node", "id": 11205142142, "lat": 34.5873729, "lon": 43.6788953, "tags": {"name": "أسواق العائله.شارع الأربعين تكريت", "shop": "supermarket"}}, {"type": "node", "id": 11205142242, "lat": 34.5905549, "lon": 43.6782958, "tags": {"name": "أسواق سكاي مول. تكريت", "shop": "supermarket"}}, {"type": "node", "id": 7980840387, "lat": 34.5870209, "lon": 43.6839319, "tags": {"name": "توزيع كهرباء صلاح الدين", "tourism": "attraction"}}, {"type": "node", "id": 9252565817, "lat": 34.5927001, "lon": 43.6820062, "tags": {"name": "مجلس المحافظة تكريت", "tourism": "attraction"}}, {"type": "node", "id": 6780615389, "lat": 34.582393, "lon": 43.6926952, "tags": {"amenity": "fast_food"}}, {"type": "node", "id": 9190483917, "lat": 34.5800847, "lon": 43.6921284, "tags": {"addr:street": "شارع كلية الطب", "amenity": "hospital", "internet_access": "wlan", "name": "عيادة السلام الجراحيه", "opening_hours": "Mo-Su 08:00-23:00"}}, {"type": "node", "id": 9998488917, "lat": 34.5835603, "lon": 43.6878723, "tags": {"addr:housenumber": "313", "addr:postcode": "964", "addr:street": "شارع الاربعين", "name": "تكريت", "name:en": "والروح", "name:ku": "العشق", "tourism": "attraction"}}, {"type": "node", "id": 11036836205, "lat": 34.5820069, "lon": 43.690505, "tags": {"name": "اسواق عبد الرحمن. ١٠٠ دار", "shop": "supermarket"}}, {"type": "node", "id": 11097058019, "lat": 34.5825152, "lon": 43.6884448, "tags": {"name": "أسواق زيتونة.تكريت دأئره التخطيط", "shop": "supermarket"}}, {"type": "node", "id": 11159155909, "lat": 34.5818293, "lon": 43.688433, "tags": {"name": "أسواق السيد.دائره تخطيط", "shop": "supermarket"}}, {"type": "node", "id": 6780614490, "lat": 34.5818346, "lon": 43.6948626, "tags": {"amenity": "fast_food"}}, {"type": "node", "id": 6780615386, "lat": 34.5822496, "lon": 43.6928628, "tags": {"shop": "bakery"}}, {"type": "node", "id": 6780615387, "lat": 34.5819715, "lon": 43.6928637, "tags": {"shop": "supermarket"}}, {"type": "node", "id": 6780615388, "lat": 34.581745, "lon": 43.6928637, "tags": {"amenity": "fast_food", "name": "نمبر ون", "name:en": "N.1 Fast food"}}, {"type": "node", "id": 6780615395, "lat": 34.5801467, "lon": 43.6962716, "tags": {"amenity": "hospital", "name": "غسل الكلى"}}, {"type": "node", "id": 8922032779, "lat": 34.5811873, "lon": 43.6964625, "tags": {"amenity": "hospital", "name:en": "TIKRIT HOSPITAL SADDAM HUSAYN"}}, {"type": "node", "id": 3954058566, "lat": 34.5949664, "lon": 43.6771844, "tags": {"addr:housenumber": "56", "addr:street": "شارع الزهور", "amenity": "hospital", "internet_access": "wlan", "name": "مستشفى التوفيق", "name:ar": "مستشفى التوفيق الاهلي", "name:en": "Al-Tawfeq hospital", "opening_hours": "Mo-Su 08:00-12:00"}}, {"type": "node", "id": 3954058567, "lat": 34.5953062, "lon": 43.677073, "tags": {"amenity": "restaurant", "name": "المطعم التركي"}}, {"type": "node", "id": 3966023975, "lat": 34.5949613, "lon": 43.6768521, "tags": {"name": "اسواق الاميرات", "shop": "supermarket"}}, {"type": "node", "id": 3966023976, "lat": 34.5951988, "lon": 43.677097, "tags": {"amenity": "cafe", "name": "مرطبات فراولة"}}, {"type": "node", "id": 4620573690, "lat": 34.5952336, "lon": 43.6767384, "tags": {"amenity": "pharmacy", "name": "صيدلية الرعاية العائلية"}}, {"type": "node", "id": 5594288124, "lat": 34.5982315, "lon": 43.6737338, "tags": {"internet_access": "wlan", "name": "طرشي ومخللات الحاج نوري", "shop": "convenience"}}, {"type": "node", "id": 5594288322, "lat": 34.5982881, "lon": 43.6735932, "tags": {"internet_access": "wlan", "name": "مخبز مــمــش", "shop": "bakery"}}, {"type": "node", "id": 5594288323, "lat": 34.5983285, "lon": 43.673465, "tags": {"internet_access": "wlan", "name": "فرن ولحم بعجين سنبوسة", "shop": "bakery"}}, {"type": "node", "id": 8860096017, "lat": 34.5967831, "lon": 43.6759925, "tags": {"addr:street": "شارع الاربعين", "name": "سوبر ماركت الأميرات", "opening_hours": "Mo-Su 09:00-11:00", "phone": "07733033777", "shop": "supermarket"}}, {"type": "node", "id": 10092296518, "lat": 34.5950629, "lon": 43.6775914, "tags": {"amenity": "pharmacy", "name": "صيدلية جوهرة الدواء"}}, {"type": "node", "id": 10092320317, "lat": 34.5955583, "lon": 43.6753594, "tags": {"addr:street": "حي الجمعية", "amenity": "pharmacy", "name": "صيدلية جوهرة الدواء"}}, {"type": "node", "id": 11036830305, "lat": 34.5973667, "lon": 43.6758095, "tags": {"name": "اسواق العاصي", "shop": "supermarket"}}, {"type": "node", "id": 11036830405, "lat": 34.5965447, "lon": 43.6761386, "tags": {"name": "اسواق العاصي تكريت", "shop": "supermarket"}}, {"type": "node", "id": 11097058015, "lat": 34.5937194, "lon": 43.6736548, "tags": {"name": "أسوق أبو عبد.تكريت", "shop": "supermarket"}}, {"type": "node", "id": 11097067412, "lat": 34.5948947, "lon": 43.6742677, "tags": {"name": "أسواق يوسف وعدنان.تكريت الجمعية", "shop": "supermarket"}}, {"type": "node", "id": 9864342517, "lat": 34.5939437, "lon": 43.6817008, "tags": {"addr:street": "شارع عبدالله الكرع", "name": "عبدالله انترنيت", "shop": "supermarket"}},