{"id": "46-142", "latMin": 46, "lonMin": 142, "latMax": 47, "lonMax": 143, "generated": "2026-04-16T18:39:08.133Z", "count": 11, "pois": [{"type": "node", "id": 9323463547, "lat": 46.927564, "lon": 142.733171, "tags": {"amenity": "charging_station", "name": "EV Charging Station", "_source": "worldwide"}}, {"type": "node", "id": 9936807822, "lat": 46.953858, "lon": 142.760868, "tags": {"amenity": "charging_station", "operator": "Русгидро", "name": "ЭлектроАЗС", "_source": "worldwide"}}, {"type": "node", "id": 9991972575, "lat": 46.966217, "lon": 142.752869, "tags": {"amenity": "charging_station", "fee": "yes", "operator": "ООО Электрокар Сахалин", "name": "ООО Электрокар Сахалин", "_source": "worldwide"}}, {"type": "node", "id": 10166324806, "lat": 46.954724, "lon": 142.739367, "tags": {"amenity": "charging_station", "fee": "yes", "operator": "РусГидро", "name": "РусГидро", "_source": "worldwide"}}, {"type": "node", "id": 10267005500, "lat": 46.954832, "lon": 142.738978, "tags": {"amenity": "charging_station", "fee": "yes", "operator": "EV-Time", "name": "EV-Time", "_source": "worldwide"}}, {"type": "node", "id": 10267005501, "lat": 46.955902, "lon": 142.741513, "tags": {"amenity": "charging_station", "fee": "yes", "operator": "EV-Time", "name": "EV-Time", "_source": "worldwide"}}, {"type": "node", "id": 10267005502, "lat": 46.935064, "lon": 142.758129, "tags": {"amenity": "charging_station", "fee": "yes", "operator": "EV-Time", "name": "EV-Time", "_source": "worldwide"}}, {"type": "node", "id": 10267005503, "lat": 46.944426, "lon": 142.731344, "tags": {"amenity": "charging_station", "fee": "yes", "operator": "EV-Time", "name": "EV-Time", "_source": "worldwide"}}, {"type": "node", "id": 10270579393, "lat": 46.90166, "lon": 142.750922, "tags": {"amenity": "charging_station", "fee": "yes", "operator": "TOUCH", "name": "TOUCH", "_source": "worldwide"}}, {"type": "node", "id": 12124171624, "lat": 46.614792, "lon": 142.771871, "tags": {"amenity": "charging_station", "brand": "РусГидро", "operator": "РусГидро", "name": "РусГидро", "_source": "worldwide"}}, {"type": "node", "id": 13586139572, "lat": 46.952274, "lon": 142.736085, "tags": {"amenity": "charging_station", "fee": "yes", "brand": "EvTime", "name": "EvTime", "_source": "worldwide"}}]}