{"id": "36--106", "latMin": 36, "lonMin": -106, "latMax": 37, "lonMax": -105, "generated": "2026-04-16T18:39:07.375Z", "count": 8, "pois": [{"type": "node", "id": 5935588967, "lat": 36.46525, "lon": -105.661489, "tags": {"amenity": "charging_station", "operator": "Taos Mesa Brewery", "name": "Taos Mesa Brewery", "_source": "worldwide"}}, {"type": "node", "id": 6175617687, "lat": 36.596416, "lon": -105.449514, "tags": {"amenity": "charging_station", "name": "EV Charging Station", "_source": "worldwide"}}, {"type": "node", "id": 6722990043, "lat": 36.408592, "lon": -105.571496, "tags": {"amenity": "charging_station", "name": "EV Charging Station", "_source": "worldwide"}}, {"type": "node", "id": 11030137481, "lat": 36.596812, "lon": -105.450712, "tags": {"amenity": "charging_station", "fee": "no", "brand": "JuiceBox", "name": "JuiceBox", "_source": "worldwide"}}, {"type": "node", "id": 11030137483, "lat": 36.596734, "lon": -105.450532, "tags": {"amenity": "charging_station", "fee": "no", "brand": "JuiceBox", "name": "JuiceBox", "_source": "worldwide"}}, {"type": "node", "id": 11030137484, "lat": 36.596824, "lon": -105.450838, "tags": {"amenity": "charging_station", "fee": "no", "brand": "JuiceBox", "name": "JuiceBox", "_source": "worldwide"}}, {"type": "node", "id": 12769012337, "lat": 36.043077, "lon": -105.807716, "tags": {"amenity": "charging_station", "operator": "Loop Tritium", "name": "Loop Tritium", "_source": "worldwide"}}, {"type": "node", "id": 13275647864, "lat": 36.403304, "lon": -105.575606, "tags": {"amenity": "charging_station", "fee": "yes", "access": "yes", "opening_hours": "24/7", "brand": "Tesla Supercharger", "network": "Supercharger", "operator": "Tesla", "name": "Taos Supercharger", "addr:street": "Paseo Del Pueblo Sur", "addr:housenumber": "224", "addr:postcode": "87571", "addr:city": "Taos", "addr:country": "US", "capacity": "8", "_source": "worldwide"}}]}