{"id": "37--88", "latMin": 37, "lonMin": -88, "latMax": 38, "lonMax": -87, "generated": "2026-04-16T18:39:07.476Z", "count": 5, "pois": [{"type": "node", "id": 3649532401, "lat": 37.775155, "lon": -87.115155, "tags": {"amenity": "charging_station", "brand": "ChargePoint", "operator": "ChargePoint", "name": "ChargePoint", "socket:type1": "1", "capacity": "1", "_source": "worldwide"}}, {"type": "node", "id": 5821676653, "lat": 37.991875, "lon": -87.524361, "tags": {"amenity": "charging_station", "name": "EV Charging Station", "_source": "worldwide"}}, {"type": "node", "id": 10197136473, "lat": 37.108171, "lon": -87.880397, "tags": {"amenity": "charging_station", "fee": "no", "access": "yes", "brand": "ChargePoint", "operator": "ChargePoint", "name": "Chargepoint", "_source": "worldwide"}}, {"type": "node", "id": 11739842890, "lat": 37.97859, "lon": -87.431216, "tags": {"amenity": "charging_station", "name": "EV Charging Station", "_source": "worldwide"}}, {"type": "node", "id": 12944744021, "lat": 37.19301, "lon": -87.44869, "tags": {"amenity": "charging_station", "fee": "yes", "access": "yes", "opening_hours": "24/7", "brand": "Tesla Supercharger", "network": "Supercharger", "operator": "Tesla", "name": "Nortonville Supercharger", "addr:street": "Hopkinsville Road", "addr:housenumber": "162", "addr:postcode": "42442", "addr:city": "Nortonville", "addr:country": "US", "capacity": "8", "_source": "worldwide"}}]}