{"id": "19-79", "latMin": 19, "lonMin": 79, "latMax": 20, "lonMax": 80, "generated": "2026-04-16T18:39:07.233Z", "count": 5, "pois": [{"type": "node", "id": 4376874204, "lat": 19.924521, "lon": 79.316811, "tags": {"amenity": "charging_station", "operator": "PRSANNA", "name": "PRSANNA", "_source": "worldwide"}}, {"type": "node", "id": 4376876211, "lat": 19.967755, "lon": 79.308204, "tags": {"amenity": "charging_station", "name": "EV Charging Station", "_source": "worldwide"}}, {"type": "node", "id": 4376876214, "lat": 19.958475, "lon": 79.316474, "tags": {"amenity": "charging_station", "operator": "INDIAN OILS", "name": "INDIAN OILS", "_source": "worldwide"}}, {"type": "node", "id": 4376877604, "lat": 19.950323, "lon": 79.297953, "tags": {"amenity": "charging_station", "operator": "Hindustan petroleum", "name": "Hindustan petroleum", "_source": "worldwide"}}, {"type": "node", "id": 12135600916, "lat": 19.97241, "lon": 79.287157, "tags": {"amenity": "charging_station", "operator": "KOTPALLIWAR", "name": "Bharat Petroleum", "_source": "worldwide"}}]}