{"id": "50--114", "latMin": 50, "lonMin": -114, "latMax": 51, "lonMax": -113, "generated": "2026-04-16T18:39:08.324Z", "count": 9, "pois": [{"type": "node", "id": 9590241696, "lat": 50.695822, "lon": -113.886485, "tags": {"amenity": "charging_station", "brand": "Petro-Canada", "name": "Petro-Canada", "_source": "worldwide"}}, {"type": "node", "id": 9590344789, "lat": 50.852317, "lon": -113.019604, "tags": {"amenity": "charging_station", "brand": "Petro-Canada", "name": "Petro-Canada", "_source": "worldwide"}}, {"type": "node", "id": 12248384469, "lat": 50.930962, "lon": -113.964912, "tags": {"amenity": "charging_station", "fee": "yes", "access": "yes", "opening_hours": "24/7", "brand": "Tesla Supercharger", "network": "Supercharger", "operator": "Tesla", "name": "Tesla Supercharger", "_source": "worldwide"}}, {"type": "node", "id": 12602294685, "lat": 50.91675, "lon": -113.958837, "tags": {"amenity": "charging_station", "name": "EV Charging Station", "capacity": "4", "_source": "worldwide"}}, {"type": "node", "id": 13461562688, "lat": 50.887764, "lon": -113.947233, "tags": {"amenity": "charging_station", "fee": "no", "access": "permit", "brand": "FLO", "operator": "FLO", "name": "FLO", "_source": "worldwide"}}, {"type": "node", "id": 13715570457, "lat": 50.992185, "lon": -113.969262, "tags": {"amenity": "charging_station", "fee": "yes", "brand": "FLO", "operator": "FLO", "name": "FLO", "socket:type1": "6", "capacity": "6", "_source": "worldwide"}}, {"type": "node", "id": 13715570459, "lat": 50.949776, "lon": -113.977634, "tags": {"amenity": "charging_station", "fee": "no", "brand": "ChargePoint", "operator": "ChargePoint", "name": "ChargePoint", "socket:type1": "2", "capacity": "2", "_source": "worldwide"}}, {"type": "node", "id": 13715570460, "lat": 50.948854, "lon": -113.983345, "tags": {"amenity": "charging_station", "fee": "yes", "brand": "FLO", "operator": "FLO", "name": "FLO", "socket:type1": "4", "capacity": "4", "_source": "worldwide"}}, {"type": "node", "id": 13715570610, "lat": 50.958503, "lon": -113.930321, "tags": {"amenity": "charging_station", "brand": "FLO", "operator": "FLO", "name": "FLO", "_source": "worldwide"}}]}