{"id": "52-11", "latMin": 52, "lonMin": 11, "latMax": 53, "lonMax": 12, "generated": "2026-04-16T18:39:08.665Z", "count": 184, "pois": [{"type": "node", "id": 2871075327, "lat": 52.174069, "lon": 11.494509, "tags": {"amenity": "charging_station", "fee": "yes", "brand": "Tesla Supercharger", "opening_hours": "24/7", "operator": "Tesla", "name": "Hohenwarsleben Supercharger", "addr:country": "DE", "socket:tesla_supercharger": "6", "socket:tesla_supercharger:output": "150.0 kW", "charging_station:output": "150.0 kW", "capacity": "6", "_source": "worldwide"}}, {"type": "node", "id": 6034012624, "lat": 52.174003, "lon": 11.495254, "tags": {"amenity": "charging_station", "access": "yes", "fee": "yes", "brand": "Ionity", "network": "Ionity", "opening_hours": "24/7", "operator": "IONITY", "name": "Ionity Hohenwarsleben", "addr:country": "DE", "socket:type2_combo": "12", "socket:type2_combo:output": "350.0 kW", "charging_station:output": "350.0 kW", "capacity": "12", "_source": "worldwide"}}, {"type": "node", "id": 2899575953, "lat": 52.129139, "lon": 11.631122, "tags": {"amenity": "charging_station", "access": "yes", "fee": "yes", "opening_hours": "24/7", "operator": "Martim-Hotel", "name": "Ladestation Martim-Hotel", "addr:country": "DE", "socket:type2": "26", "socket:type2:output": "11.0 kW", "charging_station:output": "11.0 kW", "capacity": "26", "_source": "worldwide"}}, {"type": "node", "id": 3363615604, "lat": 52.129986, "lon": 11.629765, "tags": {"amenity": "charging_station", "access": "yes", "fee": "yes", "opening_hours": "24/7", "operator": "BRAWO Green Energy", "name": "Elektrotankstelle City Carré", "addr:street": "Kantstraße 3", "addr:postcode": "39104", "addr:city": "Magdeburg", "addr:country": "DE", "socket:type2": "22", "socket:type2:output": "22.0 kW", "charging_station:output": "22.0 kW", "capacity": "22", "authentication:none": "yes", "_source": "worldwide"}}, {"type": "node", "id": 9551042964, "lat": 52.126314, "lon": 11.6327, "tags": {"amenity": "charging_station", "access": "yes", "fee": "yes", "network": "Stadtwerke Magdeburg", "opening_hours": "24/7", "operator": "Stadtwerke Magdeburg", "name": "Ladestation Stadtwerke Magdeburg", "addr:country": "DE", "socket:type2": "2", "socket:type2:output": "22.0 kW", "charging_station:output": "22.0 kW", "capacity": "2", "authentication:none": "", "_source": "worldwide"}}, {"type": "node", "id": 12696357758, "lat": 52.126114, "lon": 11.628784, "tags": {"amenity": "charging_station", "access": "yes", "fee": "yes", "opening_hours": "24/7", "operator": "Wirelane", "name": "Ladestation Wirelane", "addr:country": "DE", "socket:type2": "4", "socket:type2:output": "11.0 kW", "charging_station:output": "11.0 kW", "capacity": "4", "_source": "worldwide"}}, {"type": "node", "id": 13191306754, "lat": 52.12613, "lon": 11.631896, "tags": {"amenity": "charging_station", "access": "customers", "fee": "yes", "opening_hours": "Mo 09:00-16:00; Tu 09:00-18:00; We 09:00-16:00; Th 09:00-18:00; Fr 09:00-14:00; PH off", "operator": "Volksbank Magdeburg", "name": "Volksbank Magdeburg - Volksbank Magdeburg eG", "addr:country": "DE", "socket:type2": "2", "socket:type2:output": "11.0 kW", "charging_station:output": "11.0 kW", "capacity": "2", "_source": "worldwide"}}, {"type": "node", "id": 3325974757, "lat": 52.211448, "lon": 11.671091, "tags": {"amenity": "charging_station", "operator": "SWM", "name": "Ladestation SWM", "addr:street": "Glindenberger Weg 3", "socket:type2": "1", "socket:type2:output": "22 kW", "socket:schuko": "1", "socket:schuko:output": "2.3 kW", "charging_station:output": "22 kW", "_source": "worldwide"}}, {"type": "node", "id": 1391581805, "lat": 52.210695, "lon": 11.670152, "tags": {"amenity": "charging_station", "access": "yes", "fee": "yes", "brand": "Tesla Supercharger", "opening_hours": "24/7", "operator": "Tesla", "name": "Magdeburg Supercharger", "addr:country": "DE", "socket:type2_combo": "8", "socket:type2_combo:output": "250.0 kW", "charging_station:output": "250.0 kW", "capacity": "8", "_source": "worldwide"}}, {"type": "node", "id": 3326554634, "lat": 52.153431, "lon": 11.679172, "tags": {"amenity": "charging_station", "operator": "Herrenkrug Parkhotel", "name": "Ladestation Herrenkrug Parkhotel", "addr:country": "DE", "socket:type2": "2", "socket:type2:output": "11.0 kW", "socket:schuko": "2", "socket:schuko:output": "2.3 kW", "charging_station:output": "11.0 kW", "_source": "worldwide"}}, {"type": "node", "id": 3326557059, "lat": 52.080917, "lon": 11.579262, "tags": {"amenity": "charging_station", "operator": "Autohaus Voets", "name": "Ladestation Autohaus Voets", "addr:country": "DE", "_source": "worldwide"}}, {"type": "node", "id": 3542782855, "lat": 52.796693, "lon": 11.026672, "tags": {"amenity": "charging_station", "addr:country": "DE", "_source": "worldwide"}}, {"type": "node", "id": 4143094789, "lat": 52.288703, "lon": 11.41224, "tags": {"amenity": "charging_station", "operator": "Stadtwerke Haldensleben", "name": "Ladestation Stadtwerke Haldensleben", "addr:country": "DE", "socket:type2": "2", "socket:type2:output": "22 kW", "socket:schuko": "2", "socket:schuko:output": "2.3 kW", "charging_station:output": "22 kW", "_source": "worldwide"}}, {"type": "node", "id": 6740075357, "lat": 52.284996, "lon": 11.406919, "tags": {"amenity": "charging_station", "access": "yes", "fee": "yes", "brand": "Q1 Autostrom", "network": "intercharge", "opening_hours": "24/7", "operator": "Q1 Autostrom", "name": "Q1 Autostrom - Q1 Autostrom", "addr:country": "DE", "socket:type2": "2", "socket:type2:output": "22.0 kW", "charging_station:output": "22.0 kW", "capacity": "2", "_source": "worldwide"}}, {"type": "node", "id": 13347364568, "lat": 52.28561, "lon": 11.412554, "tags": {"amenity": "charging_station", "access": "yes", "fee": "yes", "brand": "Q1 Autostrom", "network": "intercharge", "opening_hours": "24/7", "operator": "Q1 Autostrom", "name": "Q1 Autostrom - Q1 Autostrom", "addr:country": "DE", "socket:type2": "2", "socket:type2:output": "22.0 kW", "charging_station:output": "22.0 kW", "capacity": "2", "_source": "worldwide"}}, {"type": "node", "id": 4705477405, "lat": 52.972953, "lon": 11.735876, "tags": {"amenity": "charging_station", "fee": "voluntary", "opening_hours": "24/7", "operator": "Markus Goltz", "name": "Ladestation Markus Goltz", "addr:country": "DE", "socket:type2": "1", "socket:type2:output": "22 kW", "socket:type2_combo": "1", "socket:type2_combo:output": "50 kW", "socket:chademo": "1", "socket:chademo:output": "50 kW", "charging_station:output": "50 kW", "_source": "worldwide"}}, {"type": "node", "id": 4803352831, "lat": 52.130676, "lon": 11.638531, "tags": {"amenity": "charging_station", "access": "yes", "fee": "yes", "opening_hours": "24/7", "operator": "Städtische Werke Magdeburg", "name": "Ladestation Städtische Werke Magdeburg", "addr:street": "Ernst-Reuter-Allee 6", "addr:postcode": "39104", "addr:city": "Magdeburg", "addr:country": "DE", "socket:type2": "2", "socket:type2:output": "22.0 kW", "charging_station:output": "22.0 kW", "capacity": "2", "_source": "worldwide"}}, {"type": "node", "id": 9376924508, "lat": 52.13137, "lon": 11.635106, "tags": {"amenity": "charging_station", "access": "yes", "fee": "no", "operator": "Städtische Werke Magdeburg", "name": "Ladestation Städtische Werke Magdeburg", "addr:country": "DE", "socket:type2": "2", "socket:type2:output": "22.0 kW", "charging_station:output": "22.0 kW", "capacity": "2", "_source": "worldwide"}}, {"type": "node", "id": 10310824450, "lat": 52.131663, "lon": 11.636334, "tags": {"amenity": "charging_station", "access": "yes", "fee": "no", "operator": "Stadtwerke Magdeburg", "name": "Ladestation Stadtwerke Magdeburg", "addr:country": "DE", "socket:schuko": "4", "socket:schuko:output": "2.3 kW", "charging_station:output": "2.3 kW", "_source": "worldwide"}}, {"type": "node", "id": 10310824452, "lat": 52.13199, "lon": 11.635048, "tags": {"amenity": "charging_station", "access": "yes", "fee": "no", "operator": "Stadtwerke Magdeburg", "name": "Ladestation Stadtwerke Magdeburg", "addr:country": "DE", "socket:schuko": "4", "socket:schuko:output": "2.3 kW", "charging_station:output": "2.3 kW", "_source": "worldwide"}}, {"type": "node", "id": 11043548826, "lat": 52.132958, "lon": 11.640853, "tags": {"amenity": "charging_station", "operator": "Stadtwerke Magdeburg", "name": "Ladestation Stadtwerke Magdeburg", "addr:country": "DE", "capacity": "2", "_source": "worldwide"}}, {"type": "node", "id": 4911281689, "lat": 52.226083, "lon": 11.009666, "tags": {"amenity": "charging_station", "name": "Elektrofahrzeuge", "addr:country": "DE", "capacity": "2", "_source": "worldwide"}}, {"type": "node", "id": 11060274467, "lat": 52.22378, "lon": 11.018802, "tags": {"amenity": "charging_station", "operator": "T-mobile", "name": "Ladestation T-mobile", "addr:country": "DE", "capacity": "2", "_source": "worldwide"}}, {"type": "node", "id": 5058669821, "lat": 52.16805, "lon": 11.612114, "tags": {"amenity": "charging_station", "operator": "IKEA", "name": "IKEA Magdeburg", "addr:country": "DE", "socket:type2": "4", "socket:type2:output": "22.0 kW", "socket:type2_combo": "4", "socket:type2_combo:output": "20.0 kW", "socket:chademo": "4", "socket:chademo:output": "20.0 kW", "charging_station:output": "22.0 kW", "capacity": "8", "_source": "worldwide"}}, {"type": "node", "id": 12051678613, "lat": 52.16675, "lon": 11.608031, "tags": {"amenity": "charging_station", "access": "yes", "fee": "yes", "operator": "123energie", "name": "Ladestation 123energie", "addr:country": "DE", "socket:type2": "1", "socket:type2:output": "22.0 kW", "socket:type2_combo": "1", "socket:type2_combo:output": "50.0 kW", "socket:chademo": "1", "socket:chademo:output": "50.0 kW", "charging_station:output": "50.0 kW", "capacity": "2", "_source": "worldwide"}}, {"type": "node", "id": 12309316407, "lat": 52.163691, "lon": 11.608233, "tags": {"amenity": "charging_station", "access": "yes", "fee": "yes", "brand": "Star Charge", "name": "Star Charge", "addr:country": "DE", "socket:type2_combo": "1", "socket:type2_combo:output": "50 kW", "charging_station:output": "50 kW", "capacity": "1", "_source": "worldwide"}}, {"type": "node", "id": 12821019016, "lat": 52.164563, "lon": 11.609023, "tags": {"amenity": "charging_station", "brand": "KEBA", "operator": "KEBA", "name": "KEBA - KEBA", "addr:country": "DE", "socket:type2": "2", "socket:type2:output": "22 kW", "charging_station:output": "22 kW", "capacity": "2", "_source": "worldwide"}}, {"type": "node", "id": 13691401138, "lat": 52.166713, "lon": 11.611238, "tags": {"amenity": "charging_station", "access": "yes", "fee": "yes", "brand": "Mer", "operator": "Mer", "name": "Mer - Mer", "addr:country": "DE", "socket:type2_combo": "4", "socket:type2_combo:output": "150.0 kW", "charging_station:output": "150.0 kW", "capacity": "4", "_source": "worldwide"}}, {"type": "node", "id": 5116573708, "lat": 52.14902, "lon": 11.662352, "tags": {"amenity": "charging_station", "operator": "Stadtwerke Magdeburg (SWM)", "name": "Ladestation Stadtwerke Magdeburg (SWM)", "addr:street": "Werner-Heisenberg-Straße 45", "addr:postcode": "39106", "addr:city": "Magdeburg", "_source": "worldwide"}}, {"type": "node", "id": 5292308834, "lat": 52.526491, "lon": 11.393568, "tags": {"amenity": "charging_station", "fee": "no", "opening_hours": "24/7", "operator": "Avacon", "name": "Ladestation Avacon", "addr:country": "DE", "socket:type2": "2", "socket:type2:output": "22.0 kW", "charging_station:output": "22.0 kW", "capacity": "2", "_source": "worldwide"}}, {"type": "node", "id": 5616448021, "lat": 52.221655, "lon": 11.053723, "tags": {"amenity": "charging_station", "operator": "ABB", "name": "Ladestation ABB", "addr:country": "DE", "capacity": "2", "_source": "worldwide"}}, {"type": "node", "id": 5924101116, "lat": 52.209354, "lon": 11.791027, "tags": {"amenity": "charging_station", "operator": "E.ON avacon", "name": "Ladestation E.ON avacon", "addr:country": "DE", "capacity": "2", "_source": "worldwide"}}, {"type": "node", "id": 6092011396, "lat": 52.123592, "lon": 11.61085, "tags": {"amenity": "charging_station", "access": "yes", "fee": "yes", "network": "SWM Mobil", "opening_hours": "24/7", "operator": "Stadtwerke Magdeburg", "name": "Stadtwerke Magdeburg - SWM Mobil", "addr:country": "DE", "socket:type2": "2", "socket:type2:output": "22.0 kW", "charging_station:output": "22.0 kW", "capacity": "2", "_source": "worldwide"}}, {"type": "node", "id": 6119059605, "lat": 52.198412, "lon": 11.676841, "tags": {"amenity": "charging_station", "addr:country": "DE", "capacity": "2", "_source": "worldwide"}}, {"type": "node", "id": 6821243937, "lat": 52.968587, "lon": 11.155841, "tags": {"amenity": "charging_station", "operator": "Avacon", "name": "Ladestation Avacon", "addr:country": "DE", "capacity": "2", "_source": "worldwide"}}, {"type": "node", "id": 7844583222, "lat": 52.970218, "lon": 11.15124, "tags": {"amenity": "charging_station", "operator": "EES Nord", "name": "EES Nord - EES Nord GmbH", "addr:country": "DE", "socket:type2": "1", "socket:type2:output": "22 kW", "socket:schuko": "1", "socket:schuko:output": "2.3 kW", "charging_station:output": "22 kW", "capacity": "1", "_source": "worldwide"}}, {"type": "node", "id": 12513186109, "lat": 52.966598, "lon": 11.160937, "tags": {"amenity": "charging_station", "fee": "yes", "operator": "EnBW", "name": "Ladestation EnBW", "addr:country": "DE", "socket:type2": "1", "socket:type2:output": "22 kW", "socket:type2_combo": "2", "socket:type2_combo:output": "50 kW", "charging_station:output": "50 kW", "capacity": "2", "_source": "worldwide"}}, {"type": "node", "id": 6985544324, "lat": 52.141804, "lon": 11.68081, "tags": {"amenity": "charging_station", "operator": "Städtische Werke Magdeburg (SWM)", "name": "Ladestation Städtische Werke Magdeburg (SWM)", "addr:street": "Breitscheidstraße 2", "addr:postcode": "39114", "addr:city": "Magdeburg", "socket:type2": "2", "socket:type2:output": "22.0 kW", "charging_station:output": "22.0 kW", "capacity": "2", "authentication:none": "", "_source": "worldwide"}}, {"type": "node", "id": 7036888848, "lat": 52.001427, "lon": 11.727077, "tags": {"amenity": "charging_station", "operator": "e-aktiv", "name": "Ladestation e-aktiv", "addr:country": "DE", "capacity": "2", "_source": "worldwide"}}, {"type": "node", "id": 7225296027, "lat": 52.119479, "lon": 11.630257, "tags": {"amenity": "charging_station", "access": "yes", "fee": "yes", "opening_hours": "24/7", "operator": "Städtische Werke Magdeburg", "name": "Ladestation Städtische Werke Magdeburg", "addr:country": "DE", "socket:type2": "2", "socket:type2:output": "22.0 kW", "charging_station:output": "22.0 kW", "capacity": "2", "_source": "worldwide"}}, {"type": "node", "id": 8613250858, "lat": 52.122831, "lon": 11.633129, "tags": {"amenity": "charging_station", "fee": "yes", "network": "SWM", "opening_hours": "24/7", "operator": "Städtische Werke Magdeburg", "name": "Hegelstraße 4", "addr:country": "DE", "socket:type2": "2", "socket:type2:output": "22.0 kW", "charging_station:output": "22.0 kW", "capacity": "2", "_source": "worldwide"}}, {"type": "node", "id": 7230364605, "lat": 52.787617, "lon": 11.7412, "tags": {"amenity": "charging_station", "addr:country": "DE", "_source": "worldwide"}}, {"type": "node", "id": 7494400123, "lat": 52.258281, "lon": 11.841059, "tags": {"amenity": "charging_station", "access": "yes", "operator": "Schubert Motors", "name": "Schubert Motors - Schubert Motors GmbH", "addr:country": "DE", "capacity": "2", "_source": "worldwide"}}, {"type": "node", "id": 8083274900, "lat": 52.215084, "lon": 11.079187, "tags": {"amenity": "charging_station", "opening_hours": "24/7", "operator": "E.ON", "name": "Ladestation E.ON", "addr:country": "DE", "socket:type2_combo": "2", "socket:type2_combo:output": "150.0 kW", "charging_station:output": "150.0 kW", "_source": "worldwide"}}, {"type": "node", "id": 8121638963, "lat": 52.266502, "lon": 11.839042, "tags": {"amenity": "charging_station", "access": "yes", "operator": "Stadtwerke Burg", "name": "Ladestation Stadtwerke Burg", "addr:country": "DE", "capacity": "2", "_source": "worldwide"}}, {"type": "node", "id": 8182371257, "lat": 52.021722, "lon": 11.738203, "tags": {"amenity": "charging_station", "fee": "yes", "operator": "Stadtwerke Schönebeck", "name": "Ladestation Stadtwerke Schönebeck", "addr:country": "DE", "capacity": "4", "_source": "worldwide"}}, {"type": "node", "id": 8193666896, "lat": 52.232889, "lon": 11.022642, "tags": {"amenity": "charging_station", "access": "yes", "operator": "Allego", "name": "Ladesäule Efacec - QC45", "addr:country": "DE", "capacity": "50", "_source": "worldwide"}}, {"type": "node", "id": 12645374995, "lat": 52.232475, "lon": 11.024519, "tags": {"amenity": "charging_station", "addr:country": "DE", "capacity": "2", "_source": "worldwide"}}, {"type": "node", "id": 8367183246, "lat": 52.17546, "lon": 11.495209, "tags": {"amenity": "charging_station", "access": "yes", "fee": "yes", "operator": "EnBW", "name": "Ladestation EnBW", "addr:country": "DE", "capacity": "2", "_source": "worldwide"}}, {"type": "node", "id": 8528289748, "lat": 52.209284, "lon": 11.13274, "tags": {"amenity": "charging_station", "access": "customers", "fee": "no", "operator": "Aral Pulse", "name": "Aral HPC", "addr:country": "DE", "_source": "worldwide"}}, {"type": "node", "id": 8754791943, "lat": 52.021761, "lon": 11.744831, "tags": {"amenity": "charging_station", "access": "yes", "fee": "no", "operator": "Stadt Schönebeck AGFK", "name": "E-Bike Ladestation Schönebeck Weltrad", "addr:country": "DE", "socket:schuko": "4", "socket:schuko:output": "2.3 kW", "charging_station:output": "2.3 kW", "capacity": "4", "_source": "worldwide"}}, {"type": "node", "id": 8861323396, "lat": 52.858145, "lon": 11.144861, "tags": {"amenity": "charging_station", "addr:country": "DE", "socket:type2": "2", "socket:type2:output": "22 kW", "socket:type2_combo": "1", "socket:type2_combo:output": "50 kW", "socket:chademo": "1", "socket:chademo:output": "50 kW", "charging_station:output": "50 kW", "capacity": "5", "_source": "worldwide"}}, {"type": "node", "id": 1430306942, "lat": 52.856804, "lon": 11.150058, "tags": {"amenity": "charging_station", "access": "yes", "fee": "yes", "opening_hours": "24/7", "operator": "Kaufland", "name": "Ladestation Kaufland", "addr:country": "DE", "socket:type2": "1", "socket:type2:output": "11.0 kW", "socket:type2_combo": "2", "socket:type2_combo:output": "60.0 kW", "charging_station:output": "60.0 kW", "capacity": "3", "authentication:none": "", "_source": "worldwide"}}, {"type": "node", "id": 8917257726, "lat": 52.479213, "lon": 11.20492, "tags": {"amenity": "charging_station", "access": "yes", "fee": "no", "operator": "Gemeindeverwaltung Gardelegen", "name": "Ladestation Gemeindeverwaltung Gardelegen", "addr:country": "DE", "socket:schuko": "4", "socket:schuko:output": "2.3 kW", "charging_station:output": "2.3 kW", "capacity": "4", "_source": "worldwide"}}, {"type": "node", "id": 8917370347, "lat": 52.523408, "lon": 11.39498, "tags": {"amenity": "charging_station", "fee": "no", "operator": "Gasthaus Schützenhaus", "name": "Ladestation Gasthaus Schützenhaus", "addr:country": "DE", "socket:schuko": "4", "socket:schuko:output": "2.3 kW", "charging_station:output": "2.3 kW", "_source": "worldwide"}}, {"type": "node", "id": 8939396317, "lat": 52.148422, "lon": 11.678948, "tags": {"amenity": "charging_station", "access": "customers", "fee": "no", "operator": "Life", "name": "Ladestation Life", "addr:country": "DE", "_source": "worldwide"}}, {"type": "node", "id": 8991429186, "lat": 52.963954, "lon": 11.16542, "tags": {"amenity": "charging_station", "operator": "EnBW", "name": "EnBW - EnBW Energie Baden-Württemberg AG", "addr:country": "DE", "socket:type2": "1", "socket:type2:output": "22 kW", "socket:type2_combo": "1", "socket:type2_combo:output": "50 kW", "socket:chademo": "1", "socket:chademo:output": "50 kW", "charging_station:output": "50 kW", "capacity": "2", "_source": "worldwide"}}, {"type": "node", "id": 9032704114, "lat": 52.427235, "lon": 11.19238, "tags": {"amenity": "charging_station", "access": "yes", "fee": "no", "operator": "Gemeinde Calvörde", "name": "Ladestation Gemeinde Calvörde", "addr:country": "DE", "capacity": "4", "_source": "worldwide"}}, {"type": "node", "id": 9032716505, "lat": 52.212837, "lon": 11.138436, "tags": {"amenity": "charging_station", "access": "yes", "fee": "no", "operator": "Gemeinde Ingersleben", "name": "Ladestation Gemeinde Ingersleben", "addr:country": "DE", "capacity": "4", "_source": "worldwide"}}, {"type": "node", "id": 9032745146, "lat": 52.938283, "lon": 11.790996, "tags": {"amenity": "charging_station", "access": "yes", "fee": "no", "operator": "Verbandgemeinde Seehausen (Altmark)", "name": "Ladestation Verbandgemeinde Seehausen (Altmark)", "addr:country": "DE", "capacity": "4", "_source": "worldwide"}}, {"type": "node", "id": 9105623820, "lat": 52.386711, "lon": 11.978479, "tags": {"amenity": "charging_station", "fee": "no", "operator": "Event & Erlebnis", "name": "Event & Erlebnis - Event & Erlebnis GmbH", "addr:country": "DE", "_source": "worldwide"}}, {"type": "node", "id": 12846800086, "lat": 52.386276, "lon": 11.979875, "tags": {"amenity": "charging_station", "access": "yes", "fee": "yes", "brand": "avacon", "operator": "Avacon", "name": "Avacon - avacon", "addr:country": "DE", "socket:type2": "1", "socket:type2:output": "22 kW", "charging_station:output": "22 kW", "capacity": "1", "_source": "worldwide"}}, {"type": "node", "id": 9105698098, "lat": 52.541216, "lon": 11.97099, "tags": {"amenity": "charging_station", "access": "yes", "fee": "no", "addr:country": "DE", "capacity": "4", "_source": "worldwide"}}, {"type": "node", "id": 9556700499, "lat": 52.539835, "lon": 11.967362, "tags": {"amenity": "charging_station", "fee": "no", "addr:country": "DE", "_source": "worldwide"}}, {"type": "node", "id": 1285774551, "lat": 52.541707, "lon": 11.969615, "tags": {"amenity": "charging_station", "network": "ladenetz.de", "opening_hours": "24/7", "operator": "Stadtwerke Stendal", "name": "Emobil Notpforte", "addr:country": "DE", "socket:type2": "2", "socket:type2:output": "22.0 kW", "charging_station:output": "22.0 kW", "capacity": "2", "authentication:none": "yes", "_source": "worldwide"}}, {"type": "node", "id": 9178410029, "lat": 52.269235, "lon": 11.84978, "tags": {"amenity": "charging_station", "operator": "Stadtwerke Burg", "name": "Ladestation Stadtwerke Burg", "addr:country": "DE", "capacity": "2", "_source": "worldwide"}}, {"type": "node", "id": 9190710424, "lat": 52.273421, "lon": 11.840357, "tags": {"amenity": "charging_station", "operator": "Stadtwerke Burg", "name": "Ladestation Stadtwerke Burg", "addr:country": "DE", "capacity": "2", "_source": "worldwide"}}, {"type": "node", "id": 9223772810, "lat": 52.17055, "lon": 11.485004, "tags": {"amenity": "charging_station", "access": "yes", "fee": "yes", "brand": "Tesla Supercharger", "opening_hours": "24/7", "operator": "Tesla", "name": "Irxleben Supercharger", "addr:country": "DE", "socket:type2_combo": "12", "socket:type2_combo:output": "250.0 kW", "charging_station:output": "250.0 kW", "capacity": "12", "_source": "worldwide"}}, {"type": "node", "id": 9241847334, "lat": 52.269548, "lon": 11.863727, "tags": {"amenity": "charging_station", "addr:country": "DE", "capacity": "2", "_source": "worldwide"}}, {"type": "node", "id": 1442887804, "lat": 52.613591, "lon": 11.829713, "tags": {"amenity": "charging_station", "network": "ladenetz.de", "operator": "Stadtwerke Stendal", "name": "Altoa Stendal", "addr:country": "DE", "socket:type2": "3", "socket:type2:output": "22.0 kW", "socket:type2_combo": "1", "socket:type2_combo:output": "50.0 kW", "charging_station:output": "50.0 kW", "capacity": "4", "_source": "worldwide"}}, {"type": "node", "id": 9323779564, "lat": 52.155295, "lon": 11.578397, "tags": {"amenity": "charging_station", "access": "yes", "fee": "yes", "operator": "EDEKA-MIHA Charge", "name": "Ladestation EDEKA-MIHA Charge", "addr:street": "St.-Josef-Straße 13a", "addr:postcode": "39130", "addr:city": "Magdeburg", "socket:type2": "2", "socket:type2:output": "22.0 kW", "charging_station:output": "22.0 kW", "capacity": "2", "_source": "worldwide"}}, {"type": "node", "id": 9389441768, "lat": 52.185407, "lon": 11.298831, "tags": {"amenity": "charging_station", "access": "yes", "fee": "no", "operator": "Gemeinde Groppendorf", "name": "Ladestation Gemeinde Groppendorf", "addr:country": "DE", "capacity": "4", "_source": "worldwide"}}, {"type": "node", "id": 9393793829, "lat": 52.246024, "lon": 11.628273, "tags": {"amenity": "charging_station", "fee": "no", "operator": "Stadt Wolmirstedt", "name": "Ladestation Stadt Wolmirstedt", "addr:country": "DE", "capacity": "4", "_source": "worldwide"}}, {"type": "node", "id": 13430533372, "lat": 52.24987, "lon": 11.627304, "tags": {"amenity": "charging_station", "access": "yes", "fee": "yes", "opening_hours": "24/7", "operator": "Vaylens", "name": "Vaylens - Vaylens GmbH", "addr:country": "DE", "socket:type2": "2", "socket:type2:output": "22.0 kW", "charging_station:output": "22.0 kW", "capacity": "2", "_source": "worldwide"}}, {"type": "node", "id": 9441845354, "lat": 52.136812, "lon": 11.638903, "tags": {"amenity": "charging_station", "access": "yes", "fee": "no", "operator": "Stadt Magdeburg", "name": "Ladestation Stadt Magdeburg", "addr:country": "DE", "capacity": "4", "_source": "worldwide"}}, {"type": "node", "id": 10204249999, "lat": 52.13669, "lon": 11.636729, "tags": {"amenity": "charging_station", "operator": "Stadtwerke Magdeburg", "name": "Ladestation Stadtwerke Magdeburg", "addr:country": "DE", "capacity": "2", "_source": "worldwide"}}, {"type": "node", "id": 9463749753, "lat": 52.243181, "lon": 11.089726, "tags": {"amenity": "charging_station", "access": "yes", "fee": "no", "opening_hours": "24/7", "operator": "Gemeinde Beendorf", "name": "Ladestation Gemeinde Beendorf", "addr:country": "DE", "capacity": "4", "_source": "worldwide"}}, {"type": "node", "id": 9463772996, "lat": 52.321342, "lon": 11.345518, "tags": {"amenity": "charging_station", "fee": "no", "operator": "Gemeinde Bülstringen", "name": "Ladestation Gemeinde Bülstringen", "addr:country": "DE", "capacity": "4", "_source": "worldwide"}}, {"type": "node", "id": 9463848829, "lat": 52.188986, "lon": 11.044762, "tags": {"amenity": "charging_station", "access": "yes", "fee": "no", "operator": "Gemeinde Harpke", "name": "Ladestation Gemeinde Harpke", "addr:country": "DE", "capacity": "4", "_source": "worldwide"}}, {"type": "node", "id": 9464273396, "lat": 52.155331, "lon": 11.180962, "tags": {"amenity": "charging_station", "access": "yes", "fee": "no", "operator": "Gemeinde Ummendorf Börde", "name": "Ladestation Gemeinde Ummendorf Börde", "addr:country": "DE", "socket:schuko": "8", "socket:schuko:output": "2.3 kW", "charging_station:output": "2.3 kW", "capacity": "4", "_source": "worldwide"}}, {"type": "node", "id": 9464306611, "lat": 52.193008, "lon": 11.155621, "tags": {"amenity": "charging_station", "access": "yes", "fee": "no", "operator": "Gemeinde Wefensleben OT Belsdorf", "name": "Ladestation Gemeinde Wefensleben OT Belsdorf", "addr:country": "DE", "capacity": "4", "_source": "worldwide"}}, {"type": "node", "id": 9464396247, "lat": 52.605165, "lon": 11.860147, "tags": {"amenity": "charging_station", "access": "yes", "fee": "no", "operator": "Stadt Stendal", "name": "Ladestation Stadt Stendal", "addr:country": "DE", "capacity": "4", "_source": "worldwide"}}, {"type": "node", "id": 12116884001, "lat": 52.602946, "lon": 11.865064, "tags": {"amenity": "charging_station", "access": "yes", "fee": "yes", "brand": "emobil", "operator": "Stadtwerke Stendal", "name": "Stadtwerke Stendal - emobil", "addr:country": "DE", "socket:type2_combo": "2", "socket:type2_combo:output": "150.0 kW", "charging_station:output": "150.0 kW", "capacity": "2", "_source": "worldwide"}}, {"type": "node", "id": 1396658607, "lat": 52.60286, "lon": 11.863496, "tags": {"amenity": "charging_station", "network": "ladenetz.de", "operator": "Stadtwerke Stendal", "name": "Stadtwerke Stendal - ladenetz.de", "addr:country": "DE", "socket:type2": "2", "socket:type2:output": "22.0 kW", "charging_station:output": "22.0 kW", "capacity": "2", "_source": "worldwide"}}, {"type": "node", "id": 1421622463, "lat": 52.606708, "lon": 11.856302, "tags": {"amenity": "charging_station", "network": "ladenetz.de", "operator": "Stadtwerke Stendal", "name": "Stadtwerke Stendal - ladenetz.de", "addr:country": "DE", "socket:type2": "2", "socket:type2:output": "22.0 kW", "charging_station:output": "22.0 kW", "capacity": "2", "_source": "worldwide"}}, {"type": "node", "id": 9464404273, "lat": 52.069797, "lon": 11.366243, "tags": {"amenity": "charging_station", "access": "yes", "fee": "no", "operator": "Stadt Wanzleben Börde", "name": "Ladestation Stadt Wanzleben Börde", "addr:country": "DE", "capacity": "4", "_source": "worldwide"}}, {"type": "node", "id": 9464438713, "lat": 52.788262, "lon": 11.753865, "tags": {"amenity": "charging_station", "access": "yes", "fee": "no", "operator": "Stadt Osterburg", "name": "Ladestation Stadt Osterburg", "addr:country": "DE", "capacity": "4", "_source": "worldwide"}}, {"type": "node", "id": 9529332694, "lat": 52.180779, "lon": 11.616858, "tags": {"amenity": "charging_station", "brand": "Innogy", "network": "innogy SE", "opening_hours": "24/7", "operator": "Innogy", "name": "Innogy", "addr:country": "DE", "socket:type2_combo": "2", "socket:type2_combo:output": "50 kW", "charging_station:output": "50 kW", "capacity": "2", "authentication:none": "", "_source": "worldwide"}}, {"type": "node", "id": 9556232342, "lat": 52.55531, "lon": 11.971198, "tags": {"amenity": "charging_station", "access": "yes", "fee": "no", "operator": "Stadt Tangermünde", "name": "Tangermünde Stadion", "addr:country": "DE", "socket:schuko": "8", "socket:schuko:output": "2.3 kW", "charging_station:output": "2.3 kW", "capacity": "4", "_source": "worldwide"}}, {"type": "node", "id": 13272175952, "lat": 52.602915, "lon": 11.834642, "tags": {"amenity": "charging_station", "addr:country": "DE", "_source": "worldwide"}}, {"type": "node", "id": 1436747331, "lat": 52.607533, "lon": 11.840906, "tags": {"amenity": "charging_station", "opening_hours": "24/7", "operator": "EnBW", "name": "Ladestation EnBW", "addr:country": "DE", "socket:type2_combo": "4", "socket:type2_combo:output": "150.0 kW", "charging_station:output": "150.0 kW", "capacity": "4", "_source": "worldwide"}}, {"type": "node", "id": 1441674863, "lat": 52.605654, "lon": 11.838284, "tags": {"amenity": "charging_station", "operator": "amperio", "name": "Ladestation amperio", "addr:country": "DE", "socket:type2": "1", "socket:type2:output": "22.0 kW", "socket:type2_combo": "1", "socket:type2_combo:output": "50.0 kW", "charging_station:output": "50.0 kW", "capacity": "2", "_source": "worldwide"}}, {"type": "node", "id": 1441704287, "lat": 52.606569, "lon": 11.83383, "tags": {"amenity": "charging_station", "access": "private", "operator": "Stadtwerke Stendal", "name": "Ladestation Stadtwerke Stendal", "addr:country": "DE", "socket:type2": "3", "socket:type2:output": "11.0 kW", "socket:type2_combo": "2", "socket:type2_combo:output": "50.0 kW", "charging_station:output": "50.0 kW", "_source": "worldwide"}}, {"type": "node", "id": 9613411450, "lat": 52.604374, "lon": 11.867234, "tags": {"amenity": "charging_station", "network": "ladenetz.de", "opening_hours": "24/7", "operator": "Stadtwerke Stendal", "name": "Stadtwerke Stendal - ladenetz.de", "addr:country": "DE", "socket:type2": "2", "socket:type2:output": "22.0 kW", "charging_station:output": "22.0 kW", "capacity": "2", "authentication:none": "yes", "_source": "worldwide"}}, {"type": "node", "id": 9613411451, "lat": 52.606181, "lon": 11.869103, "tags": {"amenity": "charging_station", "network": "ladenetz.de", "opening_hours": "24/7", "operator": "Stadtwerke Stendal", "name": "Stadtwerke Stendal - ladenetz.de", "addr:country": "DE", "socket:type2": "2", "socket:type2:output": "22.0 kW", "charging_station:output": "22.0 kW", "capacity": "2", "authentication:none": "yes", "_source": "worldwide"}}, {"type": "node", "id": 9613411452, "lat": 52.60837, "lon": 11.865271, "tags": {"amenity": "charging_station", "network": "ladenetz.de", "opening_hours": "24/7", "operator": "Stadtwerke Stendal", "name": "Stadtwerke Stendal - ladenetz.de", "addr:country": "DE", "socket:type2": "1", "socket:type2:output": "22.0 kW", "socket:type2_combo": "1", "socket:type2_combo:output": "50.0 kW", "charging_station:output": "50.0 kW", "capacity": "2", "authentication:none": "yes", "_source": "worldwide"}}, {"type": "node", "id": 9613411454, "lat": 52.615837, "lon": 11.849105, "tags": {"amenity": "charging_station", "operator": "Stadtwerke Stendal", "name": "Ladestation Stadtwerke Stendal", "addr:country": "DE", "capacity": "44", "_source": "worldwide"}}, {"type": "node", "id": 12992361683, "lat": 52.616531, "lon": 11.84828, "tags": {"amenity": "charging_station", "addr:country": "DE", "_source": "worldwide"}}, {"type": "node", "id": 9758263776, "lat": 52.146526, "lon": 11.212247, "tags": {"amenity": "charging_station", "access": "yes", "fee": "no", "operator": "Verbandsgemeinde obere Aller", "name": "E Bike Ladestation Eilsleben", "addr:country": "DE", "socket:schuko": "8", "socket:schuko:output": "2.3 kW", "charging_station:output": "2.3 kW", "capacity": "4", "_source": "worldwide"}}, {"type": "node", "id": 9758831910, "lat": 52.14148, "lon": 11.10027, "tags": {"amenity": "charging_station", "access": "yes", "fee": "no", "operator": "Gemeinde Ober Aller", "name": "Völpke Schulstraße", "addr:country": "DE", "socket:schuko": "8", "socket:schuko:output": "2.3 kW", "charging_station:output": "2.3 kW", "capacity": "4", "_source": "worldwide"}}, {"type": "node", "id": 9840980899, "lat": 52.128875, "lon": 11.671447, "tags": {"amenity": "charging_station", "access": "yes", "fee": "yes", "opening_hours": "Mo-Fr 07:00-21:00; Sa 07:00-20:00; PH off", "operator": "Lidl", "name": "Ladestation Lidl", "addr:street": "Berliner Chaussee 48", "addr:postcode": "39114", "addr:city": "Magdeburg", "addr:country": "DE", "socket:type2": "1", "socket:type2:output": "22.0 kW", "socket:type2_combo": "2", "socket:type2_combo:output": "30.0 kW", "charging_station:output": "30.0 kW", "capacity": "3", "_source": "worldwide"}}, {"type": "node", "id": 9909856792, "lat": 52.604149, "lon": 11.853179, "tags": {"amenity": "charging_station", "brand": "eMobil", "operator": "Stadtwerke Stendal", "name": "Stadtwerke Stendal - eMobil", "addr:country": "DE", "socket:type2": "2", "socket:type2:output": "22.0 kW", "charging_station:output": "22.0 kW", "capacity": "2", "authentication:none": "", "_source": "worldwide"}}, {"type": "node", "id": 9909994697, "lat": 52.176802, "lon": 11.627128, "tags": {"amenity": "charging_station", "operator": "EnBW", "name": "EnBW - EnBW Energie Baden-Württemberg AG", "addr:country": "DE", "capacity": "2", "_source": "worldwide"}}, {"type": "node", "id": 12123898301, "lat": 52.175174, "lon": 11.628681, "tags": {"amenity": "charging_station", "access": "yes", "fee": "yes", "brand": "Aral pulse", "opening_hours": "24/7", "operator": "Aral", "name": "Aral Pulse", "addr:country": "DE", "socket:type2_combo": "4", "socket:type2_combo:output": "300.0 kW", "socket:chademo": "2", "socket:chademo:output": "100.0 kW", "charging_station:output": "300.0 kW", "capacity": "4", "_source": "worldwide"}}, {"type": "node", "id": 9931341795, "lat": 52.625323, "lon": 11.164404, "tags": {"amenity": "charging_station", "fee": "yes", "opening_hours": "24/7", "operator": "Avacon", "name": "Bibliothek", "addr:country": "DE", "socket:type2": "2", "socket:type2:output": "22 kW", "charging_station:output": "22 kW", "capacity": "2", "_source": "worldwide"}}, {"type": "node", "id": 9956403183, "lat": 52.045073, "lon": 11.762781, "tags": {"amenity": "charging_station", "name": "E-Bike", "addr:country": "DE", "capacity": "4", "_source": "worldwide"}}, {"type": "node", "id": 9990432416, "lat": 52.154615, "lon": 11.637026, "tags": {"amenity": "charging_station", "operator": "Stadtwerke Magdeburg", "name": "Ladestation Stadtwerke Magdeburg", "addr:country": "DE", "capacity": "2", "_source": "worldwide"}}, {"type": "node", "id": 9998327765, "lat": 52.996364, "lon": 11.755027, "tags": {"amenity": "charging_station", "access": "yes", "fee": "no", "operator": "Stadt Wittenberge", "name": "Wittenberge Markt", "addr:country": "DE", "socket:schuko": "2", "socket:schuko:output": "2.3 kW", "charging_station:output": "2.3 kW", "capacity": "2", "_source": "worldwide"}}, {"type": "node", "id": 11748942648, "lat": 52.99299, "lon": 11.752471, "tags": {"amenity": "charging_station", "fee": "no", "addr:country": "DE", "_source": "worldwide"}}, {"type": "node", "id": 10570175179, "lat": 52.26081, "lon": 11.637269, "tags": {"amenity": "charging_station", "addr:country": "DE", "_source": "worldwide"}}, {"type": "node", "id": 10581628258, "lat": 52.152779, "lon": 11.629258, "tags": {"amenity": "charging_station", "access": "yes", "fee": "yes", "opening_hours": "Mo-Sa 08:00-20:00", "operator": "EnBW", "name": "EnBW - EnBW Energie Baden-Württemberg AG", "addr:country": "DE", "socket:type2_combo": "4", "socket:type2_combo:output": "300.0 kW", "charging_station:output": "300.0 kW", "capacity": "4", "_source": "worldwide"}}, {"type": "node", "id": 10679164012, "lat": 52.539361, "lon": 11.408112, "tags": {"amenity": "charging_station", "addr:country": "DE", "_source": "worldwide"}}, {"type": "node", "id": 10697935885, "lat": 52.853536, "lon": 11.151234, "tags": {"amenity": "charging_station", "access": "customers", "fee": "yes", "network": "Monta", "opening_hours": "24/7", "operator": "Sparkasse Altmark West", "name": "Sparkasse Altmark West - Monta", "addr:country": "DE", "socket:type2": "2", "socket:type2:output": "22.0 kW", "charging_station:output": "22.0 kW", "_source": "worldwide"}}, {"type": "node", "id": 10709960542, "lat": 52.434525, "lon": 11.961396, "tags": {"amenity": "charging_station", "access": "yes", "fee": "no", "operator": "Stadt Tangerhütte", "name": "Ladestation Stadt Tangerhütte", "addr:country": "DE", "socket:schuko": "8", "socket:schuko:output": "2.3 kW", "charging_station:output": "2.3 kW", "capacity": "4", "_source": "worldwide"}}, {"type": "node", "id": 10837720144, "lat": 52.06318, "lon": 11.56045, "tags": {"amenity": "charging_station", "addr:country": "DE", "_source": "worldwide"}}, {"type": "node", "id": 12359734214, "lat": 52.062911, "lon": 11.567903, "tags": {"amenity": "charging_station", "fee": "yes", "addr:country": "DE", "_source": "worldwide"}}, {"type": "node", "id": 11005368244, "lat": 52.107008, "lon": 11.640748, "tags": {"amenity": "charging_station", "operator": "SWM Magdeburg", "name": "Ladestation SWM Magdeburg", "addr:country": "DE", "socket:type2": "2", "socket:type2:output": "22 kW", "charging_station:output": "22 kW", "capacity": "2", "_source": "worldwide"}}, {"type": "node", "id": 11212091888, "lat": 52.991117, "lon": 11.750861, "tags": {"amenity": "charging_station", "access": "yes", "addr:country": "DE", "capacity": "2", "_source": "worldwide"}}, {"type": "node", "id": 11223331618, "lat": 52.99153, "lon": 11.604573, "tags": {"amenity": "charging_station", "fee": "no", "opening_hours": "08:00-22:00", "name": "LADEpünktchen", "addr:country": "DE", "_source": "worldwide"}}, {"type": "node", "id": 11225256114, "lat": 52.527348, "lon": 11.383538, "tags": {"amenity": "charging_station", "fee": "yes", "operator": "Lidl", "name": "Lidl", "addr:country": "DE", "capacity": "1", "_source": "worldwide"}}, {"type": "node", "id": 11225260435, "lat": 52.515708, "lon": 11.401427, "tags": {"amenity": "charging_station", "operator": "EnBW", "name": "EnBW - EnBW Energie Baden-Württemberg AG", "addr:country": "DE", "capacity": "2", "_source": "worldwide"}}, {"type": "node", "id": 13689357513, "lat": 52.518464, "lon": 11.397339, "tags": {"amenity": "charging_station", "operator": "Vattenfall", "name": "Vattenfall - Vattenfall GmbH", "addr:country": "DE", "capacity": "2", "_source": "worldwide"}}, {"type": "node", "id": 11241258558, "lat": 52.073051, "lon": 11.826272, "tags": {"amenity": "charging_station", "addr:country": "DE", "capacity": "2", "_source": "worldwide"}}, {"type": "node", "id": 11246846165, "lat": 52.128888, "lon": 11.66531, "tags": {"amenity": "charging_station", "access": "yes", "fee": "yes", "operator": "Städtische Werke Magdeburg", "name": "Ladestation Städtische Werke Magdeburg", "addr:street": "Berliner Chaussee 11", "addr:postcode": "39114", "addr:city": "Magdeburg", "addr:country": "DE", "socket:type2": "2", "socket:type2:output": "22.0 kW", "charging_station:output": "22.0 kW", "capacity": "2", "_source": "worldwide"}}, {"type": "node", "id": 11370654459, "lat": 52.342716, "lon": 11.978823, "tags": {"amenity": "charging_station", "addr:country": "DE", "_source": "worldwide"}}, {"type": "node", "id": 11492518512, "lat": 52.568245, "lon": 11.66322, "tags": {"amenity": "charging_station", "fee": "yes", "addr:country": "DE", "capacity": "2", "_source": "worldwide"}}, {"type": "node", "id": 11559146807, "lat": 52.237394, "lon": 11.00157, "tags": {"amenity": "charging_station", "addr:country": "DE", "_source": "worldwide"}}, {"type": "node", "id": 11748942647, "lat": 52.998267, "lon": 11.761298, "tags": {"amenity": "charging_station", "fee": "no", "operator": "E-BIKE", "name": "Ladestation E-BIKE", "addr:country": "DE", "_source": "worldwide"}}, {"type": "node", "id": 11849971771, "lat": 52.955844, "lon": 11.944647, "tags": {"amenity": "charging_station", "opening_hours": "07:00-22:00", "operator": "Elektro-Lausmann", "name": "Ladestation Elektro-Lausmann", "addr:country": "DE", "capacity": "6", "_source": "worldwide"}}, {"type": "node", "id": 11877511314, "lat": 52.130155, "lon": 11.581341, "tags": {"amenity": "charging_station", "addr:country": "DE", "_source": "worldwide"}}, {"type": "node", "id": 11901223900, "lat": 52.302929, "lon": 11.0135, "tags": {"amenity": "charging_station", "operator": "EnBW", "name": "EnBW - EnBW Energie Baden-Württemberg AG", "addr:country": "DE", "capacity": "2", "_source": "worldwide"}}, {"type": "node", "id": 12003373141, "lat": 52.13476, "lon": 11.669374, "tags": {"amenity": "charging_station", "access": "yes", "addr:country": "DE", "capacity": "4", "_source": "worldwide"}}, {"type": "node", "id": 12046440759, "lat": 52.13494, "lon": 11.622165, "tags": {"amenity": "charging_station", "access": "yes", "fee": "yes", "brand": "city concept", "opening_hours": "24/7", "operator": "be.energised", "name": "city concept", "addr:country": "DE", "socket:type2": "2", "socket:type2:output": "22.0 kW", "charging_station:output": "22.0 kW", "capacity": "2", "_source": "worldwide"}}, {"type": "node", "id": 12089975287, "lat": 52.131478, "lon": 11.620107, "tags": {"amenity": "charging_station", "access": "yes", "fee": "yes", "brand": "Digital Energy Solutions", "operator": "BMW", "name": "intercharge", "addr:country": "DE", "capacity": "2", "_source": "worldwide"}}, {"type": "node", "id": 12710189421, "lat": 52.134158, "lon": 11.619337, "tags": {"amenity": "charging_station", "access": "yes", "fee": "yes", "network": "SWM Mobil", "opening_hours": "24/7", "operator": "SWM Magdeburg", "name": "SWM Magdeburg - SWM Mobil", "addr:country": "DE", "socket:type2": "2", "socket:type2:output": "22.0 kW", "charging_station:output": "22.0 kW", "capacity": "2", "_source": "worldwide"}}, {"type": "node", "id": 12100846320, "lat": 52.861849, "lon": 11.982178, "tags": {"amenity": "charging_station", "addr:country": "DE", "_source": "worldwide"}}, {"type": "node", "id": 12122152535, "lat": 52.13903, "lon": 11.570295, "tags": {"amenity": "charging_station", "access": "yes", "fee": "yes", "brand": "Shell Recharge", "opening_hours": "24/7", "operator": "Shell Recharge", "name": "Shell Recharge - Shell Recharge", "addr:country": "DE", "socket:type2_combo": "4", "socket:type2_combo:output": "150.0 kW", "charging_station:output": "150.0 kW", "capacity": "4", "_source": "worldwide"}}, {"type": "node", "id": 12166140773, "lat": 52.100391, "lon": 11.620669, "tags": {"amenity": "charging_station", "access": "yes", "fee": "yes", "operator": "SWM Magdeburg", "name": "Ladestation SWM Magdeburg", "addr:country": "DE", "socket:type2": "2", "socket:type2:output": "22.0 kW", "charging_station:output": "22.0 kW", "capacity": "2", "_source": "worldwide"}}, {"type": "node", "id": 12171885133, "lat": 52.1095, "lon": 11.628729, "tags": {"amenity": "charging_station", "opening_hours": "Mo-Fr 07:00-18:00; Sa 09:00-13:00", "addr:country": "DE", "socket:type2": "1", "socket:type2:output": "11.0 kW", "socket:type2_combo": "1", "socket:type2_combo:output": "22.0 kW", "charging_station:output": "22.0 kW", "capacity": "2", "_source": "worldwide"}}, {"type": "node", "id": 12209802685, "lat": 52.986214, "lon": 11.545836, "tags": {"amenity": "charging_station", "opening_hours": "08:00-18:00", "name": "LADEpünktchen", "addr:country": "DE", "capacity": "2", "_source": "worldwide"}}, {"type": "node", "id": 12209812472, "lat": 52.917656, "lon": 11.557648, "tags": {"amenity": "charging_station", "opening_hours": "24/7", "name": "LADEpünktchen", "addr:country": "DE", "_source": "worldwide"}}, {"type": "node", "id": 12212745094, "lat": 52.103785, "lon": 11.590502, "tags": {"amenity": "charging_station", "fee": "yes", "operator": "ABL", "name": "ABL", "addr:country": "DE", "capacity": "2", "_source": "worldwide"}}, {"type": "node", "id": 12369451601, "lat": 52.020154, "lon": 11.739339, "tags": {"amenity": "charging_station", "addr:country": "DE", "_source": "worldwide"}}, {"type": "node", "id": 12487918146, "lat": 52.857744, "lon": 11.15735, "tags": {"amenity": "charging_station", "access": "yes", "fee": "yes", "opening_hours": "24/7", "operator": "Vattenfall InCharge", "name": "Ladestation Vattenfall InCharge", "addr:country": "DE", "socket:type2_combo": "2", "socket:type2_combo:output": "180.0 kW", "charging_station:output": "180.0 kW", "capacity": "2", "authentication:none": "", "_source": "worldwide"}}, {"type": "node", "id": 1349744028, "lat": 52.857555, "lon": 11.155746, "tags": {"amenity": "charging_station", "access": "yes", "fee": "yes", "opening_hours": "24/7", "operator": "Comfortcharge", "name": "Ladestation Comfortcharge", "addr:country": "DE", "socket:type2": "1", "socket:type2:output": "22.0 kW", "socket:type2_combo": "1", "socket:type2_combo:output": "100.0 kW", "socket:chademo": "1", "socket:chademo:output": "50.0 kW", "charging_station:output": "100.0 kW", "capacity": "3", "authentication:none": "", "_source": "worldwide"}}, {"type": "node", "id": 12514171452, "lat": 52.856752, "lon": 11.165132, "tags": {"amenity": "charging_station", "fee": "yes", "addr:country": "DE", "socket:type2_combo": "2", "socket:type2_combo:output": "150.0 kW", "charging_station:output": "150.0 kW", "capacity": "2", "_source": "worldwide"}}, {"type": "node", "id": 12531587734, "lat": 52.856941, "lon": 11.164006, "tags": {"amenity": "charging_station", "fee": "no", "operator": "hagebaucentrum Salzwedel", "name": "Ladestation hagebaucentrum Salzwedel", "addr:country": "DE", "socket:schuko": "1", "socket:schuko:output": "2.3 kW", "charging_station:output": "2.3 kW", "_source": "worldwide"}}, {"type": "node", "id": 12628316954, "lat": 52.170499, "lon": 11.570771, "tags": {"amenity": "charging_station", "access": "yes", "fee": "yes", "operator": "Q1", "name": "Ladestation Q1", "addr:country": "DE", "socket:type2": "1", "socket:type2:output": "22.0 kW", "socket:type2_combo": "2", "socket:type2_combo:output": "150.0 kW", "charging_station:output": "150.0 kW", "capacity": "3", "_source": "worldwide"}}, {"type": "node", "id": 12636955753, "lat": 52.861683, "lon": 11.963185, "tags": {"amenity": "charging_station", "network": "LADEpünktchen Altmark", "operator": "LADEpünktchen Altmark", "name": "Ladestation LADEpünktchen Altmark", "addr:country": "DE", "socket:schuko": "2", "socket:schuko:output": "2.3 kW", "charging_station:output": "2.3 kW", "_source": "worldwide"}}, {"type": "node", "id": 12643164901, "lat": 52.196153, "lon": 11.109557, "tags": {"amenity": "charging_station", "addr:country": "DE", "_source": "worldwide"}}, {"type": "node", "id": 12731783875, "lat": 52.117802, "lon": 11.616052, "tags": {"amenity": "charging_station", "access": "yes", "fee": "yes", "brand": "alpitronic", "operator": "TotalEnergies", "name": "hypercharger", "addr:country": "DE", "socket:type2": "1", "socket:type2:output": "22 kW", "socket:type2_combo": "1", "socket:type2_combo:output": "50 kW", "charging_station:output": "50 kW", "capacity": "2", "_source": "worldwide"}}, {"type": "node", "id": 12840759672, "lat": 52.07907, "lon": 11.635444, "tags": {"amenity": "charging_station", "addr:country": "DE", "_source": "worldwide"}}, {"type": "node", "id": 12952586074, "lat": 52.582842, "lon": 11.874942, "tags": {"amenity": "charging_station", "access": "yes", "fee": "yes", "brand": "Allego", "operator": "Allego", "name": "Allego - Allego", "addr:country": "DE", "socket:type2_combo": "2", "socket:type2_combo:output": "150.0 kW", "charging_station:output": "150.0 kW", "capacity": "2", "_source": "worldwide"}}, {"type": "node", "id": 12959673753, "lat": 52.109146, "lon": 11.598354, "tags": {"amenity": "charging_station", "operator": "Stadtwerke Magdeburg", "name": "Ladestation Stadtwerke Magdeburg", "addr:country": "DE", "capacity": "2", "_source": "worldwide"}}, {"type": "node", "id": 12965056731, "lat": 52.14155, "lon": 11.624602, "tags": {"amenity": "charging_station", "access": "yes", "fee": "yes", "brand": "city concept", "operator": "be.energised", "name": "city concept", "addr:country": "DE", "socket:type2": "2", "socket:type2:output": "22 kW", "charging_station:output": "22 kW", "capacity": "2", "_source": "worldwide"}}, {"type": "node", "id": 12980167300, "lat": 52.146956, "lon": 11.644226, "tags": {"amenity": "charging_station", "fee": "yes", "brand": "m8mit", "operator": "Stadtwerke Bernburg", "name": "Stadtwerke Bernburg - m8mit", "addr:country": "DE", "socket:type2": "2", "socket:type2:output": "22.0 kW", "charging_station:output": "22.0 kW", "capacity": "2", "_source": "worldwide"}}, {"type": "node", "id": 1444581213, "lat": 52.150047, "lon": 11.639347, "tags": {"amenity": "charging_station", "access": "yes", "fee": "yes", "brand": "EWE Go", "opening_hours": "24/7", "operator": "EWE Go", "name": "EWE Go - EWE Go", "addr:country": "DE", "capacity": "8", "_source": "worldwide"}}, {"type": "node", "id": 12996970918, "lat": 52.544317, "lon": 11.97506, "tags": {"amenity": "charging_station", "addr:country": "DE", "socket:type2": "2", "socket:type2:output": "22 kW", "charging_station:output": "22 kW", "capacity": "2", "_source": "worldwide"}}, {"type": "node", "id": 13060127133, "lat": 52.13948, "lon": 11.588033, "tags": {"amenity": "charging_station", "access": "yes", "fee": "yes", "brand": "eliso", "opening_hours": "24/7", "operator": "eliso", "name": "eliso - eliso", "addr:country": "DE", "socket:type2_combo": "2", "socket:type2_combo:output": "150.0 kW", "charging_station:output": "150.0 kW", "capacity": "2", "_source": "worldwide"}}, {"type": "node", "id": 13066769976, "lat": 52.165384, "lon": 11.625241, "tags": {"amenity": "charging_station", "access": "yes", "fee": "yes", "brand": "Vattenfall InCharge", "operator": "Vattenfall InCharge", "name": "Vattenfall InCharge - Vattenfall InCharge", "addr:country": "DE", "socket:type2_combo": "6", "socket:type2_combo:output": "180.0 kW", "charging_station:output": "180.0 kW", "capacity": "6", "_source": "worldwide"}}, {"type": "node", "id": 13074154690, "lat": 52.689263, "lon": 11.14393, "tags": {"amenity": "charging_station", "fee": "no", "addr:country": "DE", "capacity": "3", "_source": "worldwide"}}, {"type": "node", "id": 13146930146, "lat": 52.841313, "lon": 11.172089, "tags": {"amenity": "charging_station", "access": "yes", "fee": "yes", "opening_hours": "24/7", "operator": "EWE Go", "name": "Ladestation EWE Go", "addr:country": "DE", "socket:type2_combo": "2", "socket:type2_combo:output": "150.0 kW", "charging_station:output": "150.0 kW", "capacity": "2", "authentication:none": "", "_source": "worldwide"}}, {"type": "node", "id": 13175238600, "lat": 52.103282, "lon": 11.602103, "tags": {"amenity": "charging_station", "operator": "EnBw HyperNetz", "name": "Ladestation EnBw HyperNetz", "addr:country": "DE", "capacity": "2", "_source": "worldwide"}}, {"type": "node", "id": 13195920677, "lat": 52.963662, "lon": 11.952817, "tags": {"amenity": "charging_station", "access": "yes", "operator": "KMG Elbtalklinik Bad Wilsnack", "name": "KMG Elbtalklinik Bad Wilsnack - KMG Elbtalklinik Bad Wilsnack GmbH", "addr:country": "DE", "capacity": "2", "_source": "worldwide"}}, {"type": "node", "id": 13258926677, "lat": 52.12777, "lon": 11.599615, "tags": {"amenity": "charging_station", "fee": "yes", "addr:country": "DE", "_source": "worldwide"}}, {"type": "node", "id": 13306938848, "lat": 52.61699, "lon": 11.867883, "tags": {"amenity": "charging_station", "network": "Aral pulse", "opening_hours": "24/7", "operator": "Aral", "name": "Aral - Aral pulse", "addr:country": "DE", "socket:type2_combo": "2", "socket:type2_combo:output": "150.0 kW", "socket:chademo": "1", "socket:chademo:output": "100.0 kW", "charging_station:output": "150.0 kW", "_source": "worldwide"}}, {"type": "node", "id": 1450859498, "lat": 52.618822, "lon": 11.867867, "tags": {"amenity": "charging_station", "opening_hours": "24/7", "operator": "EWE Go", "name": "Ladestation EWE Go", "addr:country": "DE", "socket:type2_combo": "4", "socket:type2_combo:output": "300.0 kW", "charging_station:output": "300.0 kW", "capacity": "4", "_source": "worldwide"}}, {"type": "node", "id": 1450934971, "lat": 52.615389, "lon": 11.866773, "tags": {"amenity": "charging_station", "operator": "Stadtwerke Stendal", "name": "Ladestation Stadtwerke Stendal", "addr:country": "DE", "socket:type2": "3", "socket:type2:output": "22.0 kW", "socket:type2_combo": "1", "socket:type2_combo:output": "50.0 kW", "charging_station:output": "50.0 kW", "capacity": "4", "_source": "worldwide"}}, {"type": "node", "id": 13358252952, "lat": 52.159289, "lon": 11.607293, "tags": {"amenity": "charging_station", "access": "yes", "fee": "yes", "brand": "Tesla Supercharger", "opening_hours": "24/7", "operator": "Tesla", "name": "Magdeburg Supercharger", "addr:country": "DE", "socket:type2_combo": "8", "socket:type2_combo:output": "250.0 kW", "charging_station:output": "250.0 kW", "capacity": "8", "_source": "worldwide"}}, {"type": "node", "id": 13415949337, "lat": 52.131532, "lon": 11.683899, "tags": {"amenity": "charging_station", "access": "yes", "fee": "yes", "opening_hours": "24/7", "addr:country": "DE", "socket:type2_combo": "2", "socket:type2_combo:output": "400.0 kW", "charging_station:output": "400.0 kW", "capacity": "2", "_source": "worldwide"}}, {"type": "node", "id": 13430527787, "lat": 52.262746, "lon": 11.639437, "tags": {"amenity": "charging_station", "access": "yes", "fee": "yes", "opening_hours": "24/7", "operator": "Vaylens", "name": "Vaylens - Vaylens GmbH", "addr:country": "DE", "socket:type2": "2", "socket:type2:output": "22.0 kW", "charging_station:output": "22.0 kW", "capacity": "2", "_source": "worldwide"}}, {"type": "node", "id": 13598652520, "lat": 52.204499, "lon": 11.672025, "tags": {"amenity": "charging_station", "access": "yes", "fee": "yes", "brand": "Aral pulse", "network": "Aral pulse", "opening_hours": "24/7", "operator": "Aral", "name": "Aral - Aral pulse", "addr:country": "DE", "socket:type2_combo": "6", "socket:type2_combo:output": "300.0 kW", "charging_station:output": "300.0 kW", "capacity": "6", "_source": "worldwide"}}, {"type": "node", "id": 13598652521, "lat": 52.20525, "lon": 11.671617, "tags": {"amenity": "charging_station", "fee": "yes", "brand": "Aral pulse", "opening_hours": "24/7", "operator": "Aral", "name": "Aral - Aral pulse", "addr:country": "DE", "socket:type2_combo": "4", "socket:type2_combo:output": "400.0 kW", "charging_station:output": "400.0 kW", "capacity": "3", "_source": "worldwide"}}, {"type": "node", "id": 13689326693, "lat": 52.531626, "lon": 11.407955, "tags": {"amenity": "charging_station", "operator": "eliso", "name": "Ladestation eliso", "addr:country": "DE", "capacity": "2", "_source": "worldwide"}}, {"type": "node", "id": 1384648156, "lat": 52.588332, "lon": 11.871741, "tags": {"amenity": "charging_station", "network": "ladenetz.de", "opening_hours": "24/7", "operator": "Stadtwerke Stendal", "name": "Stadtwerke Stendal - ladenetz.de", "addr:country": "DE", "socket:type2": "3", "socket:type2:output": "22.0 kW", "socket:type2_combo": "1", "socket:type2_combo:output": "50.0 kW", "charging_station:output": "50.0 kW", "capacity": "4", "_source": "worldwide"}}, {"type": "node", "id": 1389599206, "lat": 52.597415, "lon": 11.839487, "tags": {"amenity": "charging_station", "network": "Lidl", "opening_hours": "24/7", "operator": "Lidl", "name": "Ladestation Lidl", "addr:country": "DE", "socket:type2": "1", "socket:type2:output": "22.0 kW", "socket:type2_combo": "2", "socket:type2_combo:output": "60.0 kW", "charging_station:output": "60.0 kW", "capacity": "3", "_source": "worldwide"}}, {"type": "node", "id": 1446481803, "lat": 52.612856, "lon": 11.836647, "tags": {"amenity": "charging_station", "network": "ladenetz.de", "opening_hours": "24/7", "operator": "Stadtwerke Stendal", "name": "Stadtwerke Stendal - ladenetz.de", "addr:country": "DE", "socket:type2_combo": "2", "socket:type2_combo:output": "150.0 kW", "charging_station:output": "150.0 kW", "capacity": "2", "_source": "worldwide"}}, {"type": "node", "id": 1462592046, "lat": 52.14109, "lon": 11.623334, "tags": {"amenity": "charging_station", "access": "customers", "fee": "yes", "brand": "Circle K", "opening_hours": "24/7", "operator": "Circle K", "name": "Circle K - Circle K", "addr:country": "DE", "socket:type2_combo": "4", "socket:type2_combo:output": "400.0 kW", "socket:chademo": "1", "socket:chademo:output": "200.0 kW", "charging_station:output": "400.0 kW", "capacity": "6", "_source": "worldwide"}}, {"type": "node", "id": 1476425568, "lat": 52.175355, "lon": 11.491679, "tags": {"amenity": "charging_station", "operator": "EnBW", "name": "EnBW - EnBW Energie Baden-Württemberg AG", "addr:country": "DE", "_source": "worldwide"}}, {"type": "node", "id": 1476566802, "lat": 52.263237, "lon": 11.422988, "tags": {"amenity": "charging_station", "access": "yes", "operator": "Shell Recharge", "name": "Shell Recharge - Shell Recharge Solutions", "addr:country": "DE", "capacity": "2", "_source": "worldwide"}}, {"type": "node", "id": 1491579737, "lat": 52.662408, "lon": 11.554801, "tags": {"amenity": "charging_station", "fee": "yes", "network": "ladenetz.de", "opening_hours": "24/7", "operator": "Stadtwerke Stendal", "name": "Stadtwerke Stendal - ladenetz.de", "addr:country": "DE", "socket:type2": "1", "socket:type2:output": "22.0 kW", "socket:type2_combo": "1", "socket:type2_combo:output": "50.0 kW", "charging_station:output": "50.0 kW", "capacity": "2", "authentication:none": "yes", "_source": "worldwide"}}, {"type": "node", "id": 1491579794, "lat": 52.66194, "lon": 11.554836, "tags": {"amenity": "charging_station", "fee": "yes", "network": "Vattenfall InCharge", "opening_hours": "24/7", "operator": "Vattenfall Deutschland", "name": "Vattenfall Deutschland - Vattenfall InCharge", "addr:country": "DE", "socket:type2_combo": "2", "socket:type2_combo:output": "150.0 kW", "charging_station:output": "150.0 kW", "capacity": "2", "authentication:none": "", "_source": "worldwide"}}, {"type": "node", "id": 1491579835, "lat": 52.662438, "lon": 11.545666, "tags": {"amenity": "charging_station", "fee": "yes", "network": "ladenetz.de", "opening_hours": "24/7", "operator": "Stadtwerke Stendal", "name": "Stadtwerke Stendal - ladenetz.de", "addr:country": "DE", "socket:type2": "2", "socket:type2:output": "22.0 kW", "charging_station:output": "22.0 kW", "capacity": "2", "authentication:none": "yes", "_source": "worldwide"}}, {"type": "node", "id": 1498018986, "lat": 52.66809, "lon": 11.593588, "tags": {"amenity": "charging_station", "network": "ladenetz.de", "operator": "Stadtwerke Stendal", "name": "Stadtwerke Stendal - ladenetz.de", "addr:country": "DE", "socket:type2": "2", "socket:type2:output": "22.0 kW", "charging_station:output": "22.0 kW", "capacity": "2", "_source": "worldwide"}}]}