{"id": "62-6", "latMin": 62, "lonMin": 6, "latMax": 63, "lonMax": 7, "generated": "2026-04-16T18:39:08.798Z", "count": 44, "pois": [{"type": "node", "id": 1770690031, "lat": 62.46449, "lon": 6.35126, "tags": {"amenity": "charging_station", "access": "yes", "brand": "Mer", "opening_hours": "24/7", "name": "Mer Ålesund Moa Syd", "addr:country": "NO", "socket:type2": "4", "socket:type2:output": "22.0 kW", "charging_station:output": "22.0 kW", "capacity": "4", "_source": "worldwide"}}, {"type": "node", "id": 1770693360, "lat": 62.466099, "lon": 6.354543, "tags": {"amenity": "charging_station", "access": "yes", "brand": "Mer", "opening_hours": "24/7", "name": "Mer Ålesund Moa", "addr:country": "NO", "socket:type2": "1", "socket:type2:output": "22.0 kW", "socket:type2_combo": "1", "socket:type2_combo:output": "50.0 kW", "socket:chademo": "1", "socket:chademo:output": "50.0 kW", "charging_station:output": "50.0 kW", "capacity": "2", "_source": "worldwide"}}, {"type": "node", "id": 5719321658, "lat": 62.46637, "lon": 6.35171, "tags": {"amenity": "charging_station", "access": "yes", "brand": "Mer", "opening_hours": "24/7", "name": "Mer Amfi Moa Nord", "addr:country": "NO", "socket:type2": "2", "socket:type2:output": "22.0 kW", "socket:type2_combo": "5", "socket:type2_combo:output": "50.0 kW", "socket:chademo": "5", "socket:chademo:output": "50.0 kW", "charging_station:output": "50.0 kW", "capacity": "7", "_source": "worldwide"}}, {"type": "node", "id": 1770692767, "lat": 62.47275, "lon": 6.15537, "tags": {"amenity": "charging_station", "access": "yes", "opening_hours": "24/7", "operator": "Ålesund Parkering AS", "name": "Sankten p-hus", "addr:country": "NO", "socket:type2": "4", "socket:type2:output": "7.4 kW", "charging_station:output": "7.4 kW", "capacity": "4", "_source": "worldwide"}}, {"type": "node", "id": 1770693851, "lat": 62.470398, "lon": 6.149174, "tags": {"amenity": "charging_station", "access": "yes", "opening_hours": "24/7", "operator": "Ålesund Parkering AS", "name": "Torghallen p-hus", "addr:country": "NO", "socket:type2": "2", "socket:type2:output": "22.0 kW", "charging_station:output": "22.0 kW", "capacity": "2", "_source": "worldwide"}}, {"type": "node", "id": 11184655613, "lat": 62.472769, "lon": 6.146604, "tags": {"amenity": "charging_station", "access": "yes", "brand": "Kople", "name": "Kople Aspøy skole Ålesund", "addr:country": "NO", "socket:type2": "6", "socket:type2:output": "7.4 kW", "socket:type2_combo": "2", "socket:type2_combo:output": "22.0 kW", "socket:chademo": "1", "socket:chademo:output": "22.0 kW", "charging_station:output": "22.0 kW", "capacity": "8", "_source": "worldwide"}}, {"type": "node", "id": 1770694042, "lat": 62.557804, "lon": 6.114343, "tags": {"amenity": "charging_station", "access": "yes", "opening_hours": "24/7", "operator": "Avinor", "name": "Ålesund lufthavn, Vigra", "addr:country": "NO", "socket:type2": "24", "socket:type2:output": "22.0 kW", "charging_station:output": "22.0 kW", "capacity": "24", "_source": "worldwide"}}, {"type": "node", "id": 12786892935, "lat": 62.55886, "lon": 6.1186, "tags": {"amenity": "charging_station", "access": "yes", "brand": "Mer", "name": "Mer Ålesund Lufthavn Vigra", "addr:country": "NO", "socket:type2_combo": "4", "socket:type2_combo:output": "150.0 kW", "socket:chademo": "2", "socket:chademo:output": "50.0 kW", "charging_station:output": "150.0 kW", "capacity": "4", "_source": "worldwide"}}, {"type": "node", "id": 6068802271, "lat": 62.36913, "lon": 6.029316, "tags": {"amenity": "charging_station", "access": "yes", "opening_hours": "24/7", "operator": "Hareid Parkeringsselskap AS", "name": "Rådhusplassen", "addr:country": "NO", "socket:type2": "1", "socket:type2:output": "7.4 kW", "charging_station:output": "7.4 kW", "capacity": "1", "_source": "worldwide"}}, {"type": "node", "id": 6068802278, "lat": 62.172433, "lon": 6.04507, "tags": {"amenity": "charging_station", "access": "yes", "brand": "Mer", "name": "Mer Extra Volda", "addr:country": "NO", "socket:type2_combo": "2", "socket:type2_combo:output": "150.0 kW", "socket:chademo": "2", "socket:chademo:output": "62.0 kW", "charging_station:output": "150.0 kW", "capacity": "2", "_source": "worldwide"}}, {"type": "node", "id": 6068812187, "lat": 62.58501, "lon": 6.45163, "tags": {"amenity": "charging_station", "access": "yes", "brand": "Mer", "opening_hours": "24/7", "name": "Mer Circle K Brattvåg", "addr:country": "NO", "socket:type2": "2", "socket:type2:output": "22.0 kW", "socket:type2_combo": "1", "socket:type2_combo:output": "50.0 kW", "socket:chademo": "1", "socket:chademo:output": "50.0 kW", "charging_station:output": "50.0 kW", "capacity": "3", "_source": "worldwide"}}, {"type": "node", "id": 6068812198, "lat": 62.492789, "lon": 6.606999, "tags": {"amenity": "charging_station", "access": "yes", "brand": "Mer", "opening_hours": "24/7", "name": "Mer Extra Digernes", "addr:country": "NO", "socket:type2": "2", "socket:type2:output": "22.0 kW", "socket:type2_combo": "2", "socket:type2_combo:output": "50.0 kW", "socket:chademo": "2", "socket:chademo:output": "50.0 kW", "charging_station:output": "50.0 kW", "capacity": "4", "_source": "worldwide"}}, {"type": "node", "id": 8999129432, "lat": 62.490508, "lon": 6.605862, "tags": {"amenity": "charging_station", "access": "yes", "brand": "Circle K", "name": "Circle K Digerneset", "addr:country": "NO", "socket:type2_combo": "6", "socket:type2_combo:output": "400.0 kW", "charging_station:output": "400.0 kW", "capacity": "6", "_source": "worldwide"}}, {"type": "node", "id": 11169096728, "lat": 62.491991, "lon": 6.605234, "tags": {"amenity": "charging_station", "access": "yes", "brand": "Eviny", "name": "Eviny Rema 1000 Digernes", "addr:country": "NO", "socket:type2": "3", "socket:type2:output": "22.0 kW", "socket:type2_combo": "7", "socket:type2_combo:output": "150.0 kW", "socket:chademo": "5", "socket:chademo:output": "62.0 kW", "charging_station:output": "150.0 kW", "capacity": "10", "_source": "worldwide"}}, {"type": "node", "id": 11169096729, "lat": 62.494886, "lon": 6.613145, "tags": {"amenity": "charging_station", "access": "yes", "brand": "Eviny", "name": "Eviny Digerneset Truck Stop", "addr:country": "NO", "socket:type2_combo": "4", "socket:type2_combo:output": "350.0 kW", "charging_station:output": "350.0 kW", "capacity": "4", "_source": "worldwide"}}, {"type": "node", "id": 6068812206, "lat": 62.371525, "lon": 6.029954, "tags": {"amenity": "charging_station", "access": "yes", "opening_hours": "24/7", "operator": "Hareid Parkeringsselskap AS", "name": "Strandgata", "addr:country": "NO", "socket:type2": "6", "socket:type2:output": "7.4 kW", "charging_station:output": "7.4 kW", "capacity": "6", "_source": "worldwide"}}, {"type": "node", "id": 6068812214, "lat": 62.466724, "lon": 6.246894, "tags": {"amenity": "charging_station", "access": "yes", "brand": "Recharge", "opening_hours": "24/7", "name": "Recharge Kiwi Klokkersundet", "addr:country": "NO", "socket:type2": "2", "socket:type2:output": "22.0 kW", "socket:type2_combo": "2", "socket:type2_combo:output": "50.0 kW", "socket:chademo": "2", "socket:chademo:output": "50.0 kW", "charging_station:output": "50.0 kW", "capacity": "4", "_source": "worldwide"}}, {"type": "node", "id": 6068812229, "lat": 62.471703, "lon": 6.367606, "tags": {"amenity": "charging_station", "access": "customers", "opening_hours": "24/7", "operator": "Tafjord Kraft AS", "name": "Tafjord Marked", "addr:country": "NO", "socket:type2": "10", "socket:type2:output": "7.4 kW", "charging_station:output": "7.4 kW", "capacity": "10", "_source": "worldwide"}}, {"type": "node", "id": 12828063585, "lat": 62.472473, "lon": 6.364449, "tags": {"amenity": "charging_station", "access": "yes", "brand": "Tesla", "name": "Tesla Ålesund Supercharger", "addr:country": "NO", "socket:type2_combo": "12", "socket:type2_combo:output": "250.0 kW", "charging_station:output": "250.0 kW", "capacity": "12", "_source": "worldwide"}}, {"type": "node", "id": 6068812237, "lat": 62.481842, "lon": 6.817682, "tags": {"amenity": "charging_station", "access": "yes", "brand": "Mer", "opening_hours": "24/7", "name": "Mer Sjøholt Bunnpris", "addr:country": "NO", "socket:type2": "2", "socket:type2:output": "22.0 kW", "socket:type2_combo": "1", "socket:type2_combo:output": "50.0 kW", "socket:chademo": "1", "socket:chademo:output": "50.0 kW", "charging_station:output": "50.0 kW", "capacity": "3", "_source": "worldwide"}}, {"type": "node", "id": 6699272014, "lat": 62.440357, "lon": 6.189428, "tags": {"amenity": "charging_station", "access": "customers", "fee": "no", "brand": "ChargePoint", "operator": "Tesla", "name": "ChargePoint", "addr:country": "NO", "capacity": "50", "_source": "worldwide"}}, {"type": "node", "id": 9922737397, "lat": 62.439856, "lon": 6.190822, "tags": {"amenity": "charging_station", "access": "yes", "brand": "Eviny", "name": "Eviny Devoldfabrikken, Langevåg", "addr:country": "NO", "socket:type2": "4", "socket:type2:output": "22.0 kW", "socket:type2_combo": "4", "socket:type2_combo:output": "200.0 kW", "socket:chademo": "2", "socket:chademo:output": "62.0 kW", "charging_station:output": "200.0 kW", "capacity": "8", "_source": "worldwide"}}, {"type": "node", "id": 6762237215, "lat": 62.532173, "lon": 6.123096, "tags": {"amenity": "charging_station", "access": "yes", "brand": "Recharge", "name": "Recharge Esso Vigra", "addr:country": "NO", "socket:type2": "2", "socket:type2:output": "11.0 kW", "socket:type2_combo": "2", "socket:type2_combo:output": "150.0 kW", "socket:chademo": "2", "socket:chademo:output": "62.0 kW", "charging_station:output": "150.0 kW", "capacity": "4", "_source": "worldwide"}}, {"type": "node", "id": 9922737395, "lat": 62.392313, "lon": 6.583533, "tags": {"amenity": "charging_station", "access": "yes", "brand": "Eviny", "name": "Eviny Coop Extra Sykkylven", "addr:country": "NO", "socket:type2_combo": "6", "socket:type2_combo:output": "350.0 kW", "socket:chademo": "1", "socket:chademo:output": "50.0 kW", "charging_station:output": "350.0 kW", "capacity": "6", "_source": "worldwide"}}, {"type": "node", "id": 11169096722, "lat": 62.140648, "lon": 6.090002, "tags": {"amenity": "charging_station", "access": "yes", "brand": "Eviny", "name": "Eviny Volda", "addr:country": "NO", "socket:type2_combo": "10", "socket:type2_combo:output": "200.0 kW", "socket:chademo": "5", "socket:chademo:output": "50.0 kW", "charging_station:output": "200.0 kW", "capacity": "10", "_source": "worldwide"}}, {"type": "node", "id": 11169096721, "lat": 62.192785, "lon": 6.124561, "tags": {"amenity": "charging_station", "access": "yes", "brand": "Eviny", "name": "Eviny Rema 1000 Ørsta", "addr:country": "NO", "socket:type2": "1", "socket:type2:output": "22.0 kW", "socket:type2_combo": "5", "socket:type2_combo:output": "200.0 kW", "socket:chademo": "3", "socket:chademo:output": "62.0 kW", "charging_station:output": "200.0 kW", "capacity": "6", "_source": "worldwide"}}, {"type": "node", "id": 11169096723, "lat": 62.198584, "lon": 6.124154, "tags": {"amenity": "charging_station", "access": "yes", "brand": "Eviny", "name": "Eviny Alti Ørsta", "addr:country": "NO", "socket:type2": "4", "socket:type2:output": "22.0 kW", "socket:type2_combo": "8", "socket:type2_combo:output": "200.0 kW", "socket:chademo": "4", "socket:chademo:output": "62.0 kW", "charging_station:output": "200.0 kW", "capacity": "12", "_source": "worldwide"}}, {"type": "node", "id": 11172580270, "lat": 62.196261, "lon": 6.127466, "tags": {"amenity": "charging_station", "access": "yes", "brand": "Recharge", "name": "Recharge Shell Ørsta", "addr:country": "NO", "socket:type2_combo": "6", "socket:type2_combo:output": "200.0 kW", "socket:chademo": "2", "socket:chademo:output": "50.0 kW", "charging_station:output": "200.0 kW", "capacity": "6", "_source": "worldwide"}}, {"type": "node", "id": 11169096725, "lat": 62.529111, "lon": 6.116402, "tags": {"amenity": "charging_station", "access": "yes", "brand": "Eviny", "name": "Eviny Rema 1000 Giske", "addr:country": "NO", "socket:type2": "1", "socket:type2:output": "22.0 kW", "socket:type2_combo": "5", "socket:type2_combo:output": "150.0 kW", "socket:chademo": "3", "socket:chademo:output": "62.0 kW", "charging_station:output": "150.0 kW", "capacity": "6", "_source": "worldwide"}}, {"type": "node", "id": 11169096726, "lat": 62.307454, "lon": 6.945529, "tags": {"amenity": "charging_station", "access": "yes", "brand": "Eviny", "name": "Eviny Stranda", "addr:country": "NO", "socket:type2": "1", "socket:type2:output": "22.0 kW", "socket:type2_combo": "4", "socket:type2_combo:output": "150.0 kW", "socket:chademo": "3", "socket:chademo:output": "62.0 kW", "charging_station:output": "150.0 kW", "capacity": "5", "_source": "worldwide"}}, {"type": "node", "id": 11169096727, "lat": 62.432377, "lon": 6.413565, "tags": {"amenity": "charging_station", "access": "yes", "brand": "Eviny", "name": "Eviny Rema 1000 Flisnes", "addr:country": "NO", "socket:type2": "1", "socket:type2:output": "22.0 kW", "socket:type2_combo": "4", "socket:type2_combo:output": "150.0 kW", "socket:chademo": "3", "socket:chademo:output": "62.0 kW", "charging_station:output": "150.0 kW", "capacity": "5", "_source": "worldwide"}}, {"type": "node", "id": 11169096733, "lat": 62.803756, "lon": 6.887881, "tags": {"amenity": "charging_station", "access": "yes", "brand": "Eviny", "name": "Eviny Aukra", "addr:country": "NO", "socket:type2": "2", "socket:type2:output": "22.0 kW", "socket:type2_combo": "4", "socket:type2_combo:output": "200.0 kW", "socket:chademo": "2", "socket:chademo:output": "50.0 kW", "charging_station:output": "200.0 kW", "capacity": "6", "_source": "worldwide"}}, {"type": "node", "id": 11169096734, "lat": 62.90662, "lon": 6.917583, "tags": {"amenity": "charging_station", "access": "yes", "brand": "Eviny", "name": "Eviny Bud", "addr:country": "NO", "socket:type2": "1", "socket:type2:output": "22.0 kW", "socket:type2_combo": "2", "socket:type2_combo:output": "50.0 kW", "socket:chademo": "2", "socket:chademo:output": "50.0 kW", "charging_station:output": "50.0 kW", "capacity": "3", "_source": "worldwide"}}, {"type": "node", "id": 11172580271, "lat": 62.444087, "lon": 6.366186, "tags": {"amenity": "charging_station", "access": "yes", "brand": "Recharge", "name": "Recharge Shell Vegsund", "addr:country": "NO", "socket:type2_combo": "8", "socket:type2_combo:output": "200.0 kW", "socket:chademo": "2", "socket:chademo:output": "62.0 kW", "charging_station:output": "200.0 kW", "capacity": "8", "_source": "worldwide"}}, {"type": "node", "id": 11172580272, "lat": 62.467072, "lon": 6.361724, "tags": {"amenity": "charging_station", "access": "yes", "brand": "Recharge", "name": "Recharge Esso Spjelkavik", "addr:country": "NO", "socket:type2_combo": "6", "socket:type2_combo:output": "200.0 kW", "socket:chademo": "2", "socket:chademo:output": "62.0 kW", "charging_station:output": "200.0 kW", "capacity": "6", "_source": "worldwide"}}, {"type": "node", "id": 11173760420, "lat": 62.465468, "lon": 6.348791, "tags": {"amenity": "charging_station", "access": "yes", "brand": "Circle K", "name": "Circle K Moa", "addr:country": "NO", "socket:type2_combo": "6", "socket:type2_combo:output": "300.0 kW", "socket:chademo": "3", "socket:chademo:output": "62.0 kW", "charging_station:output": "300.0 kW", "capacity": "6", "_source": "worldwide"}}, {"type": "node", "id": 11184655612, "lat": 62.470058, "lon": 6.135254, "tags": {"amenity": "charging_station", "access": "yes", "brand": "Kople", "name": "Kople Skutvika Ålesund", "addr:country": "NO", "socket:type2": "8", "socket:type2:output": "7.4 kW", "socket:type2_combo": "2", "socket:type2_combo:output": "22.0 kW", "socket:chademo": "1", "socket:chademo:output": "22.0 kW", "charging_station:output": "22.0 kW", "capacity": "10", "_source": "worldwide"}}, {"type": "node", "id": 11184655614, "lat": 62.472764, "lon": 6.339992, "tags": {"amenity": "charging_station", "access": "yes", "brand": "Kople", "name": "Kople Breiviksenteret Ålesund", "addr:country": "NO", "socket:type2_combo": "2", "socket:type2_combo:output": "250.0 kW", "charging_station:output": "250.0 kW", "capacity": "2", "_source": "worldwide"}}, {"type": "node", "id": 11349773601, "lat": 62.470603, "lon": 6.175431, "tags": {"amenity": "charging_station", "addr:country": "NO", "_source": "worldwide"}}, {"type": "node", "id": 12755217975, "lat": 62.47226, "lon": 6.3375, "tags": {"amenity": "charging_station", "access": "yes", "brand": "Ragde Charge", "name": "Ragde Charge Breiviksenteret", "addr:country": "NO", "socket:type2_combo": "4", "socket:type2_combo:output": "250.0 kW", "charging_station:output": "250.0 kW", "capacity": "4", "_source": "worldwide"}}, {"type": "node", "id": 12776905121, "lat": 62.484181, "lon": 6.377818, "tags": {"amenity": "charging_station", "access": "yes", "brand": "Eviny", "name": "Eviny PostNord Ålesund", "addr:country": "NO", "socket:type2": "6", "socket:type2:output": "22.0 kW", "socket:type2_combo": "4", "socket:type2_combo:output": "350.0 kW", "charging_station:output": "350.0 kW", "capacity": "10", "_source": "worldwide"}}, {"type": "node", "id": 12798433922, "lat": 62.146855, "lon": 6.088733, "tags": {"amenity": "charging_station", "access": "yes", "brand": "Recharge", "name": "Recharge Kiwi Volda", "addr:country": "NO", "socket:type2_combo": "6", "socket:type2_combo:output": "400.0 kW", "socket:chademo": "2", "socket:chademo:output": "50.0 kW", "charging_station:output": "400.0 kW", "capacity": "6", "_source": "worldwide"}}, {"type": "node", "id": 12798433923, "lat": 62.471299, "lon": 6.20708, "tags": {"amenity": "charging_station", "access": "yes", "brand": "Recharge", "name": "Recharge Kiwi Nørvegata", "addr:country": "NO", "socket:type2_combo": "6", "socket:type2_combo:output": "400.0 kW", "socket:chademo": "2", "socket:chademo:output": "50.0 kW", "charging_station:output": "400.0 kW", "capacity": "6", "_source": "worldwide"}}, {"type": "node", "id": 1395498134, "lat": 62.520191, "lon": 6.916015, "tags": {"amenity": "charging_station", "access": "yes", "fee": "yes", "brand": "Tesla Supercharger", "opening_hours": "24/7", "operator": "Tesla", "name": "Tesla Ørskog Supercharger", "addr:country": "NO", "socket:type2_combo": "12", "socket:type2_combo:output": "150.0 kW", "socket:tesla_supercharger": "12", "socket:tesla_supercharger:output": "150.0 kW", "charging_station:output": "150.0 kW", "capacity": "12", "_source": "worldwide"}}]}