{"id": "59-8", "latMin": 59, "lonMin": 8, "latMax": 60, "lonMax": 9, "generated": "2026-04-16T18:39:08.777Z", "count": 23, "pois": [{"type": "node", "id": 4449250499, "lat": 59.480867, "lon": 8.636026, "tags": {"amenity": "charging_station", "access": "yes", "brand": "Recharge", "opening_hours": "24/7", "operator": "Recharge", "name": "Recharge Sjøormen Kro", "addr:country": "NO", "socket:type2": "1", "socket:type2:output": "11.0 kW", "socket:type2_combo": "2", "socket:type2_combo:output": "50.0 kW", "socket:chademo": "2", "socket:chademo:output": "50.0 kW", "charging_station:output": "50.0 kW", "capacity": "3", "_source": "worldwide"}}, {"type": "node", "id": 4961454365, "lat": 59.483838, "lon": 8.628311, "tags": {"amenity": "charging_station", "access": "yes", "brand": "Circle K", "name": "Circle K Seljord", "addr:country": "NO", "socket:type2_combo": "2", "socket:type2_combo:output": "50.0 kW", "socket:chademo": "2", "socket:chademo:output": "50.0 kW", "charging_station:output": "50.0 kW", "capacity": "2", "_source": "worldwide"}}, {"type": "node", "id": 6017102063, "lat": 59.4817, "lon": 8.629101, "tags": {"amenity": "charging_station", "access": "customers", "opening_hours": "24/7", "operator": "Meny", "name": "Vekanvegen", "addr:country": "NO", "socket:type2": "1", "socket:type2:output": "3.6 kW", "socket:type1": "1", "socket:type1:output": "3.6 kW", "charging_station:output": "3.6 kW", "capacity": "2", "_source": "worldwide"}}, {"type": "node", "id": 11169096569, "lat": 59.480508, "lon": 8.631279, "tags": {"amenity": "charging_station", "access": "yes", "brand": "Eviny", "name": "Eviny Rema 1000 Seljord", "addr:country": "NO", "socket:type2_combo": "4", "socket:type2_combo:output": "200.0 kW", "socket:chademo": "2", "socket:chademo:output": "62.0 kW", "charging_station:output": "200.0 kW", "capacity": "4", "_source": "worldwide"}}, {"type": "node", "id": 11172580118, "lat": 59.480571, "lon": 8.635134, "tags": {"amenity": "charging_station", "access": "yes", "brand": "Recharge", "opening_hours": "24/7", "operator": "Recharge", "name": "Recharge Shell Sjøormen", "addr:country": "NO", "socket:type2_combo": "8", "socket:type2_combo:output": "200.0 kW", "socket:chademo": "2", "socket:chademo:output": "62.0 kW", "charging_station:output": "200.0 kW", "capacity": "8", "_source": "worldwide"}}, {"type": "node", "id": 5065939848, "lat": 59.020051, "lon": 8.52095, "tags": {"amenity": "charging_station", "access": "customers", "opening_hours": "24/7", "operator": "Jakob Tveit AS", "name": "Jakob Tveit", "addr:country": "NO", "socket:type2": "1", "socket:type2:output": "3.6 kW", "charging_station:output": "3.6 kW", "capacity": "1", "_source": "worldwide"}}, {"type": "node", "id": 6017102074, "lat": 59.018614, "lon": 8.523539, "tags": {"amenity": "charging_station", "access": "yes", "brand": "Eviny", "opening_hours": "24/7", "name": "Eviny Treungen", "addr:country": "NO", "socket:type2_combo": "6", "socket:type2_combo:output": "350.0 kW", "socket:chademo": "1", "socket:chademo:output": "50.0 kW", "charging_station:output": "350.0 kW", "capacity": "6", "_source": "worldwide"}}, {"type": "node", "id": 6017102048, "lat": 59.324397, "lon": 8.496375, "tags": {"amenity": "charging_station", "access": "customers", "brand": "Tesla", "opening_hours": "24/7", "operator": "Straand Hotel", "name": "Straand Hotel - Tesla", "addr:country": "NO", "socket:type2": "3", "socket:type2:output": "7.4 kW", "charging_station:output": "7.4 kW", "capacity": "3", "_source": "worldwide"}}, {"type": "node", "id": 6017102057, "lat": 59.401652, "lon": 8.488748, "tags": {"amenity": "charging_station", "access": "yes", "brand": "Recharge", "opening_hours": "24/7", "name": "Recharge Kviteseid", "addr:country": "NO", "socket:type2": "2", "socket:type2:output": "11.0 kW", "socket:type2_combo": "1", "socket:type2_combo:output": "50.0 kW", "socket:chademo": "1", "socket:chademo:output": "50.0 kW", "charging_station:output": "50.0 kW", "capacity": "3", "_source": "worldwide"}}, {"type": "node", "id": 6017102068, "lat": 59.877549, "lon": 8.586368, "tags": {"amenity": "charging_station", "access": "yes", "brand": "Recharge", "opening_hours": "24/7", "name": "Recharge Rjukan", "addr:country": "NO", "socket:type2": "2", "socket:type2:output": "11.0 kW", "socket:type2_combo": "2", "socket:type2_combo:output": "50.0 kW", "socket:chademo": "2", "socket:chademo:output": "50.0 kW", "charging_station:output": "50.0 kW", "capacity": "4", "_source": "worldwide"}}, {"type": "node", "id": 12036217965, "lat": 59.878656, "lon": 8.585975, "tags": {"amenity": "charging_station", "addr:country": "NO", "_source": "worldwide"}}, {"type": "node", "id": 6017102072, "lat": 59.570498, "lon": 8.547513, "tags": {"amenity": "charging_station", "access": "customers", "opening_hours": "24/7", "operator": "Jarand Barstad", "name": "Nutheim Gjestgiveri", "addr:country": "NO", "socket:type2": "8", "socket:type2:output": "22.0 kW", "charging_station:output": "22.0 kW", "capacity": "8", "_source": "worldwide"}}, {"type": "node", "id": 6017102073, "lat": 59.31377, "lon": 8.13435, "tags": {"amenity": "charging_station", "access": "yes", "opening_hours": "24/7", "operator": "Telemark Camping & Inn", "name": "Telemark camping & Inn", "addr:country": "NO", "socket:type2": "3", "socket:type2:output": "7.4 kW", "charging_station:output": "7.4 kW", "capacity": "3", "_source": "worldwide"}}, {"type": "node", "id": 6017102081, "lat": 59.879923, "lon": 8.73871, "tags": {"amenity": "charging_station", "access": "customers", "opening_hours": "24/7", "operator": "Kvitåvatn Fjellstoge", "name": "Kvitåvatn Fjellstoge", "addr:country": "NO", "socket:type2": "3", "socket:type2:output": "11.0 kW", "charging_station:output": "11.0 kW", "capacity": "3", "_source": "worldwide"}}, {"type": "node", "id": 6017105190, "lat": 59.613589, "lon": 8.946996, "tags": {"amenity": "charging_station", "access": "yes", "brand": "Recharge", "opening_hours": "24/7", "name": "Recharge Saulandstunet", "addr:country": "NO", "socket:type2": "3", "socket:type2:output": "11.0 kW", "socket:type2_combo": "4", "socket:type2_combo:output": "150.0 kW", "socket:chademo": "4", "socket:chademo:output": "62.0 kW", "charging_station:output": "150.0 kW", "capacity": "7", "_source": "worldwide"}}, {"type": "node", "id": 7064714646, "lat": 59.494792, "lon": 8.203292, "tags": {"amenity": "charging_station", "access": "yes", "brand": "Circle K", "name": "Circle K Høydalsmo", "addr:country": "NO", "socket:type2_combo": "3", "socket:type2_combo:output": "180.0 kW", "socket:chademo": "1", "socket:chademo:output": "62.0 kW", "charging_station:output": "180.0 kW", "capacity": "3", "_source": "worldwide"}}, {"type": "node", "id": 11169096570, "lat": 59.695849, "lon": 8.066953, "tags": {"amenity": "charging_station", "access": "yes", "brand": "Eviny", "name": "Eviny Spar Rauland", "addr:country": "NO", "socket:type2_combo": "8", "socket:type2_combo:output": "350.0 kW", "socket:chademo": "2", "socket:chademo:output": "50.0 kW", "charging_station:output": "350.0 kW", "capacity": "8", "_source": "worldwide"}}, {"type": "node", "id": 11169096571, "lat": 59.445425, "lon": 8.022965, "tags": {"amenity": "charging_station", "access": "yes", "brand": "Eviny", "name": "Eviny Dalen Telemarkskanalen", "addr:country": "NO", "socket:type2": "5", "socket:type2:output": "22.0 kW", "socket:type2_combo": "1", "socket:type2_combo:output": "50.0 kW", "socket:chademo": "1", "socket:chademo:output": "50.0 kW", "charging_station:output": "50.0 kW", "capacity": "6", "_source": "worldwide"}}, {"type": "node", "id": 11169096572, "lat": 59.18506, "lon": 8.090582, "tags": {"amenity": "charging_station", "access": "yes", "brand": "Eviny", "name": "Eviny Spar Fyresdal", "addr:country": "NO", "socket:type2_combo": "4", "socket:type2_combo:output": "350.0 kW", "socket:chademo": "1", "socket:chademo:output": "50.0 kW", "charging_station:output": "350.0 kW", "capacity": "4", "_source": "worldwide"}}, {"type": "node", "id": 11169096580, "lat": 59.879046, "lon": 8.597517, "tags": {"amenity": "charging_station", "access": "yes", "brand": "Eviny", "name": "Eviny Rjukan", "addr:country": "NO", "socket:type2": "5", "socket:type2:output": "22.0 kW", "socket:type2_combo": "6", "socket:type2_combo:output": "200.0 kW", "socket:chademo": "1", "socket:chademo:output": "50.0 kW", "charging_station:output": "200.0 kW", "capacity": "11", "_source": "worldwide"}}, {"type": "node", "id": 11169096597, "lat": 59.995351, "lon": 8.824865, "tags": {"amenity": "charging_station", "access": "yes", "brand": "Eviny", "name": "Eviny Tinn Austbygd", "addr:country": "NO", "socket:type2_combo": "4", "socket:type2_combo:output": "200.0 kW", "socket:chademo": "1", "socket:chademo:output": "50.0 kW", "charging_station:output": "200.0 kW", "capacity": "4", "_source": "worldwide"}}, {"type": "node", "id": 11197209575, "lat": 59.880385, "lon": 8.625783, "tags": {"amenity": "charging_station", "access": "yes", "fee": "yes", "brand": "Tesla Supercharger", "opening_hours": "24/7", "operator": "Tesla", "name": "Tesla Rjukan Supercharger", "addr:country": "NO", "socket:type2_combo": "6", "socket:type2_combo:output": "250.0 kW", "charging_station:output": "250.0 kW", "capacity": "6", "_source": "worldwide"}}, {"type": "node", "id": 12824194897, "lat": 59.062583, "lon": 8.727999, "tags": {"amenity": "charging_station", "access": "yes", "brand": "Kople", "name": "Kople Gautefall", "addr:country": "NO", "socket:type2_combo": "3", "socket:type2_combo:output": "75.0 kW", "socket:chademo": "1", "socket:chademo:output": "62.0 kW", "charging_station:output": "75.0 kW", "capacity": "3", "_source": "worldwide"}}]}