{"id": "37-32", "latMin": 37, "lonMin": 32, "latMax": 38, "lonMax": 33, "generated": "2026-04-16T18:39:07.626Z", "count": 13, "pois": [{"type": "node", "id": 5724401108, "lat": 37.970303, "lon": 32.639265, "tags": {"amenity": "charging_station", "fee": "yes", "opening_hours": "08:00-18:00", "operator": "VOLTRUN", "name": "UNILEVER VECTOR", "socket:type2": "2", "socket:type2:output": "22 kW", "charging_station:output": "22 kW", "capacity": "2", "_source": "worldwide"}}, {"type": "node", "id": 6814092975, "lat": 37.933849, "lon": 32.537084, "tags": {"amenity": "charging_station", "fee": "yes", "opening_hours": "24/7", "operator": "SHARZ", "name": "SHARZ - Lukoil Yılmaz Petrolv", "socket:type2": "1", "socket:type2:output": "22 kW", "charging_station:output": "22 kW", "capacity": "1", "_source": "worldwide"}}, {"type": "node", "id": 7077989419, "lat": 37.933186, "lon": 32.5368, "tags": {"amenity": "charging_station", "fee": "yes", "opening_hours": "24/7", "operator": "SHARZ", "name": "SHARZ Kulluk Lukoil", "addr:street": "Fevzi Çakmak Mahallesi", "addr:city": "KARATAY", "socket:type2": "1", "socket:type2:output": "22 kW", "charging_station:output": "22 kW", "_source": "worldwide"}}, {"type": "node", "id": 7077989452, "lat": 37.930787, "lon": 32.533743, "tags": {"amenity": "charging_station", "fee": "yes", "opening_hours": "24/7", "operator": "SHARZ", "name": "SHARZ Bayırpetrol 1", "addr:street": "FEVZİ ÇAKMAK MH.ANKARA CD.NO:240", "addr:city": "AHIRLI", "socket:type2": "1", "socket:type2:output": "22 kW", "charging_station:output": "22 kW", "_source": "worldwide"}}, {"type": "node", "id": 6814092991, "lat": 37.924183, "lon": 32.527205, "tags": {"amenity": "charging_station", "fee": "no", "opening_hours": "24/7", "operator": "Renault", "name": "Renault - Çelik A.Ş.", "socket:type2": "2", "socket:type2:output": "22 kW", "charging_station:output": "22 kW", "capacity": "2", "_source": "worldwide"}}, {"type": "node", "id": 6814092992, "lat": 37.893713, "lon": 32.476023, "tags": {"amenity": "charging_station", "opening_hours": "24/7", "operator": "Dedeman Otel", "name": "Dedeman Otel Konya", "socket:type2": "1", "socket:type2:output": "22 kW", "charging_station:output": "22 kW", "capacity": "1", "_source": "worldwide"}}, {"type": "node", "id": 6814092994, "lat": 37.863524, "lon": 32.470588, "tags": {"amenity": "charging_station", "fee": "yes", "opening_hours": "24/7", "operator": "SHARZ", "name": "SHARZ - Lukoil Yılmaz Petrol (Not Active Yet)", "socket:type2": "1", "socket:type2:output": "22 kW", "charging_station:output": "22 kW", "capacity": "1", "_source": "worldwide"}}, {"type": "node", "id": 7077951370, "lat": 37.906448, "lon": 32.528659, "tags": {"amenity": "charging_station", "fee": "yes", "opening_hours": "24/7", "operator": "SHARZ", "name": "SHARZ Kulluk Lukoil 2", "addr:street": "Fevzi Çakmak Mahallesi 42050", "addr:city": "KARATAY", "socket:type2": "1", "socket:type2:output": "22 kW", "charging_station:output": "22 kW", "_source": "worldwide"}}, {"type": "node", "id": 9444521401, "lat": 37.753236, "lon": 32.182238, "tags": {"amenity": "charging_station", "brand": "Tesla Supercharger", "operator": "Tesla", "name": "Tesla Supercharger", "_source": "worldwide"}}, {"type": "node", "id": 11379606769, "lat": 37.925798, "lon": 32.509101, "tags": {"amenity": "charging_station", "name": "Astorşarj", "_source": "worldwide"}}, {"type": "node", "id": 12813626891, "lat": 37.915947, "lon": 32.519532, "tags": {"amenity": "charging_station", "access": "yes", "brand": "D-Charge Gökmen Konya Volkswagen", "name": "Ladestation D-Charge Gökmen Konya Volkswagen", "capacity": "1", "_source": "worldwide"}}, {"type": "node", "id": 12813626892, "lat": 37.915184, "lon": 32.519019, "tags": {"amenity": "charging_station", "brand": "D-Charge Attarlar Konya Audi", "name": "Ladestation D-Charge Attarlar Konya Audi", "capacity": "4", "_source": "worldwide"}}, {"type": "node", "id": 13072138808, "lat": 37.750194, "lon": 32.102597, "tags": {"amenity": "charging_station", "access": "yes", "fee": "yes", "operator": "ECON", "name": "ECON Şarj İstasyonu", "capacity": "4", "_source": "worldwide"}}]}