{"id": "48-5", "latMin": 48, "lonMin": 5, "latMax": 49, "lonMax": 6, "generated": "2026-04-16T18:39:08.193Z", "count": 93, "pois": [{"type": "node", "id": 3988130190, "lat": 48.347027, "lon": 5.692645, "tags": {"amenity": "charging_station", "fee": "no", "opening_hours": "Mo-Fr 08:30-12:00, 14:00-18:30", "operator": "Renault", "name": "Renault Neufchâteau", "addr:country": "DE", "capacity": "1", "_source": "worldwide"}}, {"type": "node", "id": 3988130193, "lat": 48.203589, "lon": 5.938859, "tags": {"amenity": "charging_station", "fee": "no", "opening_hours": "Mo-Fr 08:00-12:00,14:00-17:00; Sa 08:00-12:00", "operator": "Renault", "name": "Renault Vittel", "addr:country": "DE", "capacity": "1", "_source": "worldwide"}}, {"type": "node", "id": 3988378452, "lat": 48.361968, "lon": 5.738789, "tags": {"amenity": "charging_station", "access": "yes", "fee": "yes", "opening_hours": "24/7", "operator": "Communauté de communes Bassin de Neufchâteau", "name": "Rollainville - Aire de service", "addr:country": "DE", "socket:cee_blue": "2", "socket:cee_blue:output": "3.7 kW", "charging_station:output": "3.7 kW", "capacity": "2", "authentication:none": "yes", "_source": "worldwide"}}, {"type": "node", "id": 5126734016, "lat": 48.766956, "lon": 5.175309, "tags": {"amenity": "charging_station", "fee": "no", "opening_hours": "Mo-Sa 08:00-18:00; Mo-Fr 08:00-18:00", "operator": "Renault", "name": "Ladestation Renault", "addr:country": "DE", "_source": "worldwide"}}, {"type": "node", "id": 11648801771, "lat": 48.766473, "lon": 5.175907, "tags": {"amenity": "charging_station", "fee": "yes", "network": "Stations-e", "opening_hours": "24/7", "operator": "Stations-e", "name": "Ladestation Stations-e", "addr:country": "DE", "socket:type2": "1", "socket:type2:output": "22 kW", "socket:type2_combo": "2", "socket:type2_combo:output": "50 kW", "charging_station:output": "50 kW", "capacity": "3", "authentication:none": "yes", "_source": "worldwide"}}, {"type": "node", "id": 5126734018, "lat": 48.610132, "lon": 5.39693, "tags": {"amenity": "charging_station", "fee": "yes", "opening_hours": "24/7", "operator": "modulo-energies.fr", "name": "Ladestation modulo-energies.fr", "addr:country": "DE", "socket:type2": "2", "socket:type2:output": "22 kW", "socket:schuko": "2", "socket:schuko:output": "2.3 kW", "charging_station:output": "22 kW", "_source": "worldwide"}}, {"type": "node", "id": 5126734019, "lat": 48.67491, "lon": 5.927736, "tags": {"amenity": "charging_station", "opening_hours": "Mo-Su 05:00-22:00", "addr:country": "DE", "socket:type2": "4", "socket:type2:output": "22 kW", "socket:schuko": "1", "socket:schuko:output": "2.3 kW", "charging_station:output": "22 kW", "capacity": "4", "_source": "worldwide"}}, {"type": "node", "id": 9053395319, "lat": 48.673222, "lon": 5.923927, "tags": {"amenity": "charging_station", "fee": "no", "addr:country": "DE", "capacity": "2", "_source": "worldwide"}}, {"type": "node", "id": 12064456213, "lat": 48.672849, "lon": 5.92535, "tags": {"amenity": "charging_station", "access": "yes", "fee": "yes", "brand": "Ionity", "network": "Ionity", "opening_hours": "24/7", "operator": "IONITY", "name": "Ionity Dommartin", "addr:country": "DE", "socket:type2_combo": "12", "socket:type2_combo:output": "350.0 kW", "charging_station:output": "350.0 kW", "capacity": "12", "_source": "worldwide"}}, {"type": "node", "id": 5536292940, "lat": 48.266966, "lon": 5.863338, "tags": {"amenity": "charging_station", "access": "yes", "fee": "yes", "opening_hours": "24/7", "operator": "Total Energies", "name": "Relais Lorraine les Rappes", "addr:country": "DE", "socket:type2_combo": "5", "socket:type2_combo:output": "175.0 kW", "charging_station:output": "175.0 kW", "capacity": "6", "authentication:none": "", "_source": "worldwide"}}, {"type": "node", "id": 13325612741, "lat": 48.268131, "lon": 5.860545, "tags": {"amenity": "charging_station", "fee": "yes", "network": "e-Vadea", "opening_hours": "24/7", "operator": "SPIE CityNetworks", "name": "SPIE CityNetworks - e-Vadea", "addr:country": "DE", "socket:type2": "5", "socket:type2:output": "22 kW", "socket:type2_combo": "6", "socket:type2_combo:output": "50 kW", "socket:chademo": "5", "socket:chademo:output": "50 kW", "charging_station:output": "50 kW", "wheelchair": "yes", "authentication:none": "yes", "_source": "worldwide"}}, {"type": "node", "id": 5536292941, "lat": 48.268771, "lon": 5.860278, "tags": {"amenity": "charging_station", "fee": "yes", "network": "Corri-dor", "opening_hours": "24/7", "operator": "Sodetrel Mobilité", "name": "Aire de Lorraine Sandaucourt-la-Trelle", "addr:country": "DE", "socket:type2": "1", "socket:type2:output": "43.0 kW", "socket:type2_combo": "1", "socket:type2_combo:output": "50.0 kW", "socket:chademo": "1", "socket:chademo:output": "50.0 kW", "charging_station:output": "50.0 kW", "capacity": "1", "authentication:none": "", "_source": "worldwide"}}, {"type": "node", "id": 5536450775, "lat": 48.659935, "lon": 5.908127, "tags": {"amenity": "charging_station", "access": "yes", "fee": "yes", "brand": "alpitronic", "opening_hours": "24/7", "operator": "TotalEnergies", "name": "TotalEnergies - alpitronic", "addr:country": "DE", "socket:type2": "2", "socket:type2:output": "150.0 kW", "socket:chademo": "2", "socket:chademo:output": "150.0 kW", "charging_station:output": "150.0 kW", "capacity": "16", "authentication:none": "", "_source": "worldwide"}}, {"type": "node", "id": 5725910000, "lat": 48.973307, "lon": 5.511112, "tags": {"amenity": "charging_station", "fee": "yes", "network": "MODULO", "opening_hours": "24/7", "operator": "Virta", "name": "Modulo", "addr:country": "DE", "socket:type2": "2", "socket:type2:output": "22.0 kW", "charging_station:output": "22.0 kW", "capacity": "2", "wheelchair": "yes", "_source": "worldwide"}}, {"type": "node", "id": 5725980840, "lat": 48.976429, "lon": 5.701714, "tags": {"amenity": "charging_station", "fee": "yes", "opening_hours": "24/7", "operator": "FUCLEM", "name": "Ladestation FUCLEM", "addr:country": "DE", "socket:type2": "2", "socket:type2:output": "22.0 kW", "charging_station:output": "22.0 kW", "capacity": "2", "_source": "worldwide"}}, {"type": "node", "id": 5725980841, "lat": 48.979703, "lon": 5.711869, "tags": {"amenity": "charging_station", "fee": "no", "name": "Renault", "addr:country": "DE", "socket:schuko": "1", "socket:schuko:output": "2.3 kW", "charging_station:output": "2.3 kW", "authentication:none": "yes", "_source": "worldwide"}}, {"type": "node", "id": 6001077806, "lat": 48.766646, "lon": 5.1592, "tags": {"amenity": "charging_station", "fee": "yes", "opening_hours": "24/7", "operator": "FUCLEM", "name": "Ladestation FUCLEM", "addr:country": "DE", "socket:type2": "2", "socket:type2:output": "22.0 kW", "charging_station:output": "22.0 kW", "capacity": "2", "_source": "worldwide"}}, {"type": "node", "id": 6153884167, "lat": 48.780162, "lon": 5.167616, "tags": {"amenity": "charging_station", "fee": "yes", "opening_hours": "24/7", "operator": "FUCLEM", "name": "Ladestation FUCLEM", "addr:country": "DE", "socket:type2": "2", "socket:type2:output": "22.0 kW", "charging_station:output": "22.0 kW", "capacity": "2", "_source": "worldwide"}}, {"type": "node", "id": 6153884168, "lat": 48.776402, "lon": 5.159686, "tags": {"amenity": "charging_station", "fee": "yes", "opening_hours": "24/7", "operator": "FUCLEM", "name": "Ladestation FUCLEM", "addr:country": "DE", "socket:type2": "2", "socket:type2:output": "22.0 kW", "charging_station:output": "22.0 kW", "capacity": "2", "_source": "worldwide"}}, {"type": "node", "id": 6153884171, "lat": 48.775109, "lon": 5.162311, "tags": {"amenity": "charging_station", "fee": "yes", "opening_hours": "24/7", "operator": "FUCLEM", "name": "Ladestation FUCLEM", "addr:country": "DE", "socket:type2": "2", "socket:type2:output": "22.0 kW", "charging_station:output": "22.0 kW", "capacity": "2", "_source": "worldwide"}}, {"type": "node", "id": 6153884169, "lat": 48.773143, "lon": 5.167, "tags": {"amenity": "charging_station", "fee": "yes", "opening_hours": "24/7", "operator": "FUCLEM", "name": "Ladestation FUCLEM", "addr:country": "DE", "socket:type2": "2", "socket:type2:output": "22.0 kW", "charging_station:output": "22.0 kW", "capacity": "2", "_source": "worldwide"}}, {"type": "node", "id": 11109171400, "lat": 48.768588, "lon": 5.167409, "tags": {"amenity": "charging_station", "fee": "yes", "network": "BAR LE DUC - 81267 - Cinéma", "opening_hours": "24/7", "operator": "BAR LE DUC - 81267 - Cinéma", "name": "Ladestation BAR LE DUC - 81267 - Cinéma", "addr:country": "DE", "socket:type2": "1", "socket:type2:output": "22 kW", "charging_station:output": "22 kW", "_source": "worldwide"}}, {"type": "node", "id": 6283083279, "lat": 48.892537, "lon": 5.540539, "tags": {"amenity": "charging_station", "fee": "yes", "network": "MODULO", "opening_hours": "24/7", "operator": "Virta", "name": "Virta - MODULO", "addr:country": "DE", "socket:type2": "2", "socket:type2:output": "22.0 kW", "charging_station:output": "22.0 kW", "capacity": "2", "wheelchair": "yes", "_source": "worldwide"}}, {"type": "node", "id": 7067993169, "lat": 48.684663, "lon": 5.324928, "tags": {"amenity": "charging_station", "fee": "yes", "operator": "modulo", "name": "Ladestation modulo", "addr:country": "DE", "_source": "worldwide"}}, {"type": "node", "id": 7067993170, "lat": 48.690914, "lon": 5.319391, "tags": {"amenity": "charging_station", "fee": "yes", "operator": "modulo energies", "name": "Ladestation modulo energies", "addr:country": "DE", "socket:type2_combo": "1", "socket:type2_combo:output": "50 kW", "socket:chademo": "1", "socket:chademo:output": "50 kW", "charging_station:output": "50 kW", "_source": "worldwide"}}, {"type": "node", "id": 7117282216, "lat": 48.69058, "lon": 5.623032, "tags": {"amenity": "charging_station", "addr:country": "DE", "_source": "worldwide"}}, {"type": "node", "id": 7117313900, "lat": 48.821337, "lon": 5.511858, "tags": {"amenity": "charging_station", "network": "MODULO", "opening_hours": "24/7", "operator": "Virta", "name": "Virta - MODULO", "addr:country": "DE", "socket:type2": "2", "socket:type2:output": "22 kW", "charging_station:output": "22 kW", "capacity": "2", "wheelchair": "yes", "_source": "worldwide"}}, {"type": "node", "id": 7196177406, "lat": 48.528017, "lon": 5.897905, "tags": {"amenity": "charging_station", "fee": "yes", "network": "eCharge54", "opening_hours": "24/7", "operator": "Citeos", "name": "Citeos - eCharge54", "addr:country": "DE", "socket:type2": "2", "socket:type2:output": "22.0 kW", "charging_station:output": "22.0 kW", "capacity": "2", "_source": "worldwide"}}, {"type": "node", "id": 7236649176, "lat": 48.545805, "lon": 5.908174, "tags": {"amenity": "charging_station", "addr:country": "DE", "_source": "worldwide"}}, {"type": "node", "id": 7835282690, "lat": 48.188964, "lon": 5.883368, "tags": {"amenity": "charging_station", "access": "yes", "fee": "no", "brand": "Hager", "opening_hours": "Mo-Sa 08:30-20:00", "operator": "Aldi", "name": "Contrexéville - Aldi", "addr:country": "DE", "socket:type2": "2", "socket:type2:output": "22.0 kW", "charging_station:output": "22.0 kW", "capacity": "2", "_source": "worldwide"}}, {"type": "node", "id": 7835289054, "lat": 48.209944, "lon": 5.831317, "tags": {"amenity": "charging_station", "access": "yes", "fee": "yes", "network": "Freshmile", "operator": "Freshmile", "name": "Bulgnéville - Rue du Rhulemoine", "addr:country": "DE", "socket:type2": "2", "socket:type2:output": "22.0 kW", "charging_station:output": "22.0 kW", "capacity": "2", "authentication:none": "", "_source": "worldwide"}}, {"type": "node", "id": 8396210199, "lat": 48.651196, "lon": 5.871447, "tags": {"amenity": "charging_station", "addr:country": "DE", "_source": "worldwide"}}, {"type": "node", "id": 9213011560, "lat": 48.558643, "lon": 5.270197, "tags": {"amenity": "charging_station", "operator": "Fuclem-55", "name": "Ladestation Fuclem-55", "addr:country": "DE", "capacity": "2", "_source": "worldwide"}}, {"type": "node", "id": 9822762385, "lat": 48.679034, "lon": 5.887897, "tags": {"amenity": "charging_station", "addr:country": "DE", "_source": "worldwide"}}, {"type": "node", "id": 12059988734, "lat": 48.678795, "lon": 5.881308, "tags": {"amenity": "charging_station", "access": "customers", "addr:country": "DE", "capacity": "4", "_source": "worldwide"}}, {"type": "node", "id": 12108068023, "lat": 48.67839, "lon": 5.879905, "tags": {"amenity": "charging_station", "fee": "yes", "operator": "Freshmile", "name": "Freshmile - freshmile", "addr:country": "DE", "socket:type2": "1", "socket:type2:output": "22 kW", "socket:type2_combo": "1", "socket:type2_combo:output": "50 kW", "socket:chademo": "1", "socket:chademo:output": "50 kW", "charging_station:output": "50 kW", "capacity": "2", "authentication:none": "", "_source": "worldwide"}}, {"type": "node", "id": 1384366687, "lat": 48.675364, "lon": 5.887289, "tags": {"amenity": "charging_station", "fee": "yes", "network": "Freshmile", "opening_hours": "24/7", "operator": "Freshmile", "name": "Ladestation Freshmile", "addr:country": "DE", "socket:type2": "2", "socket:type2:output": "18.0 kW", "charging_station:output": "18.0 kW", "capacity": "2", "_source": "worldwide"}}, {"type": "node", "id": 9830464371, "lat": 48.091223, "lon": 5.143728, "tags": {"amenity": "charging_station", "addr:country": "DE", "capacity": "4", "_source": "worldwide"}}, {"type": "node", "id": 13049944708, "lat": 48.088197, "lon": 5.146441, "tags": {"amenity": "charging_station", "access": "customers", "addr:country": "DE", "_source": "worldwide"}}, {"type": "node", "id": 13049944710, "lat": 48.087969, "lon": 5.147166, "tags": {"amenity": "charging_station", "access": "customers", "addr:country": "DE", "_source": "worldwide"}}, {"type": "node", "id": 10159750804, "lat": 48.679386, "lon": 5.889232, "tags": {"amenity": "charging_station", "addr:country": "DE", "_source": "worldwide"}}, {"type": "node", "id": 10240140450, "lat": 48.202512, "lon": 5.944941, "tags": {"amenity": "charging_station", "access": "yes", "fee": "yes", "brand": "DBT", "network": "Modulo", "opening_hours": "24/7", "operator": "SDEV", "name": "Vittel - Rue Robert de Flers", "addr:country": "DE", "socket:type2": "1", "socket:type2:output": "22.0 kW", "socket:type2_combo": "1", "socket:type2_combo:output": "25.0 kW", "socket:chademo": "1", "socket:chademo:output": "25.0 kW", "charging_station:output": "25.0 kW", "capacity": "2", "authentication:none": "", "_source": "worldwide"}}, {"type": "node", "id": 10240140451, "lat": 48.108264, "lon": 5.825557, "tags": {"amenity": "charging_station", "access": "yes", "fee": "yes", "brand": "DBT", "network": "Modulo", "opening_hours": "24/7", "operator": "SDEV", "name": "Martigny - Avenue de la Gare", "addr:country": "DE", "socket:type2": "1", "socket:type2:output": "22.0 kW", "socket:type2_combo": "1", "socket:type2_combo:output": "25.0 kW", "socket:chademo": "1", "socket:chademo:output": "25.0 kW", "charging_station:output": "25.0 kW", "capacity": "2", "authentication:none": "", "_source": "worldwide"}}, {"type": "node", "id": 10240255556, "lat": 48.31745, "lon": 5.58133, "tags": {"amenity": "charging_station", "access": "yes", "fee": "yes", "brand": "DBT", "network": "Modulo", "opening_hours": "24/7", "operator": "SDEV", "name": "Liffol-le-Grand - Place d'Armes", "addr:country": "DE", "socket:type2": "1", "socket:type2:output": "22 kW", "socket:type2_combo": "1", "socket:type2_combo:output": "50 kW", "socket:chademo": "1", "socket:chademo:output": "50 kW", "charging_station:output": "50 kW", "capacity": "2", "authentication:none": "", "_source": "worldwide"}}, {"type": "node", "id": 10257789377, "lat": 48.356105, "lon": 5.689785, "tags": {"amenity": "charging_station", "access": "yes", "fee": "no", "brand": "Scame", "name": "Neufchâteau - Rue de la 1re Armée Française", "addr:country": "DE", "socket:type2": "2", "socket:type2:output": "22.0 kW", "charging_station:output": "22.0 kW", "capacity": "2", "_source": "worldwide"}}, {"type": "node", "id": 10775759988, "lat": 48.354513, "lon": 5.687013, "tags": {"amenity": "charging_station", "addr:country": "DE", "_source": "worldwide"}}, {"type": "node", "id": 10589857830, "lat": 48.30312, "lon": 5.834295, "tags": {"amenity": "charging_station", "access": "yes", "fee": "yes", "brand": "Modulo", "operator": "Modulo", "name": "Modulo - Modulo", "addr:country": "DE", "capacity": "2", "_source": "worldwide"}}, {"type": "node", "id": 11645587534, "lat": 48.369644, "lon": 5.703958, "tags": {"amenity": "charging_station", "fee": "yes", "operator": "Freshmile", "name": "Ladestation Freshmile", "addr:country": "DE", "socket:type2": "8", "socket:type2:output": "22 kW", "socket:schuko": "4", "socket:schuko:output": "2.3 kW", "charging_station:output": "22 kW", "_source": "worldwide"}}, {"type": "node", "id": 13008786736, "lat": 48.367982, "lon": 5.703644, "tags": {"amenity": "charging_station", "fee": "yes", "operator": "Lidl", "name": "Lidl Neufchâteau Leclerc", "addr:country": "DE", "socket:type2_combo": "2", "socket:type2_combo:output": "50 kW", "charging_station:output": "50 kW", "authentication:none": "", "_source": "worldwide"}}, {"type": "node", "id": 13533679723, "lat": 48.370179, "lon": 5.706965, "tags": {"amenity": "charging_station", "addr:country": "DE", "_source": "worldwide"}}, {"type": "node", "id": 11003413099, "lat": 48.299573, "lon": 5.84279, "tags": {"amenity": "charging_station", "access": "yes", "fee": "yes", "brand": "Powerdot", "operator": "Powerdot", "name": "Power Dot", "addr:country": "DE", "capacity": "7", "_source": "worldwide"}}, {"type": "node", "id": 12292715219, "lat": 48.299378, "lon": 5.835181, "tags": {"amenity": "charging_station", "fee": "yes", "operator": "Vosgelis", "name": "Ladestation Vosgelis", "addr:country": "DE", "capacity": "2", "_source": "worldwide"}}, {"type": "node", "id": 11018742759, "lat": 48.567546, "lon": 5.738249, "tags": {"amenity": "charging_station", "addr:country": "DE", "_source": "worldwide"}}, {"type": "node", "id": 11109171396, "lat": 48.716915, "lon": 5.046276, "tags": {"amenity": "charging_station", "fee": "yes", "network": "L'ISLE EN RIGAULT - 66259 - Rue Henri Chevalier", "opening_hours": "24/7", "operator": "L'ISLE EN RIGAULT - 66259 - Rue Henri Chevalier", "name": "Ladestation L'ISLE EN RIGAULT - 66259 - Rue Henri Chevalier", "addr:country": "DE", "socket:type2": "1", "socket:type2:output": "22 kW", "charging_station:output": "22 kW", "_source": "worldwide"}}, {"type": "node", "id": 11109171454, "lat": 48.583754, "lon": 5.039667, "tags": {"amenity": "charging_station", "fee": "yes", "network": "Freshmile", "opening_hours": "24/7", "operator": "Freshmile", "name": "Ladestation Freshmile", "addr:country": "DE", "socket:type2": "1", "socket:type2:output": "22 kW", "charging_station:output": "22 kW", "_source": "worldwide"}}, {"type": "node", "id": 11109171458, "lat": 48.637806, "lon": 5.017258, "tags": {"amenity": "charging_station", "fee": "yes", "network": "55 ANCERVILLE-87 rue de st Dizier-66213", "opening_hours": "24/7", "operator": "55 ANCERVILLE-87 rue de st Dizier-66213", "name": "Ladestation 55 ANCERVILLE-87 rue de st Dizier-66213", "addr:country": "DE", "socket:type2": "1", "socket:type2:output": "22 kW", "charging_station:output": "22 kW", "_source": "worldwide"}}, {"type": "node", "id": 11109171460, "lat": 48.60593, "lon": 5.04174, "tags": {"amenity": "charging_station", "fee": "yes", "network": "Freshmile", "opening_hours": "24/7", "operator": "Freshmile", "name": "Ladestation Freshmile", "addr:country": "DE", "socket:type2": "1", "socket:type2:output": "22 kW", "charging_station:output": "22 kW", "_source": "worldwide"}}, {"type": "node", "id": 11109171462, "lat": 48.593992, "lon": 5.242708, "tags": {"amenity": "charging_station", "fee": "yes", "network": "55 DAMMARIE SUR SAULX-2 chemin des gendarmes-66300", "opening_hours": "24/7", "operator": "55 DAMMARIE SUR SAULX-2 chemin des gendarmes-66300", "name": "Ladestation 55 DAMMARIE SUR SAULX-2 chemin des gendarmes-66300", "addr:country": "DE", "socket:type2": "1", "socket:type2:output": "22 kW", "charging_station:output": "22 kW", "_source": "worldwide"}}, {"type": "node", "id": 11109171464, "lat": 48.524954, "lon": 5.111945, "tags": {"amenity": "charging_station", "fee": "yes", "network": "Freshmile", "opening_hours": "24/7", "operator": "Freshmile SAS", "name": "Freshmile SAS - Freshmile", "addr:country": "DE", "socket:type2": "1", "socket:type2:output": "22 kW", "charging_station:output": "22 kW", "_source": "worldwide"}}, {"type": "node", "id": 11109171465, "lat": 48.488338, "lon": 5.354515, "tags": {"amenity": "charging_station", "fee": "no", "network": "55 BURE-rond point andra-66333", "opening_hours": "24/7", "operator": "55 BURE-rond point andra-66333", "name": "Ladestation 55 BURE-rond point andra-66333", "addr:country": "DE", "socket:type2": "1", "socket:type2:output": "22 kW", "charging_station:output": "22 kW", "authentication:none": "yes", "_source": "worldwide"}}, {"type": "node", "id": 11109171472, "lat": 48.513392, "lon": 5.507144, "tags": {"amenity": "charging_station", "fee": "yes", "network": "55 GONDRECOURT-rue de la grande fontaine-66326", "opening_hours": "24/7", "operator": "55 GONDRECOURT-rue de la grande fontaine-66326", "name": "Ladestation 55 GONDRECOURT-rue de la grande fontaine-66326", "addr:country": "DE", "socket:type2": "1", "socket:type2:output": "22 kW", "charging_station:output": "22 kW", "_source": "worldwide"}}, {"type": "node", "id": 11269449413, "lat": 48.513869, "lon": 5.504403, "tags": {"amenity": "charging_station", "fee": "no", "operator": "Portes de Meuse", "name": "Ladestation Portes de Meuse", "addr:country": "DE", "socket:schuko": "2", "socket:schuko:output": "2.3 kW", "charging_station:output": "2.3 kW", "authentication:none": "yes", "_source": "worldwide"}}, {"type": "node", "id": 11190932193, "lat": 48.490876, "lon": 5.466709, "tags": {"amenity": "charging_station", "fee": "yes", "addr:country": "DE", "_source": "worldwide"}}, {"type": "node", "id": 11369657530, "lat": 48.683878, "lon": 5.084447, "tags": {"amenity": "charging_station", "fee": "yes", "addr:country": "DE", "capacity": "2", "_source": "worldwide"}}, {"type": "node", "id": 11645547861, "lat": 48.40789, "lon": 5.743008, "tags": {"amenity": "charging_station", "name": "Renault", "addr:country": "DE", "_source": "worldwide"}}, {"type": "node", "id": 11648754198, "lat": 48.580795, "lon": 5.460134, "tags": {"amenity": "charging_station", "fee": "no", "addr:country": "DE", "socket:type2": "2", "socket:type2:output": "22 kW", "socket:schuko": "2", "socket:schuko:output": "2.3 kW", "charging_station:output": "22 kW", "authentication:none": "yes", "_source": "worldwide"}}, {"type": "node", "id": 11659385842, "lat": 48.89597, "lon": 5.537503, "tags": {"amenity": "charging_station", "fee": "yes", "operator": "Lidl", "name": "Ladestation Lidl", "addr:country": "DE", "socket:type2": "4", "socket:type2:output": "22 kW", "socket:schuko": "4", "socket:schuko:output": "2.3 kW", "charging_station:output": "22 kW", "_source": "worldwide"}}, {"type": "node", "id": 11874545747, "lat": 48.679705, "lon": 5.87243, "tags": {"amenity": "charging_station", "addr:country": "DE", "capacity": "4", "_source": "worldwide"}}, {"type": "node", "id": 1434632258, "lat": 48.679096, "lon": 5.871733, "tags": {"amenity": "charging_station", "fee": "yes", "opening_hours": "24/7", "operator": "Izivia", "name": "Ladestation Izivia", "addr:country": "DE", "socket:type2": "8", "socket:type2:output": "11.0 kW", "charging_station:output": "11.0 kW", "authentication:none": "yes", "_source": "worldwide"}}, {"type": "node", "id": 12108054922, "lat": 48.755456, "lon": 5.193129, "tags": {"amenity": "charging_station", "fee": "yes", "operator": "Freshmile", "name": "Freshmile - freshmile", "addr:country": "DE", "socket:type2": "6", "socket:type2:output": "22 kW", "charging_station:output": "22 kW", "_source": "worldwide"}}, {"type": "node", "id": 12422767562, "lat": 48.366474, "lon": 5.707628, "tags": {"amenity": "charging_station", "brand": "Powerdot", "operator": "Powerdot", "name": "Powerdot", "addr:country": "DE", "_source": "worldwide"}}, {"type": "node", "id": 12434339836, "lat": 48.187145, "lon": 5.903393, "tags": {"amenity": "charging_station", "access": "private", "addr:country": "DE", "capacity": "4", "_source": "worldwide"}}, {"type": "node", "id": 13016791029, "lat": 48.123791, "lon": 5.151288, "tags": {"amenity": "charging_station", "fee": "yes", "network": "E. Leclerc", "operator": "E. Leclerc", "name": "Ladestation E. Leclerc", "addr:country": "DE", "socket:type2": "1", "socket:type2:output": "22.0 kW", "charging_station:output": "22.0 kW", "capacity": "1", "_source": "worldwide"}}, {"type": "node", "id": 13049944703, "lat": 48.086743, "lon": 5.146024, "tags": {"amenity": "charging_station", "access": "yes", "brand": "Powerdot", "operator": "Powerdot", "name": "Powerdot", "addr:country": "DE", "socket:type2": "1", "socket:type2:output": "22.0 kW", "socket:type2_combo": "3", "socket:type2_combo:output": "160.0 kW", "socket:chademo": "1", "socket:chademo:output": "50.0 kW", "charging_station:output": "160.0 kW", "capacity": "5", "_source": "worldwide"}}, {"type": "node", "id": 13049944704, "lat": 48.08679, "lon": 5.147654, "tags": {"amenity": "charging_station", "access": "yes", "addr:country": "DE", "capacity": "2", "_source": "worldwide"}}, {"type": "node", "id": 13049944706, "lat": 48.086326, "lon": 5.146591, "tags": {"amenity": "charging_station", "access": "customers", "addr:country": "DE", "capacity": "2", "_source": "worldwide"}}, {"type": "node", "id": 13049944707, "lat": 48.084725, "lon": 5.145731, "tags": {"amenity": "charging_station", "access": "customers", "addr:country": "DE", "capacity": "2", "_source": "worldwide"}}, {"type": "node", "id": 13049960509, "lat": 48.108368, "lon": 5.139575, "tags": {"amenity": "charging_station", "addr:country": "DE", "capacity": "2", "_source": "worldwide"}}, {"type": "node", "id": 13058247664, "lat": 48.941355, "lon": 5.716994, "tags": {"amenity": "charging_station", "addr:country": "DE", "_source": "worldwide"}}, {"type": "node", "id": 13524714452, "lat": 48.075433, "lon": 5.789152, "tags": {"amenity": "charging_station", "access": "yes", "brand": "Eoliberty", "name": "Ladestation Eoliberty", "addr:country": "DE", "capacity": "2", "_source": "worldwide"}}, {"type": "node", "id": 1341280963, "lat": 48.423392, "lon": 5.218082, "tags": {"amenity": "charging_station", "addr:country": "DE", "_source": "worldwide"}}, {"type": "node", "id": 1370507685, "lat": 48.978453, "lon": 5.059764, "tags": {"amenity": "charging_station", "addr:country": "DE", "capacity": "2", "_source": "worldwide"}}, {"type": "node", "id": 1384366658, "lat": 48.664249, "lon": 5.887959, "tags": {"amenity": "charging_station", "fee": "yes", "network": "Powerdot", "opening_hours": "24/7", "operator": "Powerdot France", "name": "Powerdot France - Powerdot", "addr:country": "DE", "socket:type2": "1", "socket:type2:output": "22.0 kW", "socket:chademo": "2", "socket:chademo:output": "50.0 kW", "charging_station:output": "50.0 kW", "capacity": "10", "_source": "worldwide"}}, {"type": "node", "id": 1384366662, "lat": 48.681051, "lon": 5.86118, "tags": {"amenity": "charging_station", "fee": "yes", "network": "Freshmile", "opening_hours": "24/7", "operator": "Freshmile France", "name": "Freshmile France - Freshmile", "addr:country": "DE", "socket:type2": "2", "socket:type2:output": "22.0 kW", "charging_station:output": "22.0 kW", "capacity": "3", "_source": "worldwide"}}, {"type": "node", "id": 1384366663, "lat": 48.68224, "lon": 5.862722, "tags": {"amenity": "charging_station", "fee": "yes", "network": "Freshmile", "opening_hours": "24/7", "operator": "Freshmile France", "name": "Freshmile France - Freshmile", "addr:country": "DE", "socket:type2": "2", "socket:type2:output": "22.0 kW", "charging_station:output": "22.0 kW", "capacity": "2", "_source": "worldwide"}}, {"type": "node", "id": 1384366664, "lat": 48.673706, "lon": 5.885888, "tags": {"amenity": "charging_station", "access": "private", "network": "Freshmile", "operator": "Freshmile France", "name": "Freshmile France - Freshmile", "addr:country": "DE", "socket:type2": "2", "socket:type2:output": "22.0 kW", "charging_station:output": "22.0 kW", "capacity": "2", "_source": "worldwide"}}, {"type": "node", "id": 1384366665, "lat": 48.669616, "lon": 5.889889, "tags": {"amenity": "charging_station", "fee": "yes", "network": "Shell Recharge", "opening_hours": "24/7", "operator": "Shell Recharge", "name": "Ladestation Shell Recharge", "addr:country": "DE", "socket:type2": "2", "socket:type2:output": "22.0 kW", "charging_station:output": "22.0 kW", "capacity": "2", "authentication:none": "yes", "_source": "worldwide"}}, {"type": "node", "id": 1384366668, "lat": 48.67191, "lon": 5.889759, "tags": {"amenity": "charging_station", "fee": "yes", "network": "Lidl", "opening_hours": "24/7", "operator": "Lidl France", "name": "Lidl France - Lidl", "addr:country": "DE", "socket:type2": "2", "socket:type2:output": "22.0 kW", "charging_station:output": "22.0 kW", "capacity": "2", "_source": "worldwide"}}, {"type": "node", "id": 1384366686, "lat": 48.671291, "lon": 5.893423, "tags": {"amenity": "charging_station", "fee": "yes", "network": "Freshmile", "opening_hours": "24/7", "operator": "Freshmile France", "name": "Freshmile France - Freshmile", "addr:country": "DE", "socket:type2": "2", "socket:type2:output": "18.0 kW", "charging_station:output": "18.0 kW", "capacity": "2", "_source": "worldwide"}}, {"type": "node", "id": 1384366674, "lat": 48.689405, "lon": 5.901268, "tags": {"amenity": "charging_station", "fee": "yes", "network": "Lidl", "opening_hours": "24/7", "operator": "Lidl France", "name": "Lidl France - Lidl", "addr:country": "DE", "socket:type2": "2", "socket:type2:output": "22.0 kW", "charging_station:output": "22.0 kW", "capacity": "4", "_source": "worldwide"}}, {"type": "node", "id": 1384366675, "lat": 48.697484, "lon": 5.908336, "tags": {"amenity": "charging_station", "fee": "yes", "network": "Freshmile", "operator": "Freshmile France", "name": "Freshmile France - Freshmile", "addr:country": "DE", "socket:type2": "1", "socket:type2:output": "11.0 kW", "charging_station:output": "11.0 kW", "capacity": "2", "_source": "worldwide"}}, {"type": "node", "id": 1384366681, "lat": 48.699002, "lon": 5.909658, "tags": {"amenity": "charging_station", "fee": "yes", "network": "Freshmile", "opening_hours": "24/7", "operator": "Freshmile France", "name": "Freshmile France - Freshmile", "addr:country": "DE", "socket:type2": "4", "socket:type2:output": "22.0 kW", "charging_station:output": "22.0 kW", "capacity": "4", "_source": "worldwide"}}, {"type": "node", "id": 1384369087, "lat": 48.68069, "lon": 5.889427, "tags": {"amenity": "charging_station", "fee": "yes", "network": "Powerdot", "opening_hours": "24/7", "operator": "Powerdot France", "name": "Powerdot France - Powerdot", "addr:country": "DE", "socket:type2": "1", "socket:type2:output": "22.0 kW", "socket:chademo": "1", "socket:chademo:output": "50.0 kW", "charging_station:output": "50.0 kW", "capacity": "4", "_source": "worldwide"}}]}