{"id": "42-140", "latMin": 42, "lonMin": 140, "latMax": 43, "lonMax": 141, "generated": "2026-04-16T18:39:07.898Z", "count": 6, "pois": [{"type": "node", "id": 3015741760, "lat": 42.506854, "lon": 140.366925, "tags": {"amenity": "charging_station", "name": "EV QUICK CHARGING POINT", "_source": "worldwide"}}, {"type": "node", "id": 5960348593, "lat": 42.226828, "lon": 140.312823, "tags": {"amenity": "charging_station", "name": "EV Charging Station", "_source": "worldwide"}}, {"type": "node", "id": 5960348594, "lat": 42.226501, "lon": 140.312827, "tags": {"amenity": "charging_station", "name": "EV Charging Station", "_source": "worldwide"}}, {"type": "node", "id": 6737751714, "lat": 42.794973, "lon": 140.938085, "tags": {"amenity": "charging_station", "name": "EV Charging Station", "_source": "worldwide"}}, {"type": "node", "id": 10650929966, "lat": 42.626526, "lon": 140.799134, "tags": {"amenity": "charging_station", "name": "EV 200V CHARGING POINT", "_source": "worldwide"}}, {"type": "node", "id": 13583599601, "lat": 42.341791, "lon": 140.94407, "tags": {"amenity": "charging_station", "name": "道の駅 みたら室蘭 ULTRA EV CHARGER", "addr:housenumber": "祝津町４丁目16−５", "addr:postcode": "0510036", "_source": "worldwide"}}]}