{"id": "39--82", "latMin": 39, "lonMin": -82, "latMax": 40, "lonMax": -81, "generated": "2026-04-16T18:39:07.706Z", "count": 6, "pois": [{"type": "node", "id": 8403202835, "lat": 39.390798, "lon": -81.420613, "tags": {"amenity": "charging_station", "fee": "yes", "access": "yes", "name": "EV Charging Station", "_source": "worldwide"}}, {"type": "node", "id": 9054255080, "lat": 39.391187, "lon": -81.420917, "tags": {"amenity": "charging_station", "fee": "no", "access": "private", "name": "EV Charging Station", "_source": "worldwide"}}, {"type": "node", "id": 9856319379, "lat": 39.424593, "lon": -81.458023, "tags": {"amenity": "charging_station", "fee": "no", "access": "yes", "operator": "Washington County Library - Marietta 5th Street Branch", "name": "Washington County Library - Marietta 5th Street Branch", "_source": "worldwide"}}, {"type": "node", "id": 11488975129, "lat": 39.409272, "lon": -81.431986, "tags": {"amenity": "charging_station", "name": "EV Charging Station", "_source": "worldwide"}}, {"type": "node", "id": 12459501960, "lat": 39.267129, "lon": -81.563955, "tags": {"amenity": "charging_station", "name": "EV Charging Station", "_source": "worldwide"}}, {"type": "node", "id": 12944743583, "lat": 39.26282, "lon": -81.54493, "tags": {"amenity": "charging_station", "fee": "yes", "access": "customers", "opening_hours": "24/7", "brand": "Tesla Supercharger", "network": "Supercharger", "operator": "Tesla, Inc.", "name": "Parkersburg Supercharger", "addr:street": "7th Street", "addr:housenumber": "1102", "addr:postcode": "26101", "addr:city": "Parkersburg", "addr:country": "US", "capacity": "6", "_source": "worldwide"}}]}