{"id": "35-38", "latMin": 35, "lonMin": 38, "latMax": 36, "lonMax": 39, "generated": "2026-04-16T18:39:07.350Z", "count": 65, "pois": [{"type": "node", "id": 4442670189, "lat": 35.1013188, "lon": 38.1952213, "tags": {"name": "ܣܘܪܝܐ", "name:ar": "ܣܘܪܝܐ", "tourism": "attraction"}}, {"type": "node", "id": 573538020, "lat": 35.4833333, "lon": 38.1666667, "tags": {"alt_name": "بئر الحبارى", "int_name": "Bir el Hbaare, Bîr el Hbâaré, Bi'r al Ḩubārá", "is_in": "Syria, الجمهورية العربية السورية ، سوريا", "name": "بئر الحبارى", "name:ar": "بئر الحبارى . نفط", "name:ar1": "بئر الحبارى", "name:de": "Bi'r al Hubara", "name:en": "Bi'r al Hubara", "name:fr": "Bi'r al Hubara", "natural": "spring"}}, {"type": "node", "id": 573540289, "lat": 35.4879981, "lon": 38.497078, "tags": {"alt_name": "بئر الوهاب", "is_in": "Syria, الجمهورية العربية السورية ، سوريا", "name": "بئر الوهاب", "name:alt": "Bi'r al Wahhāb", "name:ar": "بئر الوهاب", "name:ar1": "بئر الوهاب", "name:de": "Bi'r al Wahhab", "name:en": "Bi'r al Wahhab", "name:fr": "Bi'r al Wahhab", "natural": "spring"}}, {"type": "node", "id": 13158537180, "lat": 35.8762052, "lon": 38.1615202, "tags": {"amenity": "hospital", "healthcare": "hospital", "healthcare:speciality": "community", "name": "مركز دبسي فرج الصحي", "operator": "وزارة الصحة", "operator:type": "free"}}, {"type": "node", "id": 13206447381, "lat": 35.8759316, "lon": 38.1651141, "tags": {"addr:city": "دبسي فرج", "addr:housenumber": "017", "addr:postcode": "765", "addr:street": "شارع الفرن اقصى الشرق", "description": "مخبز تمويني", "name": "مخبز دبسي فرج", "opening_hours": "05:00-10:00", "operator": "خاص", "payment:cash": "yes", "phone": "+96322765017", "shop": "bakery"}}, {"type": "node", "id": 4144244229, "lat": 35.9536968, "lon": 38.0379666, "tags": {"amenity": "fuel"}}, {"type": "node", "id": 8449277738, "lat": 35.9678331, "lon": 38.0304222, "tags": {"amenity": "pharmacy", "name": "علاء كرزون"}}, {"type": "node", "id": 8736417230, "lat": 35.9692961, "lon": 38.0292224, "tags": {"amenity": "pharmacy", "name": "هلا حاج علي"}}, {"type": "node", "id": 8449279129, "lat": 35.9680291, "lon": 38.0314272, "tags": {"amenity": "pharmacy", "name": "بكري كرزون"}}, {"type": "node", "id": 8449279329, "lat": 35.9650203, "lon": 38.0318978, "tags": {"amenity": "pharmacy", "name": "محمد الشريدة"}}, {"type": "node", "id": 8736417228, "lat": 35.967842, "lon": 38.0311263, "tags": {"amenity": "pharmacy", "name": "عامر نسيمي"}}, {"type": "node", "id": 8736417229, "lat": 35.9679225, "lon": 38.031615, "tags": {"amenity": "pharmacy", "name": "عبد العزيز السيد"}}, {"type": "node", "id": 4945783416, "lat": 35.9866604, "lon": 38.1164465, "tags": {"alt_name": "Barbalissus", "historic": "archaeological_site", "man_made": "mound", "name:en": "Barbalissos", "source": "bing", "wikidata": "Q3634572", "wikipedia": "en:Barbalissos"}}, {"type": "node", "id": 573537766, "lat": 35.7721896, "lon": 38.5663654, "tags": {"alt_name": "بئر خربة العيس", "is_in": "Syria, الجمهورية العربية السورية ، سوريا", "name": "بئر خربة العيس", "name:alt": "Bi'r Khirbat al `Ays", "name:ar": "بئر خربة العيس", "name:ar1": "بئر خربة العيس", "name:de": "Bi'r Khirbat al `Ays", "name:en": "Bi'r Khirbat al `Ays", "name:fr": "Bi'r Khirbat al `Ays", "natural": "spring"}}, {"type": "node", "id": 5437043922, "lat": 35.832479, "lon": 38.516746, "tags": {"name": "البيث الثالث", "tourism": "guest_house"}}, {"type": "node", "id": 13105542681, "lat": 35.8377635, "lon": 38.5264606, "tags": {"tourism": "hotel"}}, {"type": "node", "id": 13645296001, "lat": 35.8500951, "lon": 38.534745, "tags": {"access": "yes", "castle_type": "fortress", "historic": "castle", "name": "مأذنة أبو هريرة"}}, {"type": "node", "id": 13645452589, "lat": 35.8461634, "lon": 38.5484494, "tags": {"addr:city": "الطبقة", "addr:place": "الحي الثاني", "name": "مخبز الحي الثاني", "opening_hours": "24/7", "operator": "وزارة التجارة", "payment:cash": "yes", "shop": "bakery"}}, {"type": "node", "id": 13724167501, "lat": 35.878302, "lon": 38.1797519, "tags": {"name": "بيت حسين الصعبي", "tourism": "hostel"}}, {"type": "node", "id": 1464325519, "lat": 35.8973151, "lon": 38.4810486, "tags": {"historic": "castle", "name": "قلعة جعبر", "name:ar": "قلعة جعبر", "name:de": "Qal'at Ja'bar", "name:en": "Qal'at Ja'bar", "name:fr": "Qal'at Ja'bar", "name:tr": "Caber Kalesi", "wikidata": "Q1857888", "wikipedia": "ar:قلعة جعبر", "wikipedia:en": "Qal'at Ja'bar"}}, {"type": "node", "id": 5776421153, "lat": 35.9614867, "lon": 38.4466078, "tags": {"name": "مخيم الطويحنية", "tourism": "camp_site"}}, {"type": "node", "id": 573542725, "lat": 35.2166426, "lon": 38.8500027, "tags": {"alt_name": "عين علي الصحو", "int_name": "Ain Aali es Sahou, Aïn Aali es Sahou, `Ayn `Alī aş Şaḩw", "is_in": "Syria, الجمهورية العربية السورية ، سوريا", "name": "عين علي الصحو", "name:ar": "عين علي الصحو", "name:ar1": "عين علي الصحو", "name:de": "`Ayn `Ali as Sahw", "name:en": "`Ayn `Ali as Sahw", "name:fr": "`Ayn `Ali as Sahw", "natural": "spring"}}, {"type": "node", "id": 573543051, "lat": 35.2166667, "lon": 38.8499732, "tags": {"alt_name": "عين بخرة", "int_name": "Ain Bekhre, Aïn Bekhré, `Ayn Bikhrah", "is_in": "Syria, الجمهورية العربية السورية ، سوريا", "name": "عين بخرة", "name:ar": "عين بخرة", "name:ar1": "عين بخرة", "name:de": "`Ayn Bikhrah", "name:en": "`Ayn Bikhrah", "name:fr": "`Ayn Bikhrah", "natural": "spring"}}, {"type": "node", "id": 573544850, "lat": 35.2166667, "lon": 38.8500376, "tags": {"alt_name": "عين مرعي", "int_name": "Ain Marai, Ain Merai, Aïn Maraï, Aïn Meraï, `Ayn Mar`ī", "is_in": "Syria, الجمهورية العربية السورية ، سوريا", "name": "عين مرعي", "name:ar": "عين مرعي", "name:ar1": "عين مرعي", "name:de": "`Ayn Mar`i", "name:en": "`Ayn Mar`i", "name:fr": "`Ayn Mar`i", "natural": "spring"}}, {"type": "node", "id": 3603511693, "lat": 35.8200181, "lon": 38.6748783, "tags": {"amenity": "fuel"}}, {"type": "node", "id": 7011863885, "lat": 35.8301731, "lon": 38.624782, "tags": {"name": "مضافة الشيخ حامد الفرج", "tourism": "guest_house"}}, {"type": "node", "id": 573541040, "lat": 35.7145199, "lon": 38.8367923, "tags": {"alt_name": "بئر سميحان", "is_in": "Syria, الجمهورية العربية السورية ، سوريا", "name": "بئر سميحان", "name:alt": "Bi'r Sumayḩān", "name:ar": "بئر سميحان", "name:ar1": "بئر سميحان", "name:de": "Bi'r Sumayhan", "name:en": "Bi'r Sumayhan", "name:fr": "Bi'r Sumayhan", "natural": "spring"}}, {"type": "node", "id": 573544307, "lat": 35.7522915, "lon": 38.9087675, "tags": {"alt_name": "بئر أبو الحسان", "is_in": "Syria, الجمهورية العربية السورية ، سوريا", "name": "بئر أبو الحسان", "name:alt": "Bi'r Abū al Ḩassān", "name:ar": "بئر أبو الحسان", "name:ar1": "بئر أبو الحسان", "name:de": "Bi'r Abu al Hassan", "name:en": "Bi'r Abu al Hassan", "name:fr": "Bi'r Abu al Hassan", "natural": "spring"}}, {"type": "node", "id": 573539986, "lat": 35.8303689, "lon": 38.903901, "tags": {"alt_name": "قليب الجماس", "int_name": "Jlib ej Jamassa, Jlib ej Jamâssa, Qalīb al Jamâssa", "is_in": "Syria, الجمهورية العربية السورية ، سوريا", "name": "قليب الجماس", "name:ar": "قليب الجماس", "name:ar1": "قليب الجماس", "name:de": "Qalib al Jamassa", "name:en": "Qalib al Jamassa", "name:fr": "Qalib al Jamassa", "natural": "spring"}}, {"type": "node", "id": 573540846, "lat": 35.8333332, "lon": 38.9333333, "tags": {"alt_name": "بئر الكريدي", "int_name": "Bir el Kreidi, Bîr el Kreïdi, Bi'r al Kuraydī", "is_in": "Syria, الجمهورية العربية السورية ، سوريا", "name": "بئر الكريدي", "name:ar": "بئر الكريدي", "name:ar1": "بئر الكريدي", "name:de": "Bi'r al Kuraydi", "name:en": "Bi'r al Kuraydi", "name:fr": "Bi'r al Kuraydi", "natural": "spring"}}, {"type": "node", "id": 13283492801, "lat": 35.9386824, "lon": 38.5903506, "tags": {"addr:street": "الطبقة السد", "email": "enad@msn.com", "internet_access": "wlan", "name": "مخييم المحمودلي", "opening_hours": "24/7", "phone": "0963938981286", "tourism": "camp_site"}}, {"type": "node", "id": 11429348270, "lat": 35.9360957, "lon": 38.6739193, "tags": {"name": "مخيم التريچية", "name:en": "Turkiya settlement", "tourism": "camp_site"}}, {"type": "node", "id": 3378334365, "lat": 35.8967729, "lon": 38.7798146, "tags": {"historic": "archaeological_site", "name:en": "Soura", "wikidata": "Q15130851", "wikipedia": "de:Sura (Syrien)"}}, {"type": "node", "id": 7295135086, "lat": 35.9196252, "lon": 38.9084738, "tags": {"addr:housenumber": "0930524470", "addr:street": "Halap-Ar Raqqah road", "amenity": "fuel", "internet_access": "wlan", "name": "كازية السحل", "name:en": "Oil alsahl", "opening_hours": "24/7", "phone": "0930524470"}}, {"type": "node", "id": 2150100418, "lat": 35.9094636, "lon": 38.9509047, "tags": {"amenity": "fuel"}}, {"type": "node", "id": 9351221717, "lat": 35.9537307, "lon": 38.9120944, "tags": {"name": "بيت اهل ابواسماعيل الرقة", "tourism": "attraction"}}, {"type": "node", "id": 5066676124, "lat": 35.9366568, "lon": 38.9337022, "tags": {"name": "مخيم المحوكية", "name:ar": "مخيم المحوكية", "tourism": "camp_site"}}, {"type": "node", "id": 11545663969, "lat": 35.9461216, "lon": 38.9790334, "tags": {"name:en": "الحصيوة", "tourism": "attraction"}}, {"type": "node", "id": 9301143817, "lat": 35.9523376, "lon": 38.9704856, "tags": {"name": "بيت خليل الحاج عيسى الرقة", "tourism": "attraction"}}, {"type": "node", "id": 11147662205, "lat": 35.9529144, "lon": 38.9760345, "tags": {"name": "مستودع المنصور", "tourism": "attraction"}}, {"type": "node", "id": 11159266405, "lat": 35.9528399, "lon": 38.9768805, "tags": {"name": "مستودع المنصور", "tourism": "attraction"}}, {"type": "node", "id": 4191472218, "lat": 35.9364156, "lon": 38.9895524, "tags": {"amenity": "fuel"}}, {"type": "node", "id": 4253339491, "lat": 35.9364741, "lon": 38.9894298, "tags": {"amenity": "fuel", "name": "محطة الفرات"}}, {"type": "node", "id": 4128417034, "lat": 35.9377518, "lon": 38.9899374, "tags": {"tourism": "picnic_site"}}, {"type": "node", "id": 4191436326, "lat": 35.9375542, "lon": 38.989945, "tags": {"name": "البانوراما", "tourism": "viewpoint"}}, {"type": "node", "id": 6035931386, "lat": 35.9411938, "lon": 38.9948805, "tags": {"amenity": "hospital", "healthcare": "hospital", "name": "الفرات", "name:en": "Al furatr"}}, {"type": "node", "id": 11160543005, "lat": 35.9453563, "lon": 38.9909799, "tags": {"name": "بيت محمود الصالح مستودع البراء", "tourism": "attraction"}}, {"type": "node", "id": 9301143717, "lat": 35.9529197, "lon": 38.9849508, "tags": {"name": "مفرق الجزرة", "tourism": "attraction"}}, {"type": "node", "id": 11406942269, "lat": 35.9561804, "lon": 38.9971535, "tags": {"name": "بيت محمد عثمان العثمان للتجارة", "tourism": "attraction"}}, {"type": "node", "id": 2138872606, "lat": 35.9673632, "lon": 38.9800765, "tags": {"amenity": "fuel"}}, {"type": "node", "id": 4568969840, "lat": 35.9593018, "lon": 38.9981616, "tags": {"amenity": "restaurant", "name": "العليان", "name:en": "Alalyan"}}, {"type": "way", "id": 1426635036, "center": {"lat": 35.712162, "lon": 38.4963393}, "nodes": [13114571167, 13114571168, 13114571169, 13114571170, 13114571171, 13114571172, 13114571173, 13114571174, 13114571167], "tags": {"amenity": "parking"}}, {"type": "way", "id": 1426635031, "center": {"lat": 35.7129311, "lon": 38.4995608}, "nodes": [13114571137, 13114571138, 13114571139, 13114571140, 13114571141, 13114571142, 13114571143, 13114571151, 13114571157, 13114571144, 13114571145, 13114571146, 13114571147, 13114571137], "tags": {"amenity": "parking"}}, {"type": "way", "id": 1426635037, "center": {"lat": 35.7131783, "lon": 38.4975935}, "nodes": [13114571175, 13114571176, 13114571177, 13114571178, 13114571179, 13114571180, 13114571181, 13114571182, 13114571183, 13114571184, 13114571175], "tags": {"amenity": "parking"}}, {"type": "way", "id": 131120810, "center": {"lat": 35.7572574, "lon": 38.5770652}, "nodes": [1443647609, 1443647585, 1443647588, 1443647591, 1443647594, 1443647611, 1443647609], "tags": {"amenity": "parking"}}, {"type": "way", "id": 1426636163, "center": {"lat": 35.7767214, "lon": 38.5429276}, "nodes": [13114556951, 13114556952, 13114556953, 13114556954, 13114556955, 13114556956, 13114556957, 13114556951], "tags": {"amenity": "parking"}}, {"type": "way", "id": 1426636164, "center": {"lat": 35.7772838, "lon": 38.542274}, "nodes": [13114556958, 13114556959, 13114556960, 13114556961, 13114556958], "tags": {"amenity": "parking"}}, {"type": "way", "id": 1426636620, "center": {"lat": 35.7937092, "lon": 38.5814749}, "nodes": [13114562926, 13114562922, 13114562927, 13114562928, 13114562921, 13114562929, 13114562926], "tags": {"amenity": "parking"}}, {"type": "way", "id": 492655104, "center": {"lat": 35.8396642, "lon": 38.5259425}, "nodes": [4846436726, 4846436725, 4846436724, 4846436723, 4846436722, 4846436726], "tags": {"amenity": "parking"}}, {"type": "way", "id": 492655105, "center": {"lat": 35.8404269, "lon": 38.5249513}, "nodes": [4846436729, 4846436738, 4846436737, 4846436736, 4846436735, 4846436734, 4846436728, 4846436727, 6200796020, 6200796010, 4846436729], "tags": {"amenity": "hospital", "healthcare": "hospital"}}, {"type": "way", "id": 168164577, "center": {"lat": 35.8517931, "lon": 38.5600351}, "nodes": [1794597956, 1794597957, 6200876691, 1794597933, 1794597932, 1794597956], "tags": {"amenity": "parking"}}, {"type": "way", "id": 658845236, "center": {"lat": 35.8966585, "lon": 38.4810265}, "nodes": [6168792292, 6168792291, 6168792290, 6168792289, 6168792292], "tags": {"historic": "ruins"}}, {"type": "way", "id": 658845237, "center": {"lat": 35.8970237, "lon": 38.48101}, "nodes": [6168792296, 6168792295, 6168792294, 6168792293, 6168792296], "tags": {"historic": "ruins"}}, {"type": "way", "id": 204311548, "center": {"lat": 35.9566636, "lon": 38.9330961}, "nodes": [2143172983, 5166378570, 5166378571, 5166378573, 5166378572, 2143172977, 5166378574, 5166378575, 5166378576, 5166378577, 5166378580, 5166378578, 5166378579, 2143173011, 5166378582, 5166378581, 5166378583, 5166378565, 2143173014, 5166378564, 5166378563, 5166378562, 5166378561, 5166378569, 5166378560, 5166378566, 5166378567, 5166378568, 2143172983], "tags": {"historic": "castle", "name": "Heraqla", "ruins": "yes", "wikipedia": "de:Heraqla"}}, {"type": "way", "id": 205605436, "center": {"lat": 35.9351539, "lon": 38.989868}, "nodes": [2155782041, 2155782043, 2155782044, 2155782042, 2155782041], "tags": {"amenity": "fuel", "building": "yes"}}]}