{"id": "-18--67", "latMin": -18, "lonMin": -67, "latMax": -17, "lonMax": -66, "generated": "2026-04-16T18:39:07.209Z", "count": 5, "pois": [{"type": "node", "id": 9116058687, "lat": -17.375168, "lon": -66.158183, "tags": {"amenity": "charging_station", "fee": "no", "access": "customers", "operator": "Universidad Franz Tamayo", "name": "Universidad Franz Tamayo", "_source": "worldwide"}}, {"type": "node", "id": 9311178503, "lat": -17.380677, "lon": -66.151658, "tags": {"amenity": "charging_station", "fee": "no", "access": "yes", "opening_hours": "24/7", "brand": "ENDE", "network": "ENDE Corporación", "operator": "Empresa de Luz y Fuerza Eléctrica Cochabamba", "name": "Ramón Rivero", "capacity": "2", "_source": "worldwide"}}, {"type": "node", "id": 9515033297, "lat": -17.393555, "lon": -66.166235, "tags": {"amenity": "charging_station", "fee": "yes", "access": "private", "opening_hours": "24/7", "brand": "ENDE", "network": "ENDE Corporación", "operator": "Empresa de Luz y Fuerza Eléctrica Cochabamba", "name": "Central ELFEC", "capacity": "2", "_source": "worldwide"}}, {"type": "node", "id": 11589867985, "lat": -17.373189, "lon": -66.154796, "tags": {"amenity": "charging_station", "fee": "no", "access": "yes", "brand": "Quantum", "operator": "Quantum", "name": "Paseo Aranjuez", "_source": "worldwide"}}, {"type": "node", "id": 11760214296, "lat": -17.399068, "lon": -66.218207, "tags": {"amenity": "charging_station", "fee": "no", "access": "private", "operator": "Universidad Privada Boliviana", "name": "Universidad Privada Boliviana", "_source": "worldwide"}}]}