{"id": "12-77", "latMin": 12, "lonMin": 77, "latMax": 13, "lonMax": 78, "generated": "2026-04-16T18:39:07.227Z", "count": 30, "pois": [{"type": "node", "id": 9202909866, "lat": 12.975668, "lon": 77.641309, "tags": {"amenity": "charging_station", "access": "yes", "operator": "Ather Energy", "name": "Ather Charging Grid", "_source": "worldwide"}}, {"type": "node", "id": 9796873472, "lat": 12.994737, "lon": 77.699301, "tags": {"amenity": "charging_station", "operator": "BESCOM", "name": "BESCOM", "_source": "worldwide"}}, {"type": "node", "id": 9811396097, "lat": 12.977583, "lon": 77.638989, "tags": {"amenity": "charging_station", "access": "yes", "name": "EV Charging Station", "_source": "worldwide"}}, {"type": "node", "id": 9917415768, "lat": 12.973397, "lon": 77.635756, "tags": {"amenity": "charging_station", "name": "EV Charging Station", "_source": "worldwide"}}, {"type": "node", "id": 10177662896, "lat": 12.913773, "lon": 77.644173, "tags": {"amenity": "charging_station", "name": "EV Charging Station", "_source": "worldwide"}}, {"type": "node", "id": 10293872605, "lat": 12.971278, "lon": 77.607883, "tags": {"amenity": "charging_station", "name": "inGO", "_source": "worldwide"}}, {"type": "node", "id": 10294506356, "lat": 12.976482, "lon": 77.62683, "tags": {"amenity": "charging_station", "brand": "Yulu", "name": "Yulu", "_source": "worldwide"}}, {"type": "node", "id": 10763275239, "lat": 12.915463, "lon": 77.615891, "tags": {"amenity": "charging_station", "fee": "yes", "operator": "Magenta Group", "name": "Magenta ChargeGrid Charging Station", "_source": "worldwide"}}, {"type": "node", "id": 11178123519, "lat": 12.957683, "lon": 77.568447, "tags": {"amenity": "charging_station", "brand": "Ather", "operator": "Ather", "name": "Ather", "_source": "worldwide"}}, {"type": "node", "id": 11214889013, "lat": 12.980548, "lon": 77.597889, "tags": {"amenity": "charging_station", "name": "Pulse", "_source": "worldwide"}}, {"type": "node", "id": 11283405698, "lat": 12.932217, "lon": 77.614272, "tags": {"amenity": "charging_station", "name": "Ola Hypercharger", "_source": "worldwide"}}, {"type": "node", "id": 11286212936, "lat": 12.916907, "lon": 77.610271, "tags": {"amenity": "charging_station", "access": "yes", "brand": "BESCOM", "operator": "BESCOM", "name": "BESCOM", "_source": "worldwide"}}, {"type": "node", "id": 11297781805, "lat": 12.971011, "lon": 77.597788, "tags": {"amenity": "charging_station", "brand": "Hero Vida", "name": "Hero Vida", "_source": "worldwide"}}, {"type": "node", "id": 11408768738, "lat": 12.973667, "lon": 77.583085, "tags": {"amenity": "charging_station", "name": "EV Charging Station", "_source": "worldwide"}}, {"type": "node", "id": 11463172582, "lat": 12.930195, "lon": 77.61483, "tags": {"amenity": "charging_station", "brand": "Honda e:swap", "name": "Honda e:swap", "_source": "worldwide"}}, {"type": "node", "id": 11542817290, "lat": 12.936268, "lon": 77.607688, "tags": {"amenity": "charging_station", "fee": "yes", "name": "EV Charging Station", "_source": "worldwide"}}, {"type": "node", "id": 11927677057, "lat": 12.933775, "lon": 77.623669, "tags": {"amenity": "charging_station", "fee": "no", "access": "yes", "brand": "ChargePoint", "operator": "ChargePoint", "name": "Ola Hyper Charger", "_source": "worldwide"}}, {"type": "node", "id": 11927677058, "lat": 12.928584, "lon": 77.62419, "tags": {"amenity": "charging_station", "access": "yes", "brand": "ChargePoint", "operator": "ChargePoint", "name": "Battery Swap", "_source": "worldwide"}}, {"type": "node", "id": 11936564076, "lat": 12.931145, "lon": 77.623846, "tags": {"amenity": "charging_station", "fee": "no", "access": "yes", "brand": "ChargePoint", "operator": "ChargePoint", "name": "Ather Charging Station", "_source": "worldwide"}}, {"type": "node", "id": 12002046035, "lat": 12.977855, "lon": 77.581276, "tags": {"amenity": "charging_station", "fee": "yes", "name": "EV Charging Station", "_source": "worldwide"}}, {"type": "node", "id": 12078138004, "lat": 12.981076, "lon": 77.59668, "tags": {"amenity": "charging_station", "name": "EV Charging Station", "_source": "worldwide"}}, {"type": "node", "id": 12101733050, "lat": 12.965406, "lon": 77.600247, "tags": {"amenity": "charging_station", "access": "yes", "brand": "Ola Hypercharger", "name": "Ola Hypercharger", "_source": "worldwide"}}, {"type": "node", "id": 12125802596, "lat": 12.978105, "lon": 77.63891, "tags": {"amenity": "charging_station", "fee": "yes", "operator": "Honda e:swap", "name": "Honda e:swap", "_source": "worldwide"}}, {"type": "node", "id": 12169023077, "lat": 12.889427, "lon": 77.556365, "tags": {"amenity": "charging_station", "opening_hours": "24/7", "name": "Battery Swapping Station", "_source": "worldwide"}}, {"type": "node", "id": 12492566397, "lat": 12.938354, "lon": 77.580216, "tags": {"amenity": "charging_station", "fee": "yes", "operator": "Honda e:swap", "name": "Honda e:swap", "_source": "worldwide"}}, {"type": "node", "id": 12492581619, "lat": 12.921708, "lon": 77.580505, "tags": {"amenity": "charging_station", "fee": "yes", "operator": "Honda e:swap", "name": "Honda e:swap", "_source": "worldwide"}}, {"type": "node", "id": 12534145133, "lat": 12.993427, "lon": 77.704314, "tags": {"amenity": "charging_station", "name": "Honda e:swap", "_source": "worldwide"}}, {"type": "node", "id": 12788139581, "lat": 12.986184, "lon": 77.615689, "tags": {"amenity": "charging_station", "fee": "yes", "operator": "Honda e:swap", "name": "Honda e:swap", "_source": "worldwide"}}, {"type": "node", "id": 12982255490, "lat": 12.942117, "lon": 77.747197, "tags": {"amenity": "charging_station", "operator": "êpump", "name": "êpump", "_source": "worldwide"}}, {"type": "node", "id": 13625197611, "lat": 12.765215, "lon": 77.330355, "tags": {"amenity": "charging_station", "name": "EV Charging Station", "_source": "worldwide"}}]}