{"id": "60-10", "latMin": 60, "lonMin": 10, "latMax": 61, "lonMax": 11, "generated": "2026-04-16T18:39:08.791Z", "count": 86, "pois": [{"type": "node", "id": 1646609067, "lat": 60.061152, "lon": 10.308412, "tags": {"amenity": "charging_station", "access": "yes", "brand": "Kople", "opening_hours": "24/7", "operator": "Ringeriks-kraft AS", "name": "Sundvollen pendlerparkering", "addr:country": "NO", "socket:type2": "2", "socket:type2:output": "3.6 kW", "charging_station:output": "3.6 kW", "capacity": "2", "_source": "worldwide"}}, {"type": "node", "id": 1770693449, "lat": 60.061696, "lon": 10.309674, "tags": {"amenity": "charging_station", "access": "customers", "opening_hours": "Samme som Spar", "operator": "Spar", "name": "Dronningveien 3", "addr:country": "NO", "socket:type2": "2", "socket:type2:output": "22.0 kW", "charging_station:output": "22.0 kW", "capacity": "2", "_source": "worldwide"}}, {"type": "node", "id": 1770689980, "lat": 60.798733, "lon": 10.693426, "tags": {"amenity": "charging_station", "access": "customers", "brand": "Recharge", "name": "Recharge CC Gjøvik parkering", "addr:country": "NO", "socket:type2": "6", "socket:type2:output": "7.2 kW", "charging_station:output": "7.2 kW", "capacity": "6", "_source": "worldwide"}}, {"type": "node", "id": 6025956796, "lat": 60.8001, "lon": 10.69455, "tags": {"amenity": "charging_station", "access": "yes", "brand": "Recharge", "opening_hours": "24/7", "name": "Recharge CC Gjøvik", "addr:country": "NO", "socket:type2_combo": "12", "socket:type2_combo:output": "300.0 kW", "socket:chademo": "2", "socket:chademo:output": "75.0 kW", "charging_station:output": "300.0 kW", "capacity": "12", "_source": "worldwide"}}, {"type": "node", "id": 9464254410, "lat": 60.800837, "lon": 10.691735, "tags": {"amenity": "charging_station", "access": "yes", "fee": "yes", "brand": "Tesla Supercharger", "opening_hours": "24/7", "operator": "Tesla", "name": "Tesla Gjøvik Supercharger", "addr:country": "NO", "socket:type2_combo": "24", "socket:type2_combo:output": "250.0 kW", "charging_station:output": "250.0 kW", "capacity": "24", "_source": "worldwide"}}, {"type": "node", "id": 1770690024, "lat": 60.178126, "lon": 10.270099, "tags": {"amenity": "charging_station", "access": "yes", "brand": "Mer", "opening_hours": "24/7", "name": "Mer Coop Mega Hønefoss", "addr:country": "NO", "socket:type2_combo": "8", "socket:type2_combo:output": "150.0 kW", "socket:chademo": "4", "socket:chademo:output": "50.0 kW", "charging_station:output": "150.0 kW", "capacity": "8", "_source": "worldwide"}}, {"type": "node", "id": 13048105402, "lat": 60.17863, "lon": 10.270573, "tags": {"amenity": "charging_station", "operator": "mer", "name": "Mer", "addr:country": "NO", "capacity": "8", "_source": "worldwide"}}, {"type": "node", "id": 1770690275, "lat": 60.785682, "lon": 10.677995, "tags": {"amenity": "charging_station", "access": "employees", "opening_hours": "24/7", "operator": "Eidsiva Vekst AS", "name": "Energihuset Gjøvik", "addr:country": "NO", "socket:type2": "2", "socket:type2:output": "11.0 kW", "charging_station:output": "11.0 kW", "capacity": "2", "_source": "worldwide"}}, {"type": "node", "id": 8999129430, "lat": 60.786609, "lon": 10.668335, "tags": {"amenity": "charging_station", "access": "yes", "brand": "Circle K", "name": "Circle K Kallerud", "addr:country": "NO", "socket:type2_combo": "6", "socket:type2_combo:output": "300.0 kW", "socket:chademo": "1", "socket:chademo:output": "62.0 kW", "charging_station:output": "300.0 kW", "capacity": "6", "_source": "worldwide"}}, {"type": "node", "id": 12824245631, "lat": 60.78573, "lon": 10.668364, "tags": {"amenity": "charging_station", "access": "yes", "brand": "Kople", "name": "Kople Kallerud øst Rv4 Gjøvik", "addr:country": "NO", "socket:type2_combo": "6", "socket:type2_combo:output": "150.0 kW", "socket:chademo": "2", "socket:chademo:output": "62.0 kW", "charging_station:output": "150.0 kW", "capacity": "6", "_source": "worldwide"}}, {"type": "node", "id": 1770694022, "lat": 60.079001, "lon": 10.28326, "tags": {"amenity": "charging_station", "access": "yes", "opening_hours": "24/7", "operator": "Ringerikskraft AS", "name": "Vik pendlerparkering", "addr:country": "NO", "socket:type2": "2", "socket:type2:output": "7.4 kW", "charging_station:output": "7.4 kW", "capacity": "2", "_source": "worldwide"}}, {"type": "node", "id": 6024217332, "lat": 60.083307, "lon": 10.28741, "tags": {"amenity": "charging_station", "access": "yes", "brand": "Circle K", "name": "Circle K Vik", "addr:country": "NO", "socket:type2_combo": "3", "socket:type2_combo:output": "150.0 kW", "socket:chademo": "1", "socket:chademo:output": "62.0 kW", "charging_station:output": "150.0 kW", "capacity": "3", "_source": "worldwide"}}, {"type": "node", "id": 5825759613, "lat": 60.288112, "lon": 10.625524, "tags": {"amenity": "charging_station", "access": "yes", "brand": "Recharge", "opening_hours": "24/7", "operator": "Recharge", "name": "Recharge Kiwi Roa Hadeland", "addr:country": "NO", "socket:type2": "2", "socket:type2:output": "22.0 kW", "socket:type2_combo": "2", "socket:type2_combo:output": "50.0 kW", "socket:chademo": "2", "socket:chademo:output": "50.0 kW", "charging_station:output": "50.0 kW", "capacity": "4", "_source": "worldwide"}}, {"type": "node", "id": 11195959371, "lat": 60.287893, "lon": 10.626813, "tags": {"amenity": "charging_station", "access": "yes", "fee": "yes", "brand": "Kople", "operator": "Kople", "name": "Kople Kiwi Roa", "addr:country": "NO", "socket:type2_combo": "8", "socket:type2_combo:output": "150.0 kW", "socket:chademo": "1", "socket:chademo:output": "62.0 kW", "charging_station:output": "150.0 kW", "capacity": "8", "_source": "worldwide"}}, {"type": "node", "id": 5962466846, "lat": 60.111951, "lon": 10.849928, "tags": {"amenity": "charging_station", "access": "yes", "opening_hours": "24/7", "operator": "Nittedal Kommune", "name": "Sloraveien 7", "addr:country": "NO", "socket:type2": "2", "socket:type2:output": "3.6 kW", "charging_station:output": "3.6 kW", "capacity": "2", "_source": "worldwide"}}, {"type": "node", "id": 6019568929, "lat": 60.042809, "lon": 10.880501, "tags": {"amenity": "charging_station", "access": "yes", "brand": "Recharge", "opening_hours": "24/7", "operator": "Recharge", "name": "Recharge Rotnes kirke og Kulturverket Flammen", "addr:country": "NO", "socket:type2": "36", "socket:type2:output": "3.6 kW", "charging_station:output": "3.6 kW", "capacity": "36", "_source": "worldwide"}}, {"type": "node", "id": 6019570805, "lat": 60.05348, "lon": 10.879182, "tags": {"amenity": "charging_station", "access": "yes", "opening_hours": "24/7", "operator": "Nittedal Kommune", "name": "Stasjonsveien 10", "addr:country": "NO", "socket:type2": "2", "socket:type2:output": "3.6 kW", "charging_station:output": "3.6 kW", "capacity": "2", "_source": "worldwide"}}, {"type": "node", "id": 6019570833, "lat": 60.007604, "lon": 10.926207, "tags": {"amenity": "charging_station", "access": "customers", "opening_hours": "24/7", "operator": "Nittedal Kommune", "name": "Li svømmehall, Slattum", "addr:country": "NO", "socket:type2": "2", "socket:type2:output": "3.6 kW", "charging_station:output": "3.6 kW", "capacity": "2", "_source": "worldwide"}}, {"type": "node", "id": 6024217338, "lat": 60.165152, "lon": 10.253658, "tags": {"amenity": "charging_station", "access": "yes", "brand": "Recharge", "opening_hours": "24/7", "name": "Recharge Kuben Hønefoss", "addr:country": "NO", "socket:type2": "11", "socket:type2:output": "22.0 kW", "socket:type2_combo": "1", "socket:type2_combo:output": "50.0 kW", "socket:chademo": "1", "socket:chademo:output": "50.0 kW", "charging_station:output": "50.0 kW", "capacity": "12", "_source": "worldwide"}}, {"type": "node", "id": 12776967799, "lat": 60.164753, "lon": 10.254655, "tags": {"amenity": "charging_station", "access": "yes", "brand": "Eviny", "name": "Eviny Kuben senter Hønefoss", "addr:country": "NO", "socket:type2_combo": "12", "socket:type2_combo:output": "400.0 kW", "socket:chademo": "4", "socket:chademo:output": "50.0 kW", "charging_station:output": "400.0 kW", "capacity": "12", "_source": "worldwide"}}, {"type": "node", "id": 6024217340, "lat": 60.272612, "lon": 10.184974, "tags": {"amenity": "charging_station", "access": "yes", "brand": "Recharge", "name": "Recharge Kiwi Hallingby", "addr:country": "NO", "socket:type2": "2", "socket:type2:output": "11.0 kW", "socket:type2_combo": "2", "socket:type2_combo:output": "50.0 kW", "socket:chademo": "2", "socket:chademo:output": "50.0 kW", "charging_station:output": "50.0 kW", "capacity": "4", "_source": "worldwide"}}, {"type": "node", "id": 6024217341, "lat": 60.142918, "lon": 10.257596, "tags": {"amenity": "charging_station", "access": "yes", "brand": "Kople", "name": "Kople Ringerikskraft HM33", "addr:country": "NO", "socket:type2": "8", "socket:type2:output": "22.0 kW", "charging_station:output": "22.0 kW", "capacity": "8", "_source": "worldwide"}}, {"type": "node", "id": 6024217348, "lat": 60.144405, "lon": 10.25343, "tags": {"amenity": "charging_station", "access": "customers", "opening_hours": "24/7", "operator": "Coop OBS Bygg", "name": "Hvervenmoveien 15", "addr:country": "NO", "socket:type2": "1", "socket:type2:output": "22.0 kW", "charging_station:output": "22.0 kW", "capacity": "1", "_source": "worldwide"}}, {"type": "node", "id": 6024217355, "lat": 60.146304, "lon": 10.252901, "tags": {"amenity": "charging_station", "access": "customers", "opening_hours": "24/7", "operator": "Rusta", "name": "Hvervenmoveien 2C", "addr:country": "NO", "socket:type2": "2", "socket:type2:output": "22.0 kW", "charging_station:output": "22.0 kW", "capacity": "2", "_source": "worldwide"}}, {"type": "node", "id": 6024217384, "lat": 60.148365, "lon": 10.251234, "tags": {"amenity": "charging_station", "access": "yes", "brand": "Kople", "name": "Kople Hvervenkastet Nord E16 Hønefoss", "addr:country": "NO", "socket:type2_combo": "5", "socket:type2_combo:output": "250.0 kW", "socket:chademo": "1", "socket:chademo:output": "62.0 kW", "charging_station:output": "250.0 kW", "capacity": "5", "_source": "worldwide"}}, {"type": "node", "id": 7684706258, "lat": 60.144767, "lon": 10.254986, "tags": {"amenity": "charging_station", "access": "yes", "brand": "Kople", "name": "Kople Hvervenmoen næringspark Hønefoss", "addr:country": "NO", "socket:type2": "9", "socket:type2:output": "22.0 kW", "socket:type2_combo": "6", "socket:type2_combo:output": "150.0 kW", "socket:chademo": "2", "socket:chademo:output": "50.0 kW", "charging_station:output": "150.0 kW", "capacity": "15", "_source": "worldwide"}}, {"type": "node", "id": 9100612661, "lat": 60.146062, "lon": 10.250424, "tags": {"amenity": "charging_station", "access": "yes", "brand": "Kople", "name": "Kople Hvervenkastet Sør E16 Hønefoss", "addr:country": "NO", "socket:type2_combo": "12", "socket:type2_combo:output": "150.0 kW", "socket:chademo": "4", "socket:chademo:output": "62.0 kW", "charging_station:output": "150.0 kW", "capacity": "12", "_source": "worldwide"}}, {"type": "node", "id": 11171034622, "lat": 60.146992, "lon": 10.254587, "tags": {"amenity": "charging_station", "access": "yes", "brand": "Recharge", "name": "Recharge Esso Hvervenkastet", "addr:country": "NO", "socket:type2_combo": "8", "socket:type2_combo:output": "200.0 kW", "socket:chademo": "2", "socket:chademo:output": "62.0 kW", "charging_station:output": "200.0 kW", "capacity": "8", "_source": "worldwide"}}, {"type": "node", "id": 6024217381, "lat": 60.086758, "lon": 10.099714, "tags": {"amenity": "charging_station", "access": "yes", "brand": "Kople", "name": "Kople Coop Tyristrand", "addr:country": "NO", "socket:type2_combo": "1", "socket:type2_combo:output": "75.0 kW", "socket:chademo": "1", "socket:chademo:output": "62.0 kW", "charging_station:output": "75.0 kW", "capacity": "1", "_source": "worldwide"}}, {"type": "node", "id": 6025956784, "lat": 60.240197, "lon": 10.409827, "tags": {"amenity": "charging_station", "access": "yes", "opening_hours": "24/7", "operator": "Esso", "name": "Esso Jevnaker", "addr:country": "NO", "socket:type2": "1", "socket:type2:output": "22.0 kW", "charging_station:output": "22.0 kW", "capacity": "1", "_source": "worldwide"}}, {"type": "node", "id": 7079421788, "lat": 60.240435, "lon": 10.410636, "tags": {"amenity": "charging_station", "access": "yes", "fee": "yes", "brand": "Recharge", "operator": "Recharge", "name": "Recharge Esso Jevnaker", "addr:country": "NO", "socket:type2": "2", "socket:type2:output": "11.0 kW", "socket:type2_combo": "4", "socket:type2_combo:output": "150.0 kW", "socket:chademo": "2", "socket:chademo:output": "50.0 kW", "charging_station:output": "150.0 kW", "capacity": "6", "_source": "worldwide"}}, {"type": "node", "id": 6025956791, "lat": 60.835693, "lon": 10.067697, "tags": {"amenity": "charging_station", "access": "yes", "brand": "Recharge", "name": "Recharge Kiwi Dokka", "addr:country": "NO", "socket:type2": "3", "socket:type2:output": "11.0 kW", "socket:type2_combo": "2", "socket:type2_combo:output": "50.0 kW", "socket:chademo": "2", "socket:chademo:output": "50.0 kW", "charging_station:output": "50.0 kW", "capacity": "5", "_source": "worldwide"}}, {"type": "node", "id": 6025956797, "lat": 60.795015, "lon": 10.697358, "tags": {"amenity": "charging_station", "access": "yes", "brand": "Circle K", "name": "Circle K Mjøsstranda", "addr:country": "NO", "socket:type2_combo": "4", "socket:type2_combo:output": "300.0 kW", "socket:chademo": "1", "socket:chademo:output": "62.0 kW", "charging_station:output": "300.0 kW", "capacity": "4", "_source": "worldwide"}}, {"type": "node", "id": 6025956811, "lat": 60.454564, "lon": 10.644045, "tags": {"amenity": "charging_station", "access": "yes", "brand": "Recharge", "opening_hours": "24/7", "name": "Recharge Shell Lygnasæter", "addr:country": "NO", "socket:type2_combo": "6", "socket:type2_combo:output": "200.0 kW", "socket:chademo": "1", "socket:chademo:output": "50.0 kW", "charging_station:output": "200.0 kW", "capacity": "6", "_source": "worldwide"}}, {"type": "node", "id": 6025956814, "lat": 60.684343, "lon": 10.620107, "tags": {"amenity": "charging_station", "access": "yes", "brand": "Recharge", "opening_hours": "24/7", "name": "Recharge Kiwi Reinsvoll", "addr:country": "NO", "socket:type2": "2", "socket:type2:output": "11.0 kW", "socket:type2_combo": "2", "socket:type2_combo:output": "50.0 kW", "socket:chademo": "2", "socket:chademo:output": "50.0 kW", "charging_station:output": "50.0 kW", "capacity": "4", "_source": "worldwide"}}, {"type": "node", "id": 11188024281, "lat": 60.686203, "lon": 10.613917, "tags": {"amenity": "charging_station", "access": "yes", "brand": "Kople", "name": "Kople YX Reinsvoll Rv4", "addr:country": "NO", "socket:type2_combo": "5", "socket:type2_combo:output": "250.0 kW", "socket:chademo": "1", "socket:chademo:output": "62.0 kW", "charging_station:output": "250.0 kW", "capacity": "5", "_source": "worldwide"}}, {"type": "node", "id": 6025956818, "lat": 60.69924, "lon": 10.35073, "tags": {"amenity": "charging_station", "access": "yes", "opening_hours": "24/7", "operator": "Søndre Land Kommune", "name": "Hovsbakken, Søndre Land", "addr:country": "NO", "socket:type2": "2", "socket:type2:output": "3.6 kW", "charging_station:output": "3.6 kW", "capacity": "2", "_source": "worldwide"}}, {"type": "node", "id": 6025956826, "lat": 60.67706, "lon": 10.81583, "tags": {"amenity": "charging_station", "access": "yes", "fee": "yes", "opening_hours": "24/7", "operator": "Østre Toten kommune", "name": "Østre Toten rådhus", "addr:country": "NO", "socket:type2": "2", "socket:type2:output": "7.4 kW", "charging_station:output": "7.4 kW", "capacity": "2", "_source": "worldwide"}}, {"type": "node", "id": 6025956837, "lat": 60.353656, "lon": 10.572213, "tags": {"amenity": "charging_station", "access": "yes", "brand": "Recharge", "opening_hours": "24/7", "name": "Recharge Coop Gran", "addr:country": "NO", "socket:type2": "2", "socket:type2:output": "22.0 kW", "socket:type2_combo": "2", "socket:type2_combo:output": "50.0 kW", "socket:chademo": "2", "socket:chademo:output": "50.0 kW", "charging_station:output": "50.0 kW", "capacity": "4", "_source": "worldwide"}}, {"type": "node", "id": 10738043937, "lat": 60.354488, "lon": 10.572335, "tags": {"amenity": "charging_station", "access": "yes", "fee": "yes", "brand": "Tesla Supercharger", "opening_hours": "24/7", "operator": "Tesla", "name": "Tesla Gran Supercharger", "addr:country": "NO", "socket:type2_combo": "12", "socket:type2_combo:output": "250.0 kW", "charging_station:output": "250.0 kW", "capacity": "12", "_source": "worldwide"}}, {"type": "node", "id": 12824282609, "lat": 60.354076, "lon": 10.574173, "tags": {"amenity": "charging_station", "access": "yes", "brand": "Kople", "name": "Kople Kiwi Gran", "addr:country": "NO", "socket:type2_combo": "5", "socket:type2_combo:output": "180.0 kW", "socket:chademo": "1", "socket:chademo:output": "62.0 kW", "charging_station:output": "180.0 kW", "capacity": "5", "_source": "worldwide"}}, {"type": "node", "id": 6037457104, "lat": 60.9132, "lon": 10.79531, "tags": {"amenity": "charging_station", "access": "yes", "opening_hours": "24/7", "operator": "Ringsaker kommune", "name": "Prøysenhuset", "addr:country": "NO", "socket:type2": "2", "socket:type2:output": "3.6 kW", "charging_station:output": "3.6 kW", "capacity": "2", "_source": "worldwide"}}, {"type": "node", "id": 6037457117, "lat": 60.880397, "lon": 10.932187, "tags": {"amenity": "charging_station", "access": "yes", "brand": "Recharge", "opening_hours": "24/7", "operator": "Recharge", "name": "Recharge McDonald's Brumunddal", "addr:country": "NO", "socket:type2_combo": "8", "socket:type2_combo:output": "200.0 kW", "socket:chademo": "2", "socket:chademo:output": "62.0 kW", "charging_station:output": "200.0 kW", "capacity": "8", "_source": "worldwide"}}, {"type": "node", "id": 6037457121, "lat": 60.908569, "lon": 10.817493, "tags": {"amenity": "charging_station", "access": "yes", "brand": "Mer", "opening_hours": "24/7", "name": "Mer Coop Obs bygg Rudshøgda", "addr:country": "NO", "socket:type2": "4", "socket:type2:output": "22.0 kW", "charging_station:output": "22.0 kW", "capacity": "4", "_source": "worldwide"}}, {"type": "node", "id": 11169096643, "lat": 60.911869, "lon": 10.813192, "tags": {"amenity": "charging_station", "access": "yes", "brand": "Eviny", "name": "Eviny Rudshøgda", "addr:country": "NO", "socket:type2_combo": "12", "socket:type2_combo:output": "200.0 kW", "socket:chademo": "12", "socket:chademo:output": "62.0 kW", "charging_station:output": "200.0 kW", "capacity": "12", "_source": "worldwide"}}, {"type": "node", "id": 11188024358, "lat": 60.910382, "lon": 10.811913, "tags": {"amenity": "charging_station", "access": "yes", "brand": "Kople", "name": "Kople Coop Obs Rudshøgda", "addr:country": "NO", "socket:type2": "6", "socket:type2:output": "22.0 kW", "socket:type2_combo": "14", "socket:type2_combo:output": "200.0 kW", "socket:chademo": "2", "socket:chademo:output": "62.0 kW", "charging_station:output": "200.0 kW", "capacity": "20", "_source": "worldwide"}}, {"type": "node", "id": 12064490289, "lat": 60.909474, "lon": 10.812608, "tags": {"amenity": "charging_station", "access": "yes", "fee": "yes", "brand": "Ionity", "network": "Ionity", "opening_hours": "24/7", "operator": "IONITY", "name": "Ionity Rudshøgda", "addr:country": "NO", "socket:type2_combo": "8", "socket:type2_combo:output": "400.0 kW", "charging_station:output": "400.0 kW", "capacity": "8", "_source": "worldwide"}}, {"type": "node", "id": 6553823124, "lat": 60.241349, "lon": 10.365073, "tags": {"amenity": "charging_station", "addr:country": "NO", "_source": "worldwide"}}, {"type": "node", "id": 6762237244, "lat": 60.100488, "lon": 10.866561, "tags": {"amenity": "charging_station", "access": "yes", "brand": "Recharge", "operator": "Recharge", "name": "Recharge YX 7-Eleven Hakadal", "addr:country": "NO", "socket:type2": "1", "socket:type2:output": "11.0 kW", "socket:type2_combo": "4", "socket:type2_combo:output": "225.0 kW", "socket:chademo": "2", "socket:chademo:output": "50.0 kW", "charging_station:output": "225.0 kW", "capacity": "5", "_source": "worldwide"}}, {"type": "node", "id": 7004520233, "lat": 60.878178, "lon": 10.929593, "tags": {"amenity": "charging_station", "access": "yes", "fee": "yes", "brand": "Tesla", "opening_hours": "24/7", "operator": "Tesla", "name": "Tesla Brumunddal Supercharger", "addr:country": "NO", "socket:type2_combo": "20", "socket:type2_combo:output": "150.0 kW", "socket:tesla_supercharger": "20", "socket:tesla_supercharger:output": "150.0 kW", "charging_station:output": "150.0 kW", "capacity": "20", "_source": "worldwide"}}, {"type": "node", "id": 11172580046, "lat": 60.880442, "lon": 10.92781, "tags": {"amenity": "charging_station", "access": "yes", "brand": "Recharge", "operator": "Recharge", "name": "Recharge Shell Brumunddal", "addr:country": "NO", "socket:type2_combo": "16", "socket:type2_combo:output": "200.0 kW", "socket:chademo": "4", "socket:chademo:output": "62.0 kW", "charging_station:output": "200.0 kW", "capacity": "16", "_source": "worldwide"}}, {"type": "node", "id": 11344976516, "lat": 60.880197, "lon": 10.926977, "tags": {"amenity": "charging_station", "brand": "Recharge", "operator": "Recharge", "name": "Recharge", "addr:country": "NO", "capacity": "4", "_source": "worldwide"}}, {"type": "node", "id": 8373357976, "lat": 60.72915, "lon": 10.61561, "tags": {"amenity": "charging_station", "access": "yes", "brand": "Mer", "name": "Mer Amfi Raufoss", "addr:country": "NO", "socket:type2": "2", "socket:type2:output": "22.0 kW", "socket:type2_combo": "4", "socket:type2_combo:output": "150.0 kW", "socket:chademo": "4", "socket:chademo:output": "62.0 kW", "charging_station:output": "150.0 kW", "capacity": "6", "_source": "worldwide"}}, {"type": "node", "id": 9590550319, "lat": 60.128475, "lon": 10.352138, "tags": {"amenity": "charging_station", "addr:country": "NO", "_source": "worldwide"}}, {"type": "node", "id": 9906969118, "lat": 60.022241, "lon": 10.26209, "tags": {"amenity": "charging_station", "addr:country": "NO", "_source": "worldwide"}}, {"type": "node", "id": 11146764723, "lat": 60.04613, "lon": 10.88158, "tags": {"amenity": "charging_station", "access": "yes", "brand": "Mer", "name": "Mer Mosenteret", "addr:country": "NO", "socket:type2_combo": "6", "socket:type2_combo:output": "150.0 kW", "socket:chademo": "5", "socket:chademo:output": "62.0 kW", "charging_station:output": "150.0 kW", "capacity": "6", "_source": "worldwide"}}, {"type": "node", "id": 11169096610, "lat": 60.407068, "lon": 10.533106, "tags": {"amenity": "charging_station", "access": "yes", "fee": "yes", "brand": "Eviny", "name": "Eviny Rema 1000 Brandbu", "addr:country": "NO", "socket:type2": "1", "socket:type2:output": "22.0 kW", "socket:type2_combo": "4", "socket:type2_combo:output": "150.0 kW", "socket:chademo": "3", "socket:chademo:output": "62.0 kW", "charging_station:output": "150.0 kW", "capacity": "5", "_source": "worldwide"}}, {"type": "node", "id": 11169096632, "lat": 60.836972, "lon": 10.069963, "tags": {"amenity": "charging_station", "access": "yes", "brand": "Eviny", "name": "Eviny Rema 1000 Dokka", "addr:country": "NO", "socket:type2": "1", "socket:type2:output": "22.0 kW", "socket:type2_combo": "4", "socket:type2_combo:output": "350.0 kW", "socket:chademo": "1", "socket:chademo:output": "62.0 kW", "charging_station:output": "350.0 kW", "capacity": "5", "_source": "worldwide"}}, {"type": "node", "id": 11169096641, "lat": 60.880442, "lon": 10.387149, "tags": {"amenity": "charging_station", "access": "yes", "brand": "Eviny", "name": "Eviny Snertingdal", "addr:country": "NO", "socket:type2": "1", "socket:type2:output": "22.0 kW", "socket:type2_combo": "3", "socket:type2_combo:output": "200.0 kW", "socket:chademo": "2", "socket:chademo:output": "50.0 kW", "charging_station:output": "200.0 kW", "capacity": "4", "_source": "worldwide"}}, {"type": "node", "id": 11169096642, "lat": 60.783898, "lon": 10.645229, "tags": {"amenity": "charging_station", "access": "yes", "brand": "Eviny", "name": "Eviny Rema 1000 Hunndalen", "addr:country": "NO", "socket:type2": "2", "socket:type2:output": "22.0 kW", "socket:type2_combo": "8", "socket:type2_combo:output": "350.0 kW", "socket:chademo": "3", "socket:chademo:output": "50.0 kW", "charging_station:output": "350.0 kW", "capacity": "10", "_source": "worldwide"}}, {"type": "node", "id": 11172579989, "lat": 60.039067, "lon": 10.884831, "tags": {"amenity": "charging_station", "access": "yes", "brand": "Recharge", "name": "Recharge Esso Nittedal", "addr:country": "NO", "socket:type2_combo": "6", "socket:type2_combo:output": "300.0 kW", "socket:chademo": "2", "socket:chademo:output": "50.0 kW", "charging_station:output": "300.0 kW", "capacity": "6", "_source": "worldwide"}}, {"type": "node", "id": 11172580038, "lat": 60.080187, "lon": 10.282583, "tags": {"amenity": "charging_station", "access": "yes", "brand": "Recharge", "name": "Recharge Shell Vik", "addr:country": "NO", "socket:type2_combo": "6", "socket:type2_combo:output": "225.0 kW", "socket:chademo": "1", "socket:chademo:output": "62.0 kW", "charging_station:output": "225.0 kW", "capacity": "6", "_source": "worldwide"}}, {"type": "node", "id": 11172580040, "lat": 60.399012, "lon": 10.550971, "tags": {"amenity": "charging_station", "access": "yes", "brand": "Recharge", "name": "Recharge Esso Jaren", "addr:country": "NO", "socket:type2_combo": "6", "socket:type2_combo:output": "200.0 kW", "socket:chademo": "2", "socket:chademo:output": "50.0 kW", "charging_station:output": "200.0 kW", "capacity": "6", "_source": "worldwide"}}, {"type": "node", "id": 11172580045, "lat": 60.792304, "lon": 10.695715, "tags": {"amenity": "charging_station", "access": "yes", "brand": "Recharge", "name": "Recharge Esso Gjøvik", "addr:country": "NO", "socket:type2_combo": "8", "socket:type2_combo:output": "200.0 kW", "socket:chademo": "2", "socket:chademo:output": "62.0 kW", "charging_station:output": "200.0 kW", "capacity": "8", "_source": "worldwide"}}, {"type": "node", "id": 11172580069, "lat": 60.918451, "lon": 10.703906, "tags": {"amenity": "charging_station", "access": "yes", "brand": "Recharge", "name": "Recharge Shell Moelv", "addr:country": "NO", "socket:type2_combo": "9", "socket:type2_combo:output": "225.0 kW", "socket:chademo": "2", "socket:chademo:output": "62.0 kW", "charging_station:output": "225.0 kW", "capacity": "9", "_source": "worldwide"}}, {"type": "node", "id": 11172580071, "lat": 60.204232, "lon": 10.089609, "tags": {"amenity": "charging_station", "access": "yes", "brand": "Recharge", "name": "Recharge Shell Veme", "addr:country": "NO", "socket:type2_combo": "4", "socket:type2_combo:output": "300.0 kW", "socket:chademo": "2", "socket:chademo:output": "50.0 kW", "charging_station:output": "300.0 kW", "capacity": "4", "_source": "worldwide"}}, {"type": "node", "id": 11188000616, "lat": 60.166675, "lon": 10.258928, "tags": {"amenity": "charging_station", "access": "yes", "brand": "Kople", "name": "Kople Hønefoss sentrum", "addr:country": "NO", "socket:type2_combo": "6", "socket:type2_combo:output": "150.0 kW", "socket:chademo": "2", "socket:chademo:output": "62.0 kW", "charging_station:output": "150.0 kW", "capacity": "6", "_source": "worldwide"}}, {"type": "node", "id": 11188024233, "lat": 60.393028, "lon": 10.55928, "tags": {"amenity": "charging_station", "access": "yes", "brand": "Kople", "name": "Kople Gran kommune rådhus gjester", "addr:country": "NO", "socket:type2": "21", "socket:type2:output": "7.4 kW", "socket:type2_combo": "1", "socket:type2_combo:output": "22.0 kW", "charging_station:output": "22.0 kW", "capacity": "22", "_source": "worldwide"}}, {"type": "node", "id": 11188024260, "lat": 60.42075, "lon": 10.505103, "tags": {"amenity": "charging_station", "access": "yes", "brand": "Kople", "name": "Kople Coop Extra Brandbu", "addr:country": "NO", "socket:type2": "2", "socket:type2:output": "22.0 kW", "socket:type2_combo": "1", "socket:type2_combo:output": "75.0 kW", "socket:chademo": "1", "socket:chademo:output": "75.0 kW", "charging_station:output": "75.0 kW", "capacity": "3", "_source": "worldwide"}}, {"type": "node", "id": 11188024282, "lat": 60.713911, "lon": 10.855707, "tags": {"amenity": "charging_station", "access": "yes", "brand": "Kople", "name": "Kople Kiwi Kapp", "addr:country": "NO", "socket:type2_combo": "3", "socket:type2_combo:output": "180.0 kW", "socket:chademo": "1", "socket:chademo:output": "62.0 kW", "charging_station:output": "180.0 kW", "capacity": "3", "_source": "worldwide"}}, {"type": "node", "id": 11188024331, "lat": 60.787175, "lon": 10.666536, "tags": {"amenity": "charging_station", "access": "yes", "brand": "Kople", "name": "Kople Kallerud vest Rv4 Gjøvik", "addr:country": "NO", "socket:type2_combo": "9", "socket:type2_combo:output": "180.0 kW", "socket:chademo": "3", "socket:chademo:output": "62.0 kW", "charging_station:output": "180.0 kW", "capacity": "9", "_source": "worldwide"}}, {"type": "node", "id": 11188024344, "lat": 60.885397, "lon": 10.945568, "tags": {"amenity": "charging_station", "access": "yes", "brand": "Kople", "name": "Kople Vik senter Brumunddal", "addr:country": "NO", "socket:type2_combo": "5", "socket:type2_combo:output": "180.0 kW", "socket:chademo": "1", "socket:chademo:output": "62.0 kW", "charging_station:output": "180.0 kW", "capacity": "5", "_source": "worldwide"}}, {"type": "node", "id": 11188024357, "lat": 60.887404, "lon": 10.933441, "tags": {"amenity": "charging_station", "access": "yes", "brand": "Kople", "name": "Kople Coop Extra Fabrikkvegen Brumunddal", "addr:country": "NO", "socket:type2_combo": "3", "socket:type2_combo:output": "150.0 kW", "socket:chademo": "1", "socket:chademo:output": "100.0 kW", "charging_station:output": "150.0 kW", "capacity": "3", "_source": "worldwide"}}, {"type": "node", "id": 11193540556, "lat": 60.276683, "lon": 10.188691, "tags": {"amenity": "charging_station", "access": "yes", "brand": "E.ON", "name": "E.ON Hallingby", "addr:country": "NO", "socket:type2_combo": "4", "socket:type2_combo:output": "200.0 kW", "socket:chademo": "4", "socket:chademo:output": "200.0 kW", "charging_station:output": "200.0 kW", "capacity": "4", "_source": "worldwide"}}, {"type": "node", "id": 11200500518, "lat": 60.153483, "lon": 10.250414, "tags": {"amenity": "charging_station", "access": "yes", "brand": "Uno-X", "name": "Uno-X Eikli", "addr:country": "NO", "socket:type2_combo": "6", "socket:type2_combo:output": "300.0 kW", "charging_station:output": "300.0 kW", "capacity": "6", "_source": "worldwide"}}, {"type": "node", "id": 12776842167, "lat": 60.227112, "lon": 10.35564, "tags": {"amenity": "charging_station", "access": "yes", "brand": "Circle K", "name": "Circle K Jevnaker", "addr:country": "NO", "socket:type2_combo": "4", "socket:type2_combo:output": "400.0 kW", "socket:chademo": "2", "socket:chademo:output": "62.0 kW", "charging_station:output": "400.0 kW", "capacity": "4", "_source": "worldwide"}}, {"type": "node", "id": 12776942839, "lat": 60.654149, "lon": 10.934242, "tags": {"amenity": "charging_station", "access": "yes", "brand": "Eviny", "name": "Eviny Rema 1000 Skreia", "addr:country": "NO", "socket:type2": "2", "socket:type2:output": "22.0 kW", "socket:type2_combo": "4", "socket:type2_combo:output": "350.0 kW", "charging_station:output": "350.0 kW", "capacity": "6", "_source": "worldwide"}}, {"type": "node", "id": 12824245633, "lat": 60.653818, "lon": 10.933584, "tags": {"amenity": "charging_station", "access": "yes", "brand": "Kople", "name": "Kople Sandberggården Skreia", "addr:country": "NO", "socket:type2": "2", "socket:type2:output": "22.0 kW", "socket:type2_combo": "3", "socket:type2_combo:output": "150.0 kW", "socket:chademo": "2", "socket:chademo:output": "62.0 kW", "charging_station:output": "150.0 kW", "capacity": "5", "_source": "worldwide"}}, {"type": "node", "id": 12776967798, "lat": 60.172857, "lon": 10.261624, "tags": {"amenity": "charging_station", "access": "yes", "brand": "Eviny", "name": "Eviny Rema 1000 Hønengata", "addr:country": "NO", "socket:type2_combo": "8", "socket:type2_combo:output": "400.0 kW", "socket:chademo": "3", "socket:chademo:output": "62.0 kW", "charging_station:output": "400.0 kW", "capacity": "8", "_source": "worldwide"}}, {"type": "node", "id": 12810027576, "lat": 60.785082, "lon": 10.692829, "tags": {"amenity": "charging_station", "access": "yes", "brand": "Uno-X", "name": "Uno-X Gjøvik syd", "addr:country": "NO", "socket:type2_combo": "8", "socket:type2_combo:output": "300.0 kW", "charging_station:output": "300.0 kW", "capacity": "8", "_source": "worldwide"}}, {"type": "node", "id": 12810027577, "lat": 60.732999, "lon": 10.616528, "tags": {"amenity": "charging_station", "access": "yes", "brand": "Uno-X", "name": "Uno-X Raufoss", "addr:country": "NO", "socket:type2_combo": "4", "socket:type2_combo:output": "300.0 kW", "charging_station:output": "300.0 kW", "capacity": "4", "_source": "worldwide"}}, {"type": "node", "id": 12810046422, "lat": 60.957428, "lon": 10.620603, "tags": {"amenity": "charging_station", "access": "yes", "brand": "Uno-X", "name": "Uno-X Biri", "addr:country": "NO", "socket:type2_combo": "4", "socket:type2_combo:output": "300.0 kW", "charging_station:output": "300.0 kW", "capacity": "4", "_source": "worldwide"}}, {"type": "node", "id": 12824245632, "lat": 60.957029, "lon": 10.621982, "tags": {"amenity": "charging_station", "access": "yes", "brand": "Kople", "name": "Kople Biri senter", "addr:country": "NO", "socket:type2_combo": "8", "socket:type2_combo:output": "200.0 kW", "socket:chademo": "1", "socket:chademo:output": "62.0 kW", "charging_station:output": "200.0 kW", "capacity": "8", "_source": "worldwide"}}, {"type": "node", "id": 12824245634, "lat": 60.923475, "lon": 10.701245, "tags": {"amenity": "charging_station", "access": "yes", "brand": "Kople", "name": "Kople Spar Mjøsbrua Moelv", "addr:country": "NO", "socket:type2_combo": "4", "socket:type2_combo:output": "350.0 kW", "socket:chademo": "1", "socket:chademo:output": "62.0 kW", "charging_station:output": "350.0 kW", "capacity": "4", "_source": "worldwide"}}, {"type": "node", "id": 13064082407, "lat": 60.287257, "lon": 10.62904, "tags": {"amenity": "charging_station", "access": "yes", "fee": "yes", "brand": "Recharge", "operator": "Recharge", "name": "Recharge St1 Roa", "addr:country": "NO", "capacity": "10", "_source": "worldwide"}}, {"type": "node", "id": 1326525288, "lat": 60.152518, "lon": 10.262611, "tags": {"amenity": "charging_station", "operator": "Garo", "name": "Ladestation Garo", "addr:country": "NO", "capacity": "4", "_source": "worldwide"}}]}