{"id": "37-37", "latMin": 37, "lonMin": 37, "latMax": 38, "lonMax": 38, "generated": "2026-04-16T18:39:07.626Z", "count": 5, "pois": [{"type": "node", "id": 5710699731, "lat": 37.076601, "lon": 37.371067, "tags": {"amenity": "charging_station", "operator": "İpekyol Otomotiv Araç Şarj İstasyonu", "name": "Ladestation İpekyol Otomotiv Araç Şarj İstasyonu", "addr:city": "Gaziantep", "_source": "worldwide"}}, {"type": "node", "id": 5710742015, "lat": 37.081909, "lon": 37.420088, "tags": {"amenity": "charging_station", "name": "İmam Kayalıoğulları Araç Şarj İstasyonu", "_source": "worldwide"}}, {"type": "node", "id": 7077951374, "lat": 37.092499, "lon": 37.368012, "tags": {"amenity": "charging_station", "fee": "yes", "opening_hours": "24/7", "operator": "SHARZ", "name": "SHARZ Turkay Petrol", "addr:street": "8 ŞUBAT MAH. 82079 NOLU CAD. NO: 98/0 ŞEHİTKAMİL GAZİANTEP", "addr:city": "ŞEHİTKAMİL", "socket:type2": "1", "socket:type2:output": "22 kW", "charging_station:output": "22 kW", "_source": "worldwide"}}, {"type": "node", "id": 7077989408, "lat": 37.062202, "lon": 37.371194, "tags": {"amenity": "charging_station", "fee": "yes", "opening_hours": "24/7", "operator": "SHARZ", "name": "SHARZ Tuğcan Otel", "addr:street": "Akyol Mahallesi, Atatürk Blv. 91, 27010 Şahinbey/Gaziantep", "addr:city": "ŞAHİNBEY", "socket:type2": "1", "socket:type2:output": "22 kW", "charging_station:output": "22 kW", "_source": "worldwide"}}, {"type": "node", "id": 12839643994, "lat": 37.063441, "lon": 37.361693, "tags": {"amenity": "charging_station", "_source": "worldwide"}}]}