{"id": "53--9", "latMin": 53, "lonMin": -9, "latMax": 54, "lonMax": -8, "generated": "2026-04-16T18:39:08.670Z", "count": 46, "pois": [{"type": "node", "id": 1989059501, "lat": 53.280615, "lon": -9.027073, "tags": {"amenity": "charging_station", "fee": "no", "operator": "Renault", "name": "Renault Charge Point", "addr:street": "Dublin Road", "addr:city": "Galway", "socket:type2": "2", "socket:type2:output": "22.0 kW", "charging_station:output": "22.0 kW", "capacity": "2", "_source": "worldwide"}}, {"type": "node", "id": 9055579754, "lat": 53.279813, "lon": -9.022218, "tags": {"amenity": "charging_station", "fee": "yes", "operator": "EasyGo", "name": "EasyGo Charging Station", "socket:type2": "2", "socket:type2:output": "22.0 kW", "charging_station:output": "22.0 kW", "capacity": "2", "authentication:none": "", "_source": "worldwide"}}, {"type": "node", "id": 3390263833, "lat": 53.276579, "lon": -9.052897, "tags": {"amenity": "charging_station", "access": "yes", "fee": "yes", "brand": "ecars", "operator": "ESB Group", "name": "ESB Electric Vehicle Charge Point", "socket:type2": "2", "socket:type2:output": "22.0 kW", "charging_station:output": "22.0 kW", "capacity": "2", "authentication:none": "", "_source": "worldwide"}}, {"type": "node", "id": 4630831079, "lat": 53.85453, "lon": -9.306494, "tags": {"amenity": "charging_station", "access": "yes", "fee": "yes", "brand": "ecars", "operator": "ESB Group", "name": "ESB Electric Vehicle Fast Charge Point", "socket:type2": "1", "socket:type2:output": "43.0 kW", "socket:type2_combo": "1", "socket:type2_combo:output": "50.0 kW", "socket:chademo": "1", "socket:chademo:output": "50.0 kW", "charging_station:output": "50.0 kW", "capacity": "2", "_source": "worldwide"}}, {"type": "node", "id": 11112531401, "lat": 53.849526, "lon": -9.310608, "tags": {"amenity": "charging_station", "access": "yes", "fee": "yes", "brand": "EasyGo", "operator": "EasyGo", "name": "EasyGo Fast Charger", "socket:type2": "2", "socket:type2:output": "22.0 kW", "socket:type2_combo": "1", "socket:type2_combo:output": "50.0 kW", "socket:chademo": "1", "socket:chademo:output": "50.0 kW", "charging_station:output": "50.0 kW", "capacity": "2", "authentication:none": "", "_source": "worldwide"}}, {"type": "node", "id": 6696039460, "lat": 53.279727, "lon": -9.057671, "tags": {"amenity": "charging_station", "operator": "EVBox", "name": "EVBox Charging Stations", "socket:type2": "4", "socket:type2:output": "4.0 kW", "charging_station:output": "4.0 kW", "capacity": "4", "_source": "worldwide"}}, {"type": "node", "id": 6764729871, "lat": 53.280267, "lon": -9.049612, "tags": {"amenity": "charging_station", "access": "yes", "fee": "yes", "brand": "ecars", "opening_hours": "24/7", "operator": "ESB Group", "name": "ESB Electric Vehicle Fast Charge Point", "socket:type2": "1", "socket:type2:output": "22.0 kW", "socket:type2_combo": "1", "socket:type2_combo:output": "50.0 kW", "socket:chademo": "1", "socket:chademo:output": "50.0 kW", "charging_station:output": "50.0 kW", "capacity": "2", "authentication:none": "", "_source": "worldwide"}}, {"type": "node", "id": 6916582131, "lat": 53.278199, "lon": -9.050711, "tags": {"amenity": "charging_station", "access": "yes", "fee": "yes", "brand": "ecars", "operator": "ESB Group", "name": "ESB Electric Vehicle Charge Point", "socket:type2": "2", "socket:type2:output": "7.0 kW", "charging_station:output": "7.0 kW", "capacity": "2", "authentication:none": "", "_source": "worldwide"}}, {"type": "node", "id": 1266907358, "lat": 53.281144, "lon": -9.04967, "tags": {"amenity": "charging_station", "fee": "yes", "operator": "Brite", "name": "Ladestation Brite", "socket:type2_combo": "4", "socket:type2_combo:output": "200.0 kW", "charging_station:output": "200.0 kW", "capacity": "4", "_source": "worldwide"}}, {"type": "node", "id": 6768923054, "lat": 53.288162, "lon": -9.047978, "tags": {"amenity": "charging_station", "access": "yes", "fee": "yes", "brand": "ecars", "operator": "ESB Group", "name": "ESB Electric Vehicle Charge Point", "socket:type2": "2", "socket:type2:output": "22.0 kW", "charging_station:output": "22.0 kW", "capacity": "2", "authentication:none": "", "_source": "worldwide"}}, {"type": "node", "id": 6882589665, "lat": 53.289552, "lon": -9.00649, "tags": {"amenity": "charging_station", "access": "customers", "fee": "no", "operator": "Nissan", "name": "Windsor Nissan Galway", "socket:chademo": "1", "socket:chademo:output": "50.0 kW", "charging_station:output": "50.0 kW", "capacity": "1", "authentication:none": "yes", "_source": "worldwide"}}, {"type": "node", "id": 6882769462, "lat": 53.293725, "lon": -9.007137, "tags": {"amenity": "charging_station", "operator": "ESB ecars", "name": "Ladestation ESB ecars", "capacity": "2", "_source": "worldwide"}}, {"type": "node", "id": 6916582149, "lat": 53.290172, "lon": -9.007277, "tags": {"amenity": "charging_station", "access": "yes", "fee": "no", "operator": "ESB ecars", "name": "Monaghan's Esso", "socket:type2": "2", "socket:type2:output": "7.0 kW", "charging_station:output": "7.0 kW", "capacity": "2", "_source": "worldwide"}}, {"type": "node", "id": 6882723519, "lat": 53.292438, "lon": -9.010821, "tags": {"amenity": "charging_station", "access": "customers", "fee": "yes", "operator": "Plugsurfing", "name": "Boston Scientific", "socket:type2": "4", "socket:type2:output": "22.0 kW", "charging_station:output": "22.0 kW", "capacity": "4", "_source": "worldwide"}}, {"type": "node", "id": 8563947265, "lat": 53.292222, "lon": -9.019529, "tags": {"amenity": "charging_station", "access": "yes", "fee": "yes", "brand": "ecars", "operator": "ESB Group", "name": "ESB Electric Vehicle Charge Point", "socket:type2": "2", "socket:type2:output": "22.0 kW", "charging_station:output": "22.0 kW", "capacity": "2", "_source": "worldwide"}}, {"type": "node", "id": 6910259260, "lat": 53.400636, "lon": -9.863836, "tags": {"amenity": "charging_station", "access": "yes", "fee": "no", "operator": "Rossroe Lodge", "name": "ecar Charge Point", "socket:type2": "1", "socket:type2:output": "3.7 kW", "charging_station:output": "3.7 kW", "capacity": "1", "authentication:none": "yes", "_source": "worldwide"}}, {"type": "node", "id": 6910284334, "lat": 53.800666, "lon": -9.520127, "tags": {"amenity": "charging_station", "access": "yes", "fee": "yes", "operator": "ESB ecars", "name": "ESB Electric Vehicle Charge Point", "socket:type2": "2", "socket:type2:output": "22.0 kW", "charging_station:output": "22.0 kW", "capacity": "2", "_source": "worldwide"}}, {"type": "node", "id": 6910303413, "lat": 53.801094, "lon": -9.519404, "tags": {"amenity": "charging_station", "access": "customers", "fee": "no", "operator": "Westport Plaza", "name": "EV Charge Point", "socket:type2": "4", "socket:type2:output": "22 kW", "charging_station:output": "22 kW", "capacity": "4", "authentication:none": "yes", "_source": "worldwide"}}, {"type": "node", "id": 11112531402, "lat": 53.800512, "lon": -9.52421, "tags": {"amenity": "charging_station", "access": "yes", "fee": "yes", "brand": "EasyGo", "operator": "EasyGo", "name": "EasyGo Fast Charger", "socket:type2_combo": "1", "socket:type2_combo:output": "50.0 kW", "socket:chademo": "1", "socket:chademo:output": "50.0 kW", "charging_station:output": "50.0 kW", "capacity": "2", "authentication:none": "", "_source": "worldwide"}}, {"type": "node", "id": 11619048779, "lat": 53.622309, "lon": -9.2217, "tags": {"amenity": "charging_station", "access": "yes", "fee": "yes", "operator": "EasyGo", "name": "EasyGo Fast Charger", "socket:type2_combo": "1", "socket:type2_combo:output": "50.0 kW", "socket:chademo": "1", "socket:chademo:output": "50.0 kW", "charging_station:output": "50.0 kW", "capacity": "2", "authentication:none": "", "_source": "worldwide"}}, {"type": "node", "id": 6915220385, "lat": 53.853414, "lon": -9.298415, "tags": {"amenity": "charging_station", "access": "yes", "fee": "yes", "brand": "ecars", "operator": "ESB Group", "name": "ESB Electric Vehicle Charge Point", "socket:type2": "2", "socket:type2:output": "22.0 kW", "charging_station:output": "22.0 kW", "capacity": "2", "_source": "worldwide"}}, {"type": "node", "id": 11112531400, "lat": 53.857129, "lon": -9.3003, "tags": {"amenity": "charging_station", "access": "yes", "fee": "yes", "brand": "EasyGo", "operator": "EasyGo", "name": "EasyGo Fast Charger", "socket:type2_combo": "1", "socket:type2_combo:output": "50.0 kW", "socket:chademo": "1", "socket:chademo:output": "50.0 kW", "charging_station:output": "50.0 kW", "capacity": "2", "authentication:none": "", "_source": "worldwide"}}, {"type": "node", "id": 6916522629, "lat": 53.251316, "lon": -9.153119, "tags": {"amenity": "charging_station", "access": "customers", "fee": "no", "operator": "The Twelve", "name": "Electric Vehicle Charge Point", "socket:type2": "2", "socket:type2:output": "7.0 kW", "charging_station:output": "7.0 kW", "capacity": "2", "_source": "worldwide"}}, {"type": "node", "id": 6916574421, "lat": 53.282151, "lon": -9.064825, "tags": {"amenity": "charging_station", "access": "yes", "fee": "yes", "brand": "ecars", "operator": "ESB Group", "name": "ESB Electric Vehicle Fast Charge Point", "socket:type2": "3", "socket:type2:output": "1.0 kW", "socket:type2_combo": "1", "socket:type2_combo:output": "50.0 kW", "socket:chademo": "1", "socket:chademo:output": "50.0 kW", "charging_station:output": "50.0 kW", "capacity": "3", "authentication:none": "", "_source": "worldwide"}}, {"type": "node", "id": 6935445014, "lat": 53.07642, "lon": -9.184221, "tags": {"amenity": "charging_station", "access": "customers", "fee": "no", "brand": "Tesla, Inc.", "opening_hours": "Mo-Su 07:00-22:00", "operator": "Gregan's Castle Hotel", "name": "Tesla Destination Charger", "socket:type2": "3", "socket:type2:output": "22 kW", "charging_station:output": "22 kW", "capacity": "3", "authentication:none": "yes", "_source": "worldwide"}}, {"type": "node", "id": 6935477656, "lat": 53.012175, "lon": -9.384398, "tags": {"amenity": "charging_station", "access": "customers", "fee": "no", "operator": "Seaview House B&B", "name": "ecar Charge Point", "socket:type2": "1", "socket:type2:output": "3.7 kW", "charging_station:output": "3.7 kW", "capacity": "1", "authentication:none": "yes", "_source": "worldwide"}}, {"type": "node", "id": 6935489910, "lat": 53.027034, "lon": -9.29023, "tags": {"amenity": "charging_station", "access": "yes", "fee": "yes", "operator": "ESB ecars", "name": "ESB Electric Vehicle Charge Point", "socket:type2": "2", "socket:type2:output": "22.0 kW", "charging_station:output": "22.0 kW", "capacity": "2", "authentication:none": "", "_source": "worldwide"}}, {"type": "node", "id": 6935491362, "lat": 53.016814, "lon": -9.253778, "tags": {"amenity": "charging_station", "access": "customers", "fee": "no", "operator": "The Boghill Centre", "name": "ecar Charge Point", "socket:type2": "1", "socket:type2:output": "3.7 kW", "charging_station:output": "3.7 kW", "capacity": "1", "authentication:none": "yes", "_source": "worldwide"}}, {"type": "node", "id": 8452244101, "lat": 53.461909, "lon": -9.104837, "tags": {"amenity": "charging_station", "fee": "yes", "operator": "EasyGo", "name": "EasyGo Fast Charger", "socket:type2_combo": "1", "socket:type2_combo:output": "50.0 kW", "socket:chademo": "1", "socket:chademo:output": "50.0 kW", "charging_station:output": "50.0 kW", "capacity": "1", "authentication:none": "", "_source": "worldwide"}}, {"type": "node", "id": 9350635375, "lat": 53.271721, "lon": -9.098016, "tags": {"amenity": "charging_station", "access": "yes", "fee": "yes", "operator": "Gateway Shopping Park", "name": "Gateway Shopping Park", "socket:type2": "2", "socket:type2:output": "22.0 kW", "charging_station:output": "22.0 kW", "capacity": "6", "_source": "worldwide"}}, {"type": "node", "id": 9631330438, "lat": 53.270596, "lon": -9.100043, "tags": {"amenity": "charging_station", "access": "yes", "fee": "yes", "operator": "EasyGo", "name": "EasyGo Lidl Knocknacarra", "socket:type2": "1", "socket:type2:output": "22 kW", "socket:type2_combo": "1", "socket:type2_combo:output": "50 kW", "socket:chademo": "1", "socket:chademo:output": "50 kW", "charging_station:output": "50 kW", "capacity": "2", "_source": "worldwide"}}, {"type": "node", "id": 9352099359, "lat": 53.273236, "lon": -9.00315, "tags": {"amenity": "charging_station", "fee": "yes", "brand": "GOcharge", "network": "GOcharge", "operator": "Go Platform Limited", "name": "GOcharge", "socket:type2": "2", "socket:type2:output": "22.0 kW", "charging_station:output": "22.0 kW", "capacity": "2", "authentication:none": "", "_source": "worldwide"}}, {"type": "node", "id": 9365278479, "lat": 53.285392, "lon": -9.023989, "tags": {"amenity": "charging_station", "access": "private", "fee": "yes", "operator": "EasyGo", "name": "EasyGo Charging Station", "socket:type2": "2", "socket:type2:output": "22.0 kW", "charging_station:output": "22.0 kW", "capacity": "4", "authentication:none": "", "_source": "worldwide"}}, {"type": "node", "id": 9452683328, "lat": 53.550448, "lon": -9.94536, "tags": {"amenity": "charging_station", "fee": "yes", "operator": "EVBox", "name": "EVBox Charging Station", "socket:type2": "2", "socket:type2:output": "22 kW", "charging_station:output": "22 kW", "capacity": "2", "authentication:none": "", "_source": "worldwide"}}, {"type": "node", "id": 9468881489, "lat": 53.271349, "lon": -9.045696, "tags": {"amenity": "charging_station", "fee": "yes", "operator": "EasyGo", "name": "EasyGo Fast Charger", "socket:type2_combo": "1", "socket:type2_combo:output": "75.0 kW", "socket:chademo": "1", "socket:chademo:output": "75.0 kW", "charging_station:output": "75.0 kW", "capacity": "1", "authentication:none": "", "_source": "worldwide"}}, {"type": "node", "id": 10211563223, "lat": 53.270718, "lon": -9.048016, "tags": {"amenity": "charging_station", "fee": "yes", "operator": "EasyGo", "name": "EasyGo Charging Station", "socket:type2": "2", "socket:type2:output": "22.0 kW", "charging_station:output": "22.0 kW", "capacity": "2", "authentication:none": "", "_source": "worldwide"}}, {"type": "node", "id": 10211563221, "lat": 53.278241, "lon": -9.019332, "tags": {"amenity": "charging_station", "fee": "yes", "operator": "EasyGo", "name": "EasyGo Fast Charger", "socket:type2_combo": "1", "socket:type2_combo:output": "75.0 kW", "socket:chademo": "1", "socket:chademo:output": "75.0 kW", "charging_station:output": "75.0 kW", "capacity": "1", "authentication:none": "", "_source": "worldwide"}}, {"type": "node", "id": 10211563222, "lat": 53.273913, "lon": -9.043346, "tags": {"amenity": "charging_station", "fee": "yes", "operator": "EasyGo", "name": "EasyGo Charging Station", "socket:type2": "4", "socket:type2:output": "22.0 kW", "charging_station:output": "22.0 kW", "capacity": "4", "wheelchair": "yes", "authentication:none": "", "_source": "worldwide"}}, {"type": "node", "id": 10211563224, "lat": 53.276789, "lon": -9.046368, "tags": {"amenity": "charging_station", "fee": "yes", "operator": "EasyGo", "name": "EasyGo Charging Station", "socket:type2": "5", "socket:type2:output": "22.0 kW", "charging_station:output": "22.0 kW", "capacity": "5", "authentication:none": "", "_source": "worldwide"}}, {"type": "node", "id": 11112531399, "lat": 53.885234, "lon": -9.545037, "tags": {"amenity": "charging_station", "access": "yes", "fee": "yes", "brand": "EasyGo", "operator": "EasyGo", "name": "EasyGo Fast Charger", "socket:type2_combo": "1", "socket:type2_combo:output": "50.0 kW", "socket:chademo": "1", "socket:chademo:output": "50.0 kW", "charging_station:output": "50.0 kW", "capacity": "2", "authentication:none": "", "_source": "worldwide"}}, {"type": "node", "id": 11112531403, "lat": 53.800133, "lon": -9.54886, "tags": {"amenity": "charging_station", "access": "yes", "fee": "yes", "brand": "EasyGo", "operator": "EasyGo", "name": "EasyGo Fast Charger", "socket:type2_combo": "1", "socket:type2_combo:output": "50.0 kW", "socket:chademo": "1", "socket:chademo:output": "50.0 kW", "charging_station:output": "50.0 kW", "capacity": "2", "authentication:none": "", "_source": "worldwide"}}, {"type": "node", "id": 11204443051, "lat": 53.980406, "lon": -9.113716, "tags": {"amenity": "charging_station", "fee": "yes", "operator": "EasyGo", "name": "EasyGo Fast Charger", "socket:type2_combo": "1", "socket:type2_combo:output": "50.0 kW", "socket:chademo": "1", "socket:chademo:output": "50.0 kW", "charging_station:output": "50.0 kW", "capacity": "1", "authentication:none": "", "_source": "worldwide"}}, {"type": "node", "id": 11273850715, "lat": 53.762847, "lon": -9.806521, "tags": {"amenity": "charging_station", "fee": "yes", "brand": "EasyGo", "operator": "EasyGo", "name": "EasyGo Fast Charger", "socket:type2_combo": "1", "socket:type2_combo:output": "24.0 kW", "socket:chademo": "1", "socket:chademo:output": "24.0 kW", "charging_station:output": "24.0 kW", "capacity": "1", "authentication:none": "", "_source": "worldwide"}}, {"type": "node", "id": 11619719953, "lat": 53.796416, "lon": -9.510583, "tags": {"amenity": "charging_station", "fee": "yes", "operator": "ePower", "name": "ePower EV Quick Charger", "socket:type2_combo": "1", "socket:type2_combo:output": "150.0 kW", "socket:chademo": "1", "socket:chademo:output": "100.0 kW", "charging_station:output": "150.0 kW", "capacity": "2", "authentication:none": "", "_source": "worldwide"}}, {"type": "node", "id": 11619851618, "lat": 53.286787, "lon": -9.031107, "tags": {"amenity": "charging_station", "fee": "yes", "brand": "Applegreen Electric", "network": "Applegreen Electric", "operator": "Applegreen Electric", "name": "Applegreen Electric", "addr:street": "Tuam Road", "addr:city": "Galway", "socket:type2_combo": "2", "socket:type2_combo:output": "180.0 kW", "charging_station:output": "180.0 kW", "capacity": "2", "authentication:none": "", "_source": "worldwide"}}, {"type": "node", "id": 13689625422, "lat": 53.277233, "lon": -9.073358, "tags": {"amenity": "charging_station", "name": "Charging hub", "addr:street": "Seamus Quirke Rd", "_source": "worldwide"}}]}