{"id": "51-2", "latMin": 51, "lonMin": 2, "latMax": 52, "lonMax": 3, "generated": "2026-04-16T18:39:08.424Z", "count": 109, "pois": [{"type": "node", "id": 5491799499, "lat": 51.15875, "lon": 2.975153, "tags": {"amenity": "charging_station", "access": "customers", "fee": "no", "operator": "Molenhoeve", "name": "Ladestation Molenhoeve", "addr:country": "FR", "_source": "worldwide"}}, {"type": "node", "id": 5491815806, "lat": 51.035952, "lon": 2.836998, "tags": {"amenity": "charging_station", "access": "customers", "fee": "no", "addr:country": "FR", "_source": "worldwide"}}, {"type": "node", "id": 5913843579, "lat": 51.119526, "lon": 2.635529, "tags": {"amenity": "charging_station", "access": "yes", "fee": "yes", "addr:country": "FR", "_source": "worldwide"}}, {"type": "node", "id": 6301311652, "lat": 51.216884, "lon": 2.994192, "tags": {"amenity": "charging_station", "name": "Blue Corner Laadstation", "addr:country": "FR", "_source": "worldwide"}}, {"type": "node", "id": 1490168853, "lat": 51.217844, "lon": 2.995195, "tags": {"amenity": "charging_station", "addr:country": "FR", "capacity": "4", "_source": "worldwide"}}, {"type": "node", "id": 6303127397, "lat": 51.209752, "lon": 2.995713, "tags": {"amenity": "charging_station", "addr:country": "FR", "_source": "worldwide"}}, {"type": "node", "id": 6853688757, "lat": 51.071531, "lon": 2.669141, "tags": {"amenity": "charging_station", "access": "yes", "fee": "yes", "brand": "DATS 24", "operator": "Colruyt Group", "name": "DATS 24", "addr:country": "FR", "capacity": "2", "_source": "worldwide"}}, {"type": "node", "id": 6853725512, "lat": 51.070484, "lon": 2.665187, "tags": {"amenity": "charging_station", "access": "yes", "fee": "yes", "operator": "Allego", "name": "Ladestation Allego", "addr:country": "FR", "capacity": "2", "_source": "worldwide"}}, {"type": "node", "id": 7836746679, "lat": 51.113526, "lon": 2.636109, "tags": {"amenity": "charging_station", "access": "permissive", "fee": "yes", "operator": "Villa Monique", "name": "Ladestation Villa Monique", "addr:country": "FR", "capacity": "2", "_source": "worldwide"}}, {"type": "node", "id": 7837086973, "lat": 51.099406, "lon": 2.629557, "tags": {"amenity": "charging_station", "fee": "yes", "operator": "Shell Recharge", "name": "Shell Recharge - Shell Recharge Solutions", "addr:country": "FR", "capacity": "4", "_source": "worldwide"}}, {"type": "node", "id": 7864108055, "lat": 51.134302, "lon": 2.753942, "tags": {"amenity": "charging_station", "operator": "Allego", "name": "Ladestation Allego", "addr:country": "FR", "_source": "worldwide"}}, {"type": "node", "id": 8018476048, "lat": 51.20551, "lon": 2.871379, "tags": {"amenity": "charging_station", "access": "yes", "fee": "yes", "brand": "Fastned", "network": "Fastned", "opening_hours": "24/7", "operator": "Fastned", "name": "Fastned Oostende luchthaven", "addr:street": "Nieuwpoortsesteenweg", "addr:postcode": "8400", "addr:city": "Oostende", "addr:country": "BE", "socket:type2_combo": "4", "socket:type2_combo:output": "300.0 kW", "socket:chademo": "2", "socket:chademo:output": "50.0 kW", "charging_station:output": "300.0 kW", "capacity": "4", "authentication:none": "", "_source": "worldwide"}}, {"type": "node", "id": 8022404145, "lat": 51.064393, "lon": 2.673562, "tags": {"amenity": "charging_station", "fee": "yes", "brand": "Ionity", "opening_hours": "24/7", "operator": "IONITY", "name": "IONITY Veurne", "addr:country": "FR", "socket:type2_combo": "4", "socket:type2_combo:output": "350.0 kW", "charging_station:output": "350.0 kW", "capacity": "4", "authentication:none": "", "_source": "worldwide"}}, {"type": "node", "id": 8646396516, "lat": 51.151244, "lon": 2.958793, "tags": {"amenity": "charging_station", "operator": "Carrefour", "name": "Ladestation Carrefour", "addr:country": "FR", "capacity": "2", "_source": "worldwide"}}, {"type": "node", "id": 9547091916, "lat": 51.150142, "lon": 2.955522, "tags": {"amenity": "charging_station", "access": "customers", "fee": "yes", "operator": "Lidl", "name": "Lidl Gistel", "addr:country": "FR", "socket:type2": "1", "socket:type2:output": "22.0 kW", "socket:type2_combo": "1", "socket:type2_combo:output": "50.0 kW", "socket:chademo": "1", "socket:chademo:output": "50.0 kW", "charging_station:output": "50.0 kW", "capacity": "2", "_source": "worldwide"}}, {"type": "node", "id": 9101515095, "lat": 51.150022, "lon": 2.721552, "tags": {"amenity": "charging_station", "access": "yes", "addr:country": "FR", "capacity": "2", "_source": "worldwide"}}, {"type": "node", "id": 10302243798, "lat": 51.14792, "lon": 2.714767, "tags": {"amenity": "charging_station", "name": "Allego", "addr:country": "FR", "_source": "worldwide"}}, {"type": "node", "id": 10311820760, "lat": 51.149601, "lon": 2.718657, "tags": {"amenity": "charging_station", "name": "Allegro", "addr:country": "FR", "capacity": "2", "_source": "worldwide"}}, {"type": "node", "id": 9213964882, "lat": 51.034206, "lon": 2.85923, "tags": {"amenity": "charging_station", "access": "yes", "fee": "yes", "network": "Allego", "operator": "Allego", "name": "Ladestation Allego", "addr:street": "Beerstblotestraat 1", "socket:type2": "2", "socket:type2:output": "11.0 kW", "charging_station:output": "11.0 kW", "capacity": "2", "_source": "worldwide"}}, {"type": "node", "id": 9214153054, "lat": 51.031246, "lon": 2.854043, "tags": {"amenity": "charging_station", "addr:country": "FR", "_source": "worldwide"}}, {"type": "node", "id": 9535748391, "lat": 51.033052, "lon": 2.872899, "tags": {"amenity": "charging_station", "access": "customers", "fee": "yes", "operator": "Lidl", "name": "Lidl Diksmuide", "addr:country": "FR", "socket:type2": "1", "socket:type2:output": "22.0 kW", "socket:type2_combo": "1", "socket:type2_combo:output": "50.0 kW", "socket:chademo": "1", "socket:chademo:output": "50.0 kW", "charging_station:output": "50.0 kW", "capacity": "2", "_source": "worldwide"}}, {"type": "node", "id": 10674748562, "lat": 51.032348, "lon": 2.868392, "tags": {"amenity": "charging_station", "access": "yes", "fee": "yes", "operator": "Allego", "name": "Allego - Diksmuide station", "addr:street": "Bortierlaan 12", "socket:type2": "2", "socket:type2:output": "11.0 kW", "charging_station:output": "11.0 kW", "capacity": "2", "_source": "worldwide"}}, {"type": "node", "id": 9594480740, "lat": 51.089088, "lon": 2.978103, "tags": {"amenity": "charging_station", "access": "yes", "addr:country": "FR", "capacity": "4", "_source": "worldwide"}}, {"type": "node", "id": 9623196470, "lat": 51.252468, "lon": 2.974701, "tags": {"amenity": "charging_station", "opening_hours": "09:00-18:00", "addr:country": "FR", "capacity": "6", "_source": "worldwide"}}, {"type": "node", "id": 9685512483, "lat": 51.016533, "lon": 2.356124, "tags": {"amenity": "charging_station", "fee": "yes", "network": "DRIVECO", "opening_hours": "Mo 09:00-12:00, Mo 14:00-19:00, Tu 09:00-12:00, Tu 14:00-19:00, We 09:00-12:00, We 14:00-19:00, Th 09:00-12:00, Th 14:00-19:00, Fr 09:00-12:00, Fr 14:00-19:00, Sa 09:00-12:00, Sa 14:00-18:30", "operator": "DRIVECO", "name": "Ladestation DRIVECO", "addr:country": "FR", "socket:type2": "2", "socket:type2:output": "22 kW", "charging_station:output": "22 kW", "capacity": "5", "authentication:none": "yes", "_source": "worldwide"}}, {"type": "node", "id": 9685512484, "lat": 51.016611, "lon": 2.35693, "tags": {"amenity": "charging_station", "fee": "yes", "network": "DRIVECO", "opening_hours": "Mo 08:00-12:00, Mo 14:00-19:00, Tu 08:00-12:00, Tu 14:00-19:00, We 08:00-12:00, We 14:00-19:00, Th 08:00-12:00, Th 14:00-19:00, Fr 08:00-12:00, Fr 14:00-19:00, Sa 08:00-12:00, Sa 14:00-19:00", "operator": "DRIVECO", "name": "Ladestation DRIVECO", "addr:country": "FR", "socket:type2": "1", "socket:type2:output": "22 kW", "socket:type2_combo": "1", "socket:type2_combo:output": "50 kW", "socket:chademo": "1", "socket:chademo:output": "50 kW", "charging_station:output": "50 kW", "capacity": "3", "authentication:none": "yes", "_source": "worldwide"}}, {"type": "node", "id": 13260990058, "lat": 51.020183, "lon": 2.361661, "tags": {"amenity": "charging_station", "fee": "yes", "network": "DRIVECO", "opening_hours": "Mo 08:30-12:00, Mo 14:00-19:00, Tu 08:30-12:00, Tu 14:00-19:00, We 08:30-12:00, We 14:00-19:00, Th 08:30-12:00, Th 14:00-19:00, Fr 08:30-12:00, Fr 14:00-19:00, Sa 09:00-12:00, Sa 14:00-18:30", "operator": "DRIVECO", "name": "Ladestation DRIVECO", "addr:country": "FR", "socket:type2": "2", "socket:type2:output": "22 kW", "charging_station:output": "22 kW", "capacity": "2", "authentication:none": "yes", "_source": "worldwide"}}, {"type": "node", "id": 13260990059, "lat": 51.020331, "lon": 2.359754, "tags": {"amenity": "charging_station", "fee": "yes", "network": "DRIVECO", "opening_hours": "Mo 08:00-12:00, Mo 14:00-19:00, Tu 08:00-12:00, Tu 14:00-19:00, We 08:00-12:00, We 14:00-19:00, Th 08:00-12:00, Th 14:00-19:00, Fr 08:00-12:00, Fr 14:00-19:00, Sa 09:00-12:00, Sa 14:00-18:00", "operator": "DRIVECO", "name": "Ladestation DRIVECO", "addr:country": "FR", "socket:type2": "2", "socket:type2:output": "22 kW", "charging_station:output": "22 kW", "authentication:none": "yes", "_source": "worldwide"}}, {"type": "node", "id": 9693604580, "lat": 51.150464, "lon": 2.953034, "tags": {"amenity": "charging_station", "fee": "yes", "operator": "Fastned", "name": "Fastned Gistel", "addr:street": "Oostendse Baan 20A", "_source": "worldwide"}}, {"type": "node", "id": 11104504567, "lat": 51.148137, "lon": 2.945533, "tags": {"amenity": "charging_station", "addr:country": "FR", "_source": "worldwide"}}, {"type": "node", "id": 9781115427, "lat": 51.021231, "lon": 2.35933, "tags": {"amenity": "charging_station", "fee": "yes", "network": "DRIVECO", "opening_hours": "Mo 08:30-12:00, Mo 14:00-19:00, Tu 08:30-12:00, Tu 14:00-19:00, We 08:30-12:00, We 14:00-19:00, Th 08:30-12:00, Th 14:00-19:00, Fr 08:30-12:00, Fr 14:00-19:00, Sa 09:00-12:00, Sa 14:00-18:00", "operator": "DRIVECO", "name": "Ladestation DRIVECO", "addr:country": "FR", "socket:type2": "3", "socket:type2:output": "22 kW", "socket:type2_combo": "2", "socket:type2_combo:output": "50 kW", "charging_station:output": "50 kW", "capacity": "4", "authentication:none": "yes", "_source": "worldwide"}}, {"type": "node", "id": 13260990057, "lat": 51.02066, "lon": 2.361958, "tags": {"amenity": "charging_station", "fee": "yes", "network": "Mobilize Power Solutions", "opening_hours": "24/7", "operator": "Mobilize Fast Charge Network FRANCE", "name": "Mobilize Fast Charge Network FRANCE - Mobilize Power Solutions", "addr:country": "FR", "socket:type2": "1", "socket:type2:output": "22 kW", "socket:type2_combo": "6", "socket:type2_combo:output": "50 kW", "charging_station:output": "50 kW", "capacity": "7", "authentication:none": "yes", "_source": "worldwide"}}, {"type": "node", "id": 13261067730, "lat": 51.024159, "lon": 2.361194, "tags": {"amenity": "charging_station", "brand": "TotalEnergies", "network": "TotalEnergies Charge Rapide", "opening_hours": "24/7", "operator": "TotalEnergies", "name": "TotalEnergies - TotalEnergies", "addr:country": "FR", "socket:type2": "4", "socket:type2:output": "22 kW", "socket:type2_combo": "10", "socket:type2_combo:output": "50 kW", "socket:chademo": "4", "socket:chademo:output": "50 kW", "charging_station:output": "50 kW", "_source": "worldwide"}}, {"type": "node", "id": 13575903444, "lat": 51.021329, "lon": 2.361098, "tags": {"amenity": "charging_station", "fee": "yes", "network": "AUTEL EUROPE GmbH", "opening_hours": "24/7", "operator": "Evota Netherlands B.V. | FR*AUT", "name": "Evota Netherlands B.V. | FR*AUT - AUTEL EUROPE GmbH", "addr:country": "FR", "socket:type2": "4", "socket:type2:output": "22 kW", "charging_station:output": "22 kW", "capacity": "4", "_source": "worldwide"}}, {"type": "node", "id": 1478539288, "lat": 51.025753, "lon": 2.352618, "tags": {"amenity": "charging_station", "fee": "yes", "network": "WAAT", "opening_hours": "24/7", "operator": "Waat", "name": "Waat - WAAT", "addr:country": "FR", "socket:type2": "2", "socket:type2:output": "22.0 kW", "charging_station:output": "22.0 kW", "capacity": "2", "_source": "worldwide"}}, {"type": "node", "id": 9810460459, "lat": 51.138414, "lon": 2.772886, "tags": {"amenity": "charging_station", "fee": "no", "addr:country": "FR", "_source": "worldwide"}}, {"type": "node", "id": 9872299549, "lat": 51.097305, "lon": 2.584195, "tags": {"amenity": "charging_station", "access": "customers", "addr:country": "FR", "capacity": "2", "_source": "worldwide"}}, {"type": "node", "id": 9872806880, "lat": 51.095889, "lon": 2.5854, "tags": {"amenity": "charging_station", "access": "yes", "fee": "yes", "operator": "TotalEnergies", "name": "Ladestation TotalEnergies", "addr:country": "FR", "capacity": "2", "_source": "worldwide"}}, {"type": "node", "id": 9961751412, "lat": 51.111631, "lon": 2.612807, "tags": {"amenity": "charging_station", "operator": "Allego", "name": "Ladestation Allego", "addr:country": "FR", "capacity": "2", "_source": "worldwide"}}, {"type": "node", "id": 9968032974, "lat": 51.015874, "lon": 2.6552, "tags": {"amenity": "charging_station", "access": "yes", "fee": "no", "name": "Fietsoplaadpunt", "addr:country": "FR", "capacity": "8", "_source": "worldwide"}}, {"type": "node", "id": 10049348220, "lat": 51.003737, "lon": 2.109814, "tags": {"amenity": "charging_station", "access": "yes", "fee": "yes", "addr:country": "FR", "capacity": "2", "_source": "worldwide"}}, {"type": "node", "id": 10292698732, "lat": 51.131628, "lon": 2.672793, "tags": {"amenity": "charging_station", "addr:country": "FR", "capacity": "2", "_source": "worldwide"}}, {"type": "node", "id": 10674608449, "lat": 51.053583, "lon": 2.963636, "tags": {"amenity": "charging_station", "access": "yes", "fee": "yes", "operator": "Allego", "name": "Allego - Koekelare Werkenstraat", "addr:street": "Werkenstraat 3", "socket:type2": "2", "socket:type2:output": "11.0 kW", "charging_station:output": "11.0 kW", "capacity": "2", "_source": "worldwide"}}, {"type": "node", "id": 10674626481, "lat": 51.016247, "lon": 2.961257, "tags": {"amenity": "charging_station", "access": "yes", "fee": "yes", "operator": "Allego", "name": "Allego - Kortemark Stadenstraat", "addr:street": "Stadenstraat 27", "addr:postcode": "8610", "addr:city": "Kortemark", "socket:type2": "2", "socket:type2:output": "11.0 kW", "charging_station:output": "11.0 kW", "capacity": "2", "_source": "worldwide"}}, {"type": "node", "id": 10674663949, "lat": 51.029291, "lon": 2.857628, "tags": {"amenity": "charging_station", "access": "yes", "fee": "yes", "operator": "Allego", "name": "Allego -Heernisse", "addr:street": "Heernisse 4", "socket:type2": "2", "socket:type2:output": "11.0 kW", "charging_station:output": "11.0 kW", "capacity": "2", "_source": "worldwide"}}, {"type": "node", "id": 10674682206, "lat": 51.029216, "lon": 2.862439, "tags": {"amenity": "charging_station", "access": "yes", "fee": "yes", "operator": "Allego", "name": "Allego - Diksmuide Fabriekstraat", "addr:street": "Fabriekstraat 2", "socket:type2": "2", "socket:type2:output": "11.0 kW", "charging_station:output": "11.0 kW", "capacity": "2", "_source": "worldwide"}}, {"type": "node", "id": 10674679060, "lat": 51.025457, "lon": 2.870743, "tags": {"amenity": "charging_station", "access": "yes", "fee": "yes", "operator": "Allego", "name": "Allego - TC De Maene", "addr:street": "Pluimstraat 18B", "socket:type2": "2", "socket:type2:output": "11.0 kW", "charging_station:output": "11.0 kW", "capacity": "2", "_source": "worldwide"}}, {"type": "node", "id": 10674804195, "lat": 51.081091, "lon": 2.882146, "tags": {"amenity": "charging_station", "access": "yes", "fee": "yes", "operator": "Allego", "name": "Allego - Sint-Niklaaskerk", "addr:street": "Keiemdorpstraat 83", "socket:type2": "2", "socket:type2:output": "11.0 kW", "charging_station:output": "11.0 kW", "capacity": "2", "_source": "worldwide"}}, {"type": "node", "id": 10674829730, "lat": 51.085666, "lon": 2.943385, "tags": {"amenity": "charging_station", "access": "yes", "fee": "yes", "operator": "Allego", "name": "Allego - Pottebezemstraat", "addr:street": "Pottebezemstraat 1", "socket:type2": "2", "socket:type2:output": "11.0 kW", "charging_station:output": "11.0 kW", "capacity": "2", "_source": "worldwide"}}, {"type": "node", "id": 10680752944, "lat": 51.015186, "lon": 2.379057, "tags": {"amenity": "charging_station", "access": "yes", "fee": "yes", "network": "Power Dot France", "opening_hours": "24/7", "operator": "Power Dot France", "name": "Power Dot - Cora - Dunkerque", "addr:street": "Rue des Forts 90", "addr:postcode": "59210", "addr:city": "Coudekerque-Branche", "addr:country": "FR", "socket:type2": "2", "socket:type2:output": "12.0 kW", "socket:type2_combo": "3", "socket:type2_combo:output": "90.0 kW", "socket:chademo": "1", "socket:chademo:output": "50.0 kW", "charging_station:output": "90.0 kW", "capacity": "6", "authentication:none": "yes", "_source": "worldwide"}}, {"type": "node", "id": 13260161986, "lat": 51.017635, "lon": 2.382386, "tags": {"amenity": "charging_station", "fee": "yes", "network": "Norauto", "opening_hours": "24/7", "operator": "R3", "name": "R3 - Norauto", "addr:country": "FR", "socket:type2": "2", "socket:type2:output": "22 kW", "socket:type2_combo": "4", "socket:type2_combo:output": "50 kW", "charging_station:output": "50 kW", "_source": "worldwide"}}, {"type": "node", "id": 13260161988, "lat": 51.015381, "lon": 2.381912, "tags": {"amenity": "charging_station", "fee": "yes", "network": "Atlante", "opening_hours": "24/7", "operator": "Atlante | FR*ATL", "name": "Atlante | FR*ATL - Atlante", "addr:country": "FR", "socket:type2_combo": "4", "socket:type2_combo:output": "50 kW", "charging_station:output": "50 kW", "capacity": "4", "wheelchair": "yes", "authentication:none": "yes", "_source": "worldwide"}}, {"type": "node", "id": 10832088560, "lat": 51.0934, "lon": 2.565621, "tags": {"amenity": "charging_station", "access": "yes", "fee": "yes", "operator": "Allego", "name": "Ladestation Allego", "addr:country": "FR", "capacity": "2", "_source": "worldwide"}}, {"type": "node", "id": 12260962516, "lat": 51.094499, "lon": 2.565933, "tags": {"amenity": "charging_station", "addr:country": "FR", "_source": "worldwide"}}, {"type": "node", "id": 11038678258, "lat": 51.225107, "lon": 2.904542, "tags": {"amenity": "charging_station", "addr:country": "FR", "capacity": "2", "_source": "worldwide"}}, {"type": "node", "id": 12161470723, "lat": 51.227977, "lon": 2.910196, "tags": {"amenity": "charging_station", "operator": "Alego", "name": "Ladestation Alego", "addr:country": "FR", "capacity": "2", "_source": "worldwide"}}, {"type": "node", "id": 11109171601, "lat": 51.046226, "lon": 2.416794, "tags": {"amenity": "charging_station", "fee": "yes", "network": "Leclerc", "opening_hours": "24/7", "operator": "E.Leclerc", "name": "E.Leclerc - Leclerc", "addr:country": "FR", "socket:type2": "4", "socket:type2:output": "22 kW", "charging_station:output": "22 kW", "capacity": "4", "authentication:none": "yes", "_source": "worldwide"}}, {"type": "node", "id": 11109171618, "lat": 51.031205, "lon": 2.371518, "tags": {"amenity": "charging_station", "fee": "no", "network": "18B95097", "opening_hours": "24/7", "operator": "18B95097", "name": "Ladestation 18B95097", "addr:country": "FR", "socket:type2": "1", "socket:type2:output": "22 kW", "charging_station:output": "22 kW", "authentication:none": "yes", "_source": "worldwide"}}, {"type": "node", "id": 11109171619, "lat": 51.067707, "lon": 2.490094, "tags": {"amenity": "charging_station", "fee": "no", "network": "camping zuydcootebeach", "opening_hours": "24/7", "operator": "camping zuydcootebeach", "name": "Ladestation camping zuydcootebeach", "addr:country": "FR", "socket:type2": "1", "socket:type2:output": "22 kW", "charging_station:output": "22 kW", "_source": "worldwide"}}, {"type": "node", "id": 11257531142, "lat": 51.206772, "lon": 2.977579, "tags": {"amenity": "charging_station", "access": "yes", "fee": "yes", "brand": "Fastned", "network": "Fastned", "operator": "Fastned", "name": "Oostende Plassendale 3", "addr:country": "FR", "capacity": "4", "authentication:none": "", "_source": "worldwide"}}, {"type": "node", "id": 11537855019, "lat": 51.139923, "lon": 2.746033, "tags": {"amenity": "charging_station", "fee": "yes", "addr:country": "FR", "capacity": "2", "_source": "worldwide"}}, {"type": "node", "id": 11537869255, "lat": 51.138533, "lon": 2.741193, "tags": {"amenity": "charging_station", "fee": "yes", "addr:country": "FR", "capacity": "2", "_source": "worldwide"}}, {"type": "node", "id": 11537900897, "lat": 51.135169, "lon": 2.742908, "tags": {"amenity": "charging_station", "fee": "yes", "addr:country": "FR", "capacity": "2", "_source": "worldwide"}}, {"type": "node", "id": 11537905624, "lat": 51.12865, "lon": 2.751511, "tags": {"amenity": "charging_station", "fee": "yes", "addr:country": "FR", "capacity": "2", "_source": "worldwide"}}, {"type": "node", "id": 11942707069, "lat": 51.226807, "lon": 2.921845, "tags": {"amenity": "charging_station", "addr:country": "FR", "_source": "worldwide"}}, {"type": "node", "id": 11945024906, "lat": 51.100704, "lon": 2.583746, "tags": {"amenity": "charging_station", "addr:country": "FR", "capacity": "2", "_source": "worldwide"}}, {"type": "node", "id": 1408375843, "lat": 51.098033, "lon": 2.583414, "tags": {"amenity": "charging_station", "access": "yes", "fee": "yes", "brand": "TotalEnergies", "network": "TotalEnergies", "operator": "TotalEnergies", "name": "TotalEnergies - De Panne - Donnylaan 22", "addr:country": "FR", "socket:type2": "2", "socket:type2:output": "22.0 kW", "charging_station:output": "22.0 kW", "capacity": "2", "_source": "worldwide"}}, {"type": "node", "id": 12059105093, "lat": 51.230223, "lon": 2.964258, "tags": {"amenity": "charging_station", "addr:country": "FR", "_source": "worldwide"}}, {"type": "node", "id": 12120851607, "lat": 51.103184, "lon": 2.596575, "tags": {"amenity": "charging_station", "fee": "yes", "brand": "Allego", "operator": "Allego", "name": "Allego - Allego", "addr:country": "FR", "_source": "worldwide"}}, {"type": "node", "id": 12144924605, "lat": 51.073667, "lon": 2.689526, "tags": {"amenity": "charging_station", "fee": "yes", "operator": "Smappee", "name": "Ladestation Smappee", "addr:country": "FR", "socket:type2": "2", "socket:type2:output": "22.0 kW", "charging_station:output": "22.0 kW", "capacity": "2", "_source": "worldwide"}}, {"type": "node", "id": 12254547333, "lat": 51.121449, "lon": 2.66089, "tags": {"amenity": "charging_station", "access": "yes", "fee": "yes", "brand": "smappee", "name": "Ladestation smappee", "addr:country": "FR", "capacity": "2", "_source": "worldwide"}}, {"type": "node", "id": 12254568949, "lat": 51.117826, "lon": 2.640857, "tags": {"amenity": "charging_station", "fee": "yes", "operator": "TotalEnergies", "name": "Ladestation TotalEnergies", "addr:country": "FR", "capacity": "2", "_source": "worldwide"}}, {"type": "node", "id": 12290597829, "lat": 51.007083, "lon": 2.310767, "tags": {"amenity": "charging_station", "access": "customers", "fee": "yes", "network": "Power Dot France", "opening_hours": "24/7", "operator": "Power Dot France", "name": "Ladestation Power Dot France", "addr:country": "FR", "socket:type2": "2", "socket:type2:output": "22 kW", "socket:type2_combo": "6", "socket:type2_combo:output": "50 kW", "socket:chademo": "2", "socket:chademo:output": "50 kW", "charging_station:output": "50 kW", "authentication:none": "yes", "_source": "worldwide"}}, {"type": "node", "id": 12324200111, "lat": 51.214749, "lon": 2.935015, "tags": {"amenity": "charging_station", "addr:country": "FR", "capacity": "2", "_source": "worldwide"}}, {"type": "node", "id": 12324466756, "lat": 51.210983, "lon": 2.916418, "tags": {"amenity": "charging_station", "access": "yes", "addr:country": "FR", "capacity": "2", "_source": "worldwide"}}, {"type": "node", "id": 12370406767, "lat": 51.153709, "lon": 2.947902, "tags": {"amenity": "charging_station", "addr:country": "FR", "_source": "worldwide"}}, {"type": "node", "id": 12471259275, "lat": 51.022748, "lon": 2.334974, "tags": {"amenity": "charging_station", "fee": "yes", "network": "Allego - Carrefour Saint-Pol", "opening_hours": "24/7", "operator": "Allego", "name": "Allego - Allego - Carrefour Saint-Pol", "addr:country": "FR", "socket:type2_combo": "2", "socket:type2_combo:output": "50 kW", "charging_station:output": "50 kW", "capacity": "2", "wheelchair": "yes", "authentication:none": "yes", "_source": "worldwide"}}, {"type": "node", "id": 13261284577, "lat": 51.022312, "lon": 2.335965, "tags": {"amenity": "charging_station", "fee": "yes", "network": "ENGIE Vianeo", "opening_hours": "24/7", "operator": "Greenflux", "name": "Greenflux - ENGIE Vianeo", "addr:country": "FR", "socket:type2": "4", "socket:type2:output": "22 kW", "charging_station:output": "22 kW", "authentication:none": "yes", "_source": "worldwide"}}, {"type": "node", "id": 12610386635, "lat": 51.219673, "lon": 2.887347, "tags": {"amenity": "charging_station", "access": "yes", "fee": "yes", "network": "Allego", "opening_hours": "24/7", "operator": "Allego", "name": "Ladestation Allego", "addr:country": "FR", "socket:type2": "1", "socket:type2:output": "11.0 kW", "charging_station:output": "11.0 kW", "capacity": "2", "_source": "worldwide"}}, {"type": "node", "id": 12879610505, "lat": 51.075126, "lon": 2.602569, "tags": {"amenity": "charging_station", "fee": "yes", "addr:country": "FR", "capacity": "2", "_source": "worldwide"}}, {"type": "node", "id": 12946477168, "lat": 51.059849, "lon": 2.665613, "tags": {"amenity": "charging_station", "access": "yes", "fee": "yes", "operator": "Decat", "name": "Ladestation Decat", "addr:country": "FR", "capacity": "2", "_source": "worldwide"}}, {"type": "node", "id": 1408779930, "lat": 51.059701, "lon": 2.664743, "tags": {"amenity": "charging_station", "access": "customers", "fee": "yes", "brand": "Fastned", "operator": "Fastned", "name": "Fastned", "addr:country": "FR", "capacity": "8", "_source": "worldwide"}}, {"type": "node", "id": 13019554333, "lat": 51.167378, "lon": 2.766492, "tags": {"amenity": "charging_station", "fee": "yes", "opening_hours": "24/7", "addr:country": "FR", "capacity": "2", "_source": "worldwide"}}, {"type": "node", "id": 13052433537, "lat": 51.186458, "lon": 2.818059, "tags": {"amenity": "charging_station", "brand": "TotalEnergies", "name": "Ladestation TotalEnergies", "addr:country": "FR", "capacity": "2", "_source": "worldwide"}}, {"type": "node", "id": 13245247913, "lat": 51.063131, "lon": 2.52116, "tags": {"amenity": "charging_station", "network": "DRIVECO", "opening_hours": "24/7", "operator": "DRIVECO", "name": "Ladestation DRIVECO", "addr:country": "FR", "socket:type2": "4", "socket:type2:output": "22 kW", "socket:type2_combo": "4", "socket:type2_combo:output": "50 kW", "socket:chademo": "4", "socket:chademo:output": "50 kW", "charging_station:output": "50 kW", "_source": "worldwide"}}, {"type": "node", "id": 13249985153, "lat": 51.007035, "lon": 2.381391, "tags": {"amenity": "charging_station", "fee": "yes", "network": "DRIVECO", "opening_hours": "Mo 08:00-12:00, Mo 14:00-19:00, Tu 08:00-12:00, Tu 14:00-19:00, We 08:00-12:00, We 14:00-19:00, Th 08:00-12:00, Th 14:00-19:00, Fr 08:00-12:00, Fr 14:00-19:00, Sa 09:00-12:00, Sa 14:00-18:00", "operator": "DRIVECO", "name": "Ladestation DRIVECO", "addr:country": "FR", "socket:type2": "6", "socket:type2:output": "22 kW", "socket:type2_combo": "2", "socket:type2_combo:output": "50 kW", "charging_station:output": "50 kW", "capacity": "8", "authentication:none": "yes", "_source": "worldwide"}}, {"type": "node", "id": 13254719639, "lat": 51.022759, "lon": 2.311966, "tags": {"amenity": "charging_station", "access": "yes", "fee": "yes", "network": "425", "opening_hours": "24/7", "operator": "Izivia", "name": "Izivia - 425", "addr:country": "FR", "socket:type2": "2", "socket:type2:output": "22 kW", "charging_station:output": "22 kW", "capacity": "3", "authentication:none": "yes", "_source": "worldwide"}}, {"type": "node", "id": 13259933909, "lat": 51.032737, "lon": 2.393446, "tags": {"amenity": "charging_station", "fee": "yes", "network": "IZIVIA FAST", "opening_hours": "24/7", "operator": "Izivia", "name": "Izivia - IZIVIA FAST", "addr:country": "FR", "socket:type2": "1", "socket:type2:output": "22 kW", "charging_station:output": "22 kW", "authentication:none": "yes", "_source": "worldwide"}}, {"type": "node", "id": 13264897263, "lat": 51.035832, "lon": 2.411986, "tags": {"amenity": "charging_station", "network": "DRIVECO", "opening_hours": "24/7", "operator": "DRIVECO", "name": "Ladestation DRIVECO", "addr:country": "FR", "socket:type2": "4", "socket:type2:output": "22 kW", "socket:type2_combo": "4", "socket:type2_combo:output": "50 kW", "socket:chademo": "2", "socket:chademo:output": "50 kW", "charging_station:output": "50 kW", "_source": "worldwide"}}, {"type": "node", "id": 13264975630, "lat": 51.038673, "lon": 2.405467, "tags": {"amenity": "charging_station", "fee": "yes", "network": "Power Dot France", "opening_hours": "24/7", "operator": "Power Dot France", "name": "Ladestation Power Dot France", "addr:country": "FR", "socket:type2": "2", "socket:type2:output": "22 kW", "socket:type2_combo": "18", "socket:type2_combo:output": "50 kW", "socket:chademo": "2", "socket:chademo:output": "50 kW", "charging_station:output": "50 kW", "authentication:none": "yes", "_source": "worldwide"}}, {"type": "node", "id": 13270219256, "lat": 51.043671, "lon": 2.40385, "tags": {"amenity": "charging_station", "fee": "yes", "network": "ChargeGuru", "opening_hours": "24/7", "operator": "ChargePoint Austria GmbH | FR*CG0", "name": "ChargePoint Austria GmbH | FR*CG0 - ChargeGuru", "addr:country": "FR", "socket:type2": "1", "socket:type2:output": "22 kW", "charging_station:output": "22 kW", "capacity": "1", "authentication:none": "yes", "_source": "worldwide"}}, {"type": "node", "id": 13287175825, "lat": 51.01598, "lon": 2.317352, "tags": {"amenity": "charging_station", "fee": "yes", "network": "SPV COM", "opening_hours": "24/7", "operator": "R3", "name": "R3 - SPV COM", "addr:country": "FR", "socket:type2": "10", "socket:type2:output": "22 kW", "socket:type2_combo": "8", "socket:type2_combo:output": "50 kW", "charging_station:output": "50 kW", "_source": "worldwide"}}, {"type": "node", "id": 13353900464, "lat": 51.006021, "lon": 2.284537, "tags": {"amenity": "charging_station", "brand": "Electra", "network": "Grande-Synthe - Crocodile", "opening_hours": "24/7", "operator": "Electra", "name": "Electra - Electra", "addr:country": "FR", "socket:type2": "1", "socket:type2:output": "22 kW", "socket:type2_combo": "6", "socket:type2_combo:output": "50 kW", "charging_station:output": "50 kW", "authentication:none": "yes", "_source": "worldwide"}}, {"type": "node", "id": 1232720540, "lat": 51.005105, "lon": 2.280983, "tags": {"amenity": "charging_station", "access": "yes", "fee": "yes", "brand": "Tesla Supercharger", "network": "Tesla Supercharger", "opening_hours": "24/7", "operator": "Tesla", "name": "Grande-Synthe Supercharger", "addr:street": "Route Nationale 40", "addr:postcode": "59760", "addr:city": "Grande-Synthe", "addr:country": "FR", "socket:type2_combo": "16", "socket:type2_combo:output": "250.0 kW", "socket:tesla_supercharger": "16", "socket:tesla_supercharger:output": "250.0 kW", "charging_station:output": "250.0 kW", "capacity": "16", "_source": "worldwide"}}, {"type": "node", "id": 13547170404, "lat": 51.022991, "lon": 2.434942, "tags": {"amenity": "charging_station", "fee": "yes", "network": "LIDL", "opening_hours": "24/7", "operator": "LIDL France", "name": "LIDL France - LIDL", "addr:country": "FR", "socket:type2": "2", "socket:type2:output": "22 kW", "socket:type2_combo": "2", "socket:type2_combo:output": "50 kW", "charging_station:output": "50 kW", "capacity": "2", "authentication:none": "yes", "_source": "worldwide"}}, {"type": "node", "id": 13547173059, "lat": 51.045999, "lon": 2.488962, "tags": {"amenity": "charging_station", "fee": "yes", "network": "Freshmile", "opening_hours": "24/7", "operator": "Freshmile", "name": "Ladestation Freshmile", "addr:country": "FR", "socket:type2": "1", "socket:type2:output": "22 kW", "charging_station:output": "22 kW", "capacity": "1", "_source": "worldwide"}}, {"type": "node", "id": 13547218430, "lat": 51.032646, "lon": 2.349028, "tags": {"amenity": "charging_station", "network": "WAAT", "opening_hours": "24/7", "operator": "WAAT", "name": "Ladestation WAAT", "addr:country": "FR", "socket:type2": "2", "socket:type2:output": "22 kW", "charging_station:output": "22 kW", "capacity": "2", "authentication:none": "yes", "_source": "worldwide"}}, {"type": "node", "id": 13584420020, "lat": 51.227737, "lon": 2.934584, "tags": {"amenity": "charging_station", "brand": "Alfen", "operator": "Stroohm", "name": "Stroohm - Alfen", "addr:country": "FR", "_source": "worldwide"}}, {"type": "node", "id": 13584420021, "lat": 51.227361, "lon": 2.935106, "tags": {"amenity": "charging_station", "access": "private", "brand": "Alfen", "operator": "TotalEnergies", "name": "TotalEnergies - Alfen", "addr:country": "FR", "_source": "worldwide"}}, {"type": "node", "id": 13584655407, "lat": 51.028925, "lon": 2.318534, "tags": {"amenity": "charging_station", "network": "QOVOLTIS", "opening_hours": "Mo-Fr 09:00-19:00", "operator": "QOVOLTIS", "name": "Ladestation QOVOLTIS", "addr:country": "FR", "capacity": "4", "wheelchair": "yes", "_source": "worldwide"}}, {"type": "node", "id": 13696304304, "lat": 51.001809, "lon": 2.063827, "tags": {"amenity": "charging_station", "fee": "yes", "network": "Electric 55 Charging", "opening_hours": "24/7", "operator": "Electric 55 Charging", "name": "Ladestation Electric 55 Charging", "addr:country": "FR", "socket:type2": "2", "socket:type2:output": "22 kW", "charging_station:output": "22 kW", "capacity": "2", "wheelchair": "yes", "authentication:none": "yes", "_source": "worldwide"}}, {"type": "node", "id": 1279260938, "lat": 51.203862, "lon": 2.904003, "tags": {"amenity": "charging_station", "access": "yes", "fee": "yes", "brand": "Sparki", "network": "Sparki", "operator": "Sparki", "name": "Sparki - Sparki", "addr:country": "FR", "socket:type2_combo": "4", "socket:type2_combo:output": "50 kW", "charging_station:output": "50 kW", "capacity": "4", "_source": "worldwide"}}, {"type": "node", "id": 1475127750, "lat": 51.203553, "lon": 2.903318, "tags": {"amenity": "charging_station", "fee": "yes", "brand": "Electra", "opening_hours": "24/7", "operator": "Electra", "name": "Oostende - Burger King", "addr:country": "FR", "socket:type2_combo": "6", "socket:type2_combo:output": "300.0 kW", "charging_station:output": "300.0 kW", "capacity": "6", "_source": "worldwide"}}, {"type": "node", "id": 1337257685, "lat": 51.084861, "lon": 2.640653, "tags": {"amenity": "charging_station", "operator": "Certipower", "name": "Ladestation Certipower", "addr:country": "FR", "capacity": "6", "_source": "worldwide"}}, {"type": "node", "id": 1354995874, "lat": 51.23853, "lon": 2.972113, "tags": {"amenity": "charging_station", "addr:country": "FR", "capacity": "2", "_source": "worldwide"}}, {"type": "node", "id": 1424884442, "lat": 51.238803, "lon": 2.969618, "tags": {"amenity": "charging_station", "addr:country": "FR", "capacity": "4", "_source": "worldwide"}}, {"type": "node", "id": 1409534613, "lat": 51.070247, "lon": 2.65641, "tags": {"amenity": "charging_station", "access": "yes", "fee": "yes", "network": "Allego", "operator": "Allego", "name": "Randparking Veurne", "addr:country": "FR", "socket:type2": "2", "socket:type2:output": "22.0 kW", "socket:type2_combo": "4", "socket:type2_combo:output": "300.0 kW", "charging_station:output": "300.0 kW", "capacity": "6", "_source": "worldwide"}}, {"type": "node", "id": 1478420669, "lat": 51.024368, "lon": 2.363013, "tags": {"amenity": "charging_station", "fee": "yes", "network": "LIDL", "opening_hours": "24/7", "operator": "Lidl France", "name": "Lidl France - LIDL", "addr:country": "FR", "socket:type2": "4", "socket:type2:output": "22 kW", "socket:type2_combo": "2", "socket:type2_combo:output": "50 kW", "charging_station:output": "50 kW", "capacity": "6", "authentication:none": "yes", "_source": "worldwide"}}, {"type": "node", "id": 1490145705, "lat": 51.218725, "lon": 2.993596, "tags": {"amenity": "charging_station", "addr:country": "FR", "capacity": "10", "_source": "worldwide"}}]}