{"id": "51-1", "latMin": 51, "lonMin": 1, "latMax": 52, "lonMax": 2, "generated": "2026-04-16T18:39:08.424Z", "count": 80, "pois": [{"type": "node", "id": 3692600505, "lat": 51.3864, "lon": 1.381919, "tags": {"amenity": "charging_station", "opening_hours": "07:00 - 19:00", "operator": "Charge Your Car", "name": "Mill Lane Car Park Charger", "addr:country": "FR", "capacity": "2", "_source": "worldwide"}}, {"type": "node", "id": 3695870016, "lat": 51.356278, "lon": 1.39427, "tags": {"amenity": "charging_station", "fee": "no", "opening_hours": "24/7", "operator": "Pod Point;POD Point", "name": "Ladestation Pod Point;POD Point", "addr:country": "FR", "socket:type2": "2", "socket:type2:output": "7.0 kW", "charging_station:output": "7.0 kW", "capacity": "2", "_source": "worldwide"}}, {"type": "node", "id": 8377012207, "lat": 51.358969, "lon": 1.392824, "tags": {"amenity": "charging_station", "fee": "yes", "opening_hours": "24/7", "operator": "Pod Point", "name": "Ladestation Pod Point", "addr:country": "FR", "socket:type2": "2", "socket:type2:output": "7.0 kW", "charging_station:output": "7.0 kW", "capacity": "2", "_source": "worldwide"}}, {"type": "node", "id": 3993546500, "lat": 51.096002, "lon": 1.120928, "tags": {"amenity": "charging_station", "access": "yes", "fee": "yes", "brand": "Tesla Supercharger", "opening_hours": "24/7", "operator": "Tesla", "name": "Folkestone - Eurotunnel Terminal Supercharger", "addr:street": "Ashford Road", "addr:postcode": "CT18 8XX", "addr:city": "Folkestone", "addr:country": "GB", "socket:type2_combo": "8", "socket:type2_combo:output": "150.0 kW", "socket:tesla_supercharger": "8", "socket:tesla_supercharger:output": "150.0 kW", "charging_station:output": "150.0 kW", "capacity": "8", "_source": "worldwide"}}, {"type": "node", "id": 5331390050, "lat": 51.802368, "lon": 1.158333, "tags": {"amenity": "charging_station", "addr:country": "GB", "_source": "worldwide"}}, {"type": "node", "id": 6305448463, "lat": 51.946794, "lon": 1.061171, "tags": {"amenity": "charging_station", "fee": "yes", "operator": "EV Driver", "name": "East of England Co-op Supermarket", "addr:country": "GB", "capacity": "2", "_source": "worldwide"}}, {"type": "node", "id": 6900159747, "lat": 51.281616, "lon": 1.070325, "tags": {"amenity": "charging_station", "fee": "0.30", "operator": "EV Dot", "name": "Ladestation EV Dot", "addr:country": "FR", "authentication:none": "", "_source": "worldwide"}}, {"type": "node", "id": 7195296176, "lat": 51.95121, "lon": 1.335267, "tags": {"amenity": "charging_station", "fee": "yes", "operator": "Swarco", "name": "Ladestation Swarco", "addr:country": "GB", "capacity": "2", "_source": "worldwide"}}, {"type": "node", "id": 7667243171, "lat": 51.948273, "lon": 1.286722, "tags": {"amenity": "charging_station", "access": "yes", "fee": "yes", "operator": "evolt", "name": "Ladestation evolt", "addr:country": "GB", "capacity": "1", "_source": "worldwide"}}, {"type": "node", "id": 11953868477, "lat": 51.947075, "lon": 1.289675, "tags": {"amenity": "charging_station", "addr:country": "GB", "_source": "worldwide"}}, {"type": "node", "id": 7667314522, "lat": 51.946529, "lon": 1.285186, "tags": {"amenity": "charging_station", "access": "private", "name": "Trinity House", "addr:country": "GB", "capacity": "2", "_source": "worldwide"}}, {"type": "node", "id": 7766299790, "lat": 51.068275, "lon": 1.066071, "tags": {"amenity": "charging_station", "addr:country": "FR", "_source": "worldwide"}}, {"type": "node", "id": 7775010822, "lat": 51.282814, "lon": 1.080796, "tags": {"amenity": "charging_station", "name": "St Radigunds Car Park", "addr:country": "FR", "socket:type2": "2", "socket:type2:output": "22 kW", "charging_station:output": "22 kW", "capacity": "2", "_source": "worldwide"}}, {"type": "node", "id": 8757862095, "lat": 51.281387, "lon": 1.077629, "tags": {"amenity": "charging_station", "addr:country": "FR", "_source": "worldwide"}}, {"type": "node", "id": 11919270195, "lat": 51.283198, "lon": 1.078638, "tags": {"amenity": "charging_station", "operator": "EVlink", "name": "Ladestation EVlink", "addr:country": "FR", "socket:type2": "4", "socket:type2:output": "22.0 kW", "charging_station:output": "22.0 kW", "_source": "worldwide"}}, {"type": "node", "id": 7822676453, "lat": 51.810691, "lon": 1.142526, "tags": {"amenity": "charging_station", "addr:country": "GB", "_source": "worldwide"}}, {"type": "node", "id": 7875413708, "lat": 51.098094, "lon": 1.138928, "tags": {"amenity": "charging_station", "access": "private", "operator": "Eurotunnel", "name": "Ladestation Eurotunnel", "addr:country": "FR", "capacity": "2", "_source": "worldwide"}}, {"type": "node", "id": 7875413709, "lat": 51.096957, "lon": 1.118806, "tags": {"amenity": "charging_station", "access": "private", "operator": "Eurotunnel", "name": "Euroscan Charging Point", "addr:country": "FR", "capacity": "2", "_source": "worldwide"}}, {"type": "node", "id": 8176987640, "lat": 51.360416, "lon": 1.411688, "tags": {"amenity": "charging_station", "fee": "yes", "opening_hours": "24/7", "operator": "Pod Point", "name": "Ladestation Pod Point", "addr:country": "FR", "socket:type2": "2", "socket:type2:output": "7.0 kW", "charging_station:output": "7.0 kW", "capacity": "2", "_source": "worldwide"}}, {"type": "node", "id": 8375925948, "lat": 51.388899, "lon": 1.381442, "tags": {"amenity": "charging_station", "access": "yes", "fee": "yes", "operator": "Swarco", "name": "Ladestation Swarco", "addr:street": "Market Street", "addr:postcode": "CT9 1ED", "addr:city": "Margate", "socket:type2": "1", "socket:type2:output": "22.0 kW", "socket:type2_combo": "1", "socket:type2_combo:output": "51.0 kW", "socket:chademo": "1", "socket:chademo:output": "51.0 kW", "charging_station:output": "51.0 kW", "capacity": "2", "authentication:none": "", "_source": "worldwide"}}, {"type": "node", "id": 8867577048, "lat": 51.281214, "lon": 1.08808, "tags": {"amenity": "charging_station", "fee": "0.30", "operator": "EV Dot", "name": "Ladestation EV Dot", "addr:country": "FR", "capacity": "2", "_source": "worldwide"}}, {"type": "node", "id": 9004475870, "lat": 51.965289, "lon": 1.326663, "tags": {"amenity": "charging_station", "access": "customers", "fee": "yes", "brand": "GeniePoint", "operator": "GeniePoint", "name": "GeniePoint - GeniePoint", "addr:country": "GB", "capacity": "4", "_source": "worldwide"}}, {"type": "node", "id": 9004606852, "lat": 51.966805, "lon": 1.351555, "tags": {"amenity": "charging_station", "access": "yes", "fee": "yes", "brand": "Plug-N-Go", "name": "Ladestation Plug-N-Go", "addr:country": "GB", "capacity": "2", "_source": "worldwide"}}, {"type": "node", "id": 9160789120, "lat": 51.293753, "lon": 1.10926, "tags": {"amenity": "charging_station", "brand": "BP Pulse", "operator": "BP Pulse", "name": "Chargemaster", "addr:country": "FR", "socket:type2": "2", "socket:type2:output": "22 kW", "charging_station:output": "22 kW", "_source": "worldwide"}}, {"type": "node", "id": 9160826638, "lat": 51.277699, "lon": 1.082611, "tags": {"amenity": "charging_station", "operator": "Swarco", "name": "e-taxi recharging point", "addr:country": "FR", "socket:type2_combo": "1", "socket:type2_combo:output": "50.0 kW", "socket:chademo": "1", "socket:chademo:output": "50.0 kW", "charging_station:output": "50.0 kW", "_source": "worldwide"}}, {"type": "node", "id": 9482093612, "lat": 51.276345, "lon": 1.080913, "tags": {"amenity": "charging_station", "operator": "Swarco", "name": "e-taxi recharging point", "addr:country": "FR", "socket:type2_combo": "1", "socket:type2_combo:output": "50.0 kW", "socket:chademo": "1", "socket:chademo:output": "50.0 kW", "charging_station:output": "50.0 kW", "_source": "worldwide"}}, {"type": "node", "id": 9211275060, "lat": 51.287922, "lon": 1.338322, "tags": {"amenity": "charging_station", "fee": "yes", "network": "Fastned", "opening_hours": "24/7", "operator": "Fastned", "name": "Fastned Spitfire Way", "addr:country": "FR", "socket:type2_combo": "3", "socket:type2_combo:output": "150.0 kW", "socket:chademo": "2", "socket:chademo:output": "50.0 kW", "charging_station:output": "150.0 kW", "capacity": "3", "authentication:none": "", "_source": "worldwide"}}, {"type": "node", "id": 9367032082, "lat": 51.123935, "lon": 1.314653, "tags": {"amenity": "charging_station", "access": "yes", "operator": "Connected Kerb", "name": "Ladestation Connected Kerb", "addr:country": "FR", "capacity": "3", "_source": "worldwide"}}, {"type": "node", "id": 9629838269, "lat": 51.124758, "lon": 1.314904, "tags": {"amenity": "charging_station", "access": "customers", "fee": "yes", "addr:country": "FR", "capacity": "2", "_source": "worldwide"}}, {"type": "node", "id": 9631149233, "lat": 51.122105, "lon": 1.314409, "tags": {"amenity": "charging_station", "fee": "yes", "operator": "Connected Kerb", "name": "Ladestation Connected Kerb", "addr:country": "FR", "socket:type2": "3", "socket:type2:output": "22 kW", "charging_station:output": "22 kW", "capacity": "3", "authentication:none": "", "_source": "worldwide"}}, {"type": "node", "id": 9387690932, "lat": 51.270948, "lon": 1.062316, "tags": {"amenity": "charging_station", "operator": "MFG", "name": "Ladestation MFG", "addr:country": "FR", "socket:chademo": "2", "socket:chademo:output": "50.0 kW", "charging_station:output": "50.0 kW", "capacity": "2", "_source": "worldwide"}}, {"type": "node", "id": 9387690972, "lat": 51.272674, "lon": 1.065422, "tags": {"amenity": "charging_station", "operator": "Pod Point", "name": "Ladestation Pod Point", "addr:country": "FR", "capacity": "2", "_source": "worldwide"}}, {"type": "node", "id": 11879620768, "lat": 51.271303, "lon": 1.061287, "tags": {"amenity": "charging_station", "operator": "EVlink", "name": "Ladestation EVlink", "addr:country": "FR", "socket:type2": "4", "socket:type2:output": "22.0 kW", "charging_station:output": "22.0 kW", "capacity": "4", "_source": "worldwide"}}, {"type": "node", "id": 1446788702, "lat": 51.270238, "lon": 1.063319, "tags": {"amenity": "charging_station", "fee": "yes", "network": "mfg", "operator": "mfg", "name": "EV Power", "addr:country": "FR", "socket:type2_combo": "8", "socket:type2_combo:output": "300.0 kW", "charging_station:output": "300.0 kW", "capacity": "8", "_source": "worldwide"}}, {"type": "node", "id": 9387690971, "lat": 51.273422, "lon": 1.067291, "tags": {"amenity": "charging_station", "operator": "Swarco", "name": "Ladestation Swarco", "addr:country": "FR", "socket:chademo": "1", "socket:chademo:output": "50.0 kW", "socket:type1_combo": "1", "socket:type1_combo:output": "50.0 kW", "charging_station:output": "50.0 kW", "capacity": "2", "_source": "worldwide"}}, {"type": "node", "id": 11013477910, "lat": 51.275322, "lon": 1.075931, "tags": {"amenity": "charging_station", "fee": "yes", "addr:country": "FR", "capacity": "2", "_source": "worldwide"}}, {"type": "node", "id": 9629666250, "lat": 51.287616, "lon": 1.012303, "tags": {"amenity": "charging_station", "access": "customers", "fee": "yes", "addr:country": "FR", "capacity": "2", "_source": "worldwide"}}, {"type": "node", "id": 9631332989, "lat": 51.080861, "lon": 1.185673, "tags": {"amenity": "charging_station", "fee": "yes", "operator": "Connected Kerb", "name": "Ladestation Connected Kerb", "addr:country": "FR", "socket:type2": "2", "socket:type2:output": "22 kW", "charging_station:output": "22 kW", "capacity": "2", "authentication:none": "", "_source": "worldwide"}}, {"type": "node", "id": 11020278860, "lat": 51.076557, "lon": 1.177874, "tags": {"amenity": "charging_station", "operator": "Connected Kerb", "name": "Ladestation Connected Kerb", "addr:country": "FR", "socket:type2": "4", "socket:type2:output": "22 kW", "charging_station:output": "22 kW", "capacity": "4", "_source": "worldwide"}}, {"type": "node", "id": 9660269727, "lat": 51.0725, "lon": 1.076026, "tags": {"amenity": "charging_station", "addr:country": "FR", "_source": "worldwide"}}, {"type": "node", "id": 9688215585, "lat": 51.093712, "lon": 1.181303, "tags": {"amenity": "charging_station", "access": "private", "addr:country": "FR", "_source": "worldwide"}}, {"type": "node", "id": 9688297813, "lat": 51.084011, "lon": 1.19632, "tags": {"amenity": "charging_station", "addr:country": "FR", "capacity": "4", "_source": "worldwide"}}, {"type": "node", "id": 9876358169, "lat": 51.81877, "lon": 1.150155, "tags": {"amenity": "charging_station", "addr:country": "GB", "capacity": "20", "_source": "worldwide"}}, {"type": "node", "id": 9953584247, "lat": 51.851743, "lon": 1.001501, "tags": {"amenity": "charging_station", "fee": "yes", "network": "Charge My Street", "operator": "Alresford Village Hall", "name": "Alresford Village Hall - Charge My Street", "addr:country": "GB", "socket:type2": "1", "socket:type2:output": "22.0 kW", "charging_station:output": "22.0 kW", "capacity": "1", "authentication:none": "", "_source": "worldwide"}}, {"type": "node", "id": 10206809083, "lat": 51.347229, "lon": 1.041884, "tags": {"amenity": "charging_station", "operator": "Pod Point", "name": "Krew-Edil", "addr:country": "FR", "socket:chademo": "1", "socket:chademo:output": "50 kW", "socket:type1_combo": "1", "socket:type1_combo:output": "50 kW", "charging_station:output": "50 kW", "capacity": "2", "_source": "worldwide"}}, {"type": "node", "id": 10665416268, "lat": 51.285219, "lon": 1.086725, "tags": {"amenity": "charging_station", "operator": "Alfen", "name": "Ladestation Alfen", "addr:country": "FR", "socket:type2": "2", "socket:type2:output": "22 kW", "charging_station:output": "22 kW", "capacity": "2", "_source": "worldwide"}}, {"type": "node", "id": 10665443004, "lat": 51.362088, "lon": 1.028822, "tags": {"amenity": "charging_station", "operator": "EVlink", "name": "Ladestation EVlink", "addr:country": "FR", "socket:type2": "2", "socket:type2:output": "22 kW", "charging_station:output": "22 kW", "capacity": "2", "_source": "worldwide"}}, {"type": "node", "id": 11035332946, "lat": 51.361961, "lon": 1.025162, "tags": {"amenity": "charging_station", "addr:country": "FR", "capacity": "2", "_source": "worldwide"}}, {"type": "node", "id": 11377238542, "lat": 51.361298, "lon": 1.028967, "tags": {"amenity": "charging_station", "fee": "yes", "operator": "EVDot", "name": "Cromwell Road", "addr:country": "FR", "_source": "worldwide"}}, {"type": "node", "id": 10895731018, "lat": 51.261763, "lon": 1.101884, "tags": {"amenity": "charging_station", "addr:country": "FR", "socket:type2": "1", "socket:type2:output": "22 kW", "charging_station:output": "22 kW", "_source": "worldwide"}}, {"type": "node", "id": 10924947816, "lat": 51.277272, "lon": 1.08793, "tags": {"amenity": "charging_station", "operator": "EVlink", "name": "Ladestation EVlink", "addr:country": "FR", "socket:type2": "4", "socket:type2:output": "22.0 kW", "charging_station:output": "22.0 kW", "capacity": "4", "_source": "worldwide"}}, {"type": "node", "id": 10968376284, "lat": 51.372933, "lon": 1.131993, "tags": {"amenity": "charging_station", "fee": "yes", "brand": "ev dot", "operator": "bmm", "name": "bmm - ev dot", "addr:country": "FR", "socket:type2": "2", "socket:type2:output": "22 kW", "charging_station:output": "22 kW", "capacity": "2", "_source": "worldwide"}}, {"type": "node", "id": 10969394323, "lat": 51.255806, "lon": 1.018982, "tags": {"amenity": "charging_station", "addr:country": "FR", "capacity": "2", "_source": "worldwide"}}, {"type": "node", "id": 11020446721, "lat": 51.088823, "lon": 1.13536, "tags": {"amenity": "charging_station", "brand": "BP Pulse", "operator": "BP Pulse", "name": "BP Pulse - BP Pulse", "addr:country": "FR", "socket:type2_combo": "2", "socket:type2_combo:output": "50 kW", "charging_station:output": "50 kW", "capacity": "2", "_source": "worldwide"}}, {"type": "node", "id": 11063060783, "lat": 51.094648, "lon": 1.151368, "tags": {"amenity": "charging_station", "brand": "Mer", "name": "Mer", "addr:country": "FR", "capacity": "2", "_source": "worldwide"}}, {"type": "node", "id": 11063060792, "lat": 51.094358, "lon": 1.152508, "tags": {"amenity": "charging_station", "fee": "yes", "brand": "Instavolt", "operator": "InstaVolt", "name": "InstaVolt - Instavolt", "addr:country": "FR", "capacity": "2", "_source": "worldwide"}}, {"type": "node", "id": 11069701394, "lat": 51.275246, "lon": 1.343833, "tags": {"amenity": "charging_station", "operator": "Connected Kerb", "name": "Ladestation Connected Kerb", "addr:country": "FR", "socket:type2": "4", "socket:type2:output": "22 kW", "charging_station:output": "22 kW", "capacity": "4", "_source": "worldwide"}}, {"type": "node", "id": 11076058208, "lat": 51.145165, "lon": 1.329352, "tags": {"amenity": "charging_station", "operator": "Shell Recharge", "name": "Shell Recharge - Shell Recharge Solutions", "addr:country": "FR", "_source": "worldwide"}}, {"type": "node", "id": 11168883228, "lat": 51.956519, "lon": 1.327985, "tags": {"amenity": "charging_station", "fee": "yes", "operator": "InstaVolt", "name": "Ladestation InstaVolt", "addr:country": "GB", "_source": "worldwide"}}, {"type": "node", "id": 11205073359, "lat": 51.378189, "lon": 1.19513, "tags": {"amenity": "charging_station", "addr:country": "FR", "_source": "worldwide"}}, {"type": "node", "id": 11340925945, "lat": 51.151749, "lon": 1.306349, "tags": {"amenity": "charging_station", "name": "Lidl Plus", "addr:country": "FR", "socket:type2_combo": "1", "socket:type2_combo:output": "50.0 kW", "socket:chademo": "1", "socket:chademo:output": "50.0 kW", "charging_station:output": "50.0 kW", "_source": "worldwide"}}, {"type": "node", "id": 11372891177, "lat": 51.128926, "lon": 1.309662, "tags": {"amenity": "charging_station", "operator": "Connected Kerb", "name": "Ladestation Connected Kerb", "addr:country": "FR", "socket:type2": "2", "socket:type2:output": "22 kW", "charging_station:output": "22 kW", "capacity": "2", "_source": "worldwide"}}, {"type": "node", "id": 11586942685, "lat": 51.34129, "lon": 1.011936, "tags": {"amenity": "charging_station", "addr:country": "FR", "_source": "worldwide"}}, {"type": "node", "id": 11777866164, "lat": 51.15403, "lon": 1.299321, "tags": {"amenity": "charging_station", "operator": "Podpoint", "name": "Ladestation Podpoint", "addr:country": "FR", "capacity": "4", "_source": "worldwide"}}, {"type": "node", "id": 11849760218, "lat": 51.790893, "lon": 1.146068, "tags": {"amenity": "charging_station", "addr:country": "GB", "_source": "worldwide"}}, {"type": "node", "id": 1396161851, "lat": 51.793383, "lon": 1.145423, "tags": {"amenity": "charging_station", "operator": "Zest", "name": "Ladestation Zest", "addr:country": "GB", "capacity": "6", "_source": "worldwide"}}, {"type": "node", "id": 11871952454, "lat": 51.361842, "lon": 1.152103, "tags": {"amenity": "charging_station", "fee": "yes", "brand": "Smart Charge", "operator": "Sainsbury's", "name": "Sainsbury's - Smart Charge", "addr:country": "FR", "_source": "worldwide"}}, {"type": "node", "id": 12125082579, "lat": 51.940621, "lon": 1.25868, "tags": {"amenity": "charging_station", "access": "customers", "fee": "no", "brand": "PoGo Charge", "operator": "PoGo", "name": "PoGo - PoGo Charge", "addr:country": "GB", "capacity": "10", "_source": "worldwide"}}, {"type": "node", "id": 1463927230, "lat": 51.941954, "lon": 1.260386, "tags": {"amenity": "charging_station", "access": "customers", "operator": "InstaVolt", "name": "Ladestation InstaVolt", "addr:country": "GB", "capacity": "8", "_source": "worldwide"}}, {"type": "node", "id": 12157102758, "lat": 51.251534, "lon": 1.009507, "tags": {"amenity": "charging_station", "access": "destination", "network": "myenergi", "operator": "myenergi", "name": "Ladestation myenergi", "addr:country": "FR", "socket:type2": "2", "socket:type2:output": "22 kW", "charging_station:output": "22 kW", "capacity": "2", "_source": "worldwide"}}, {"type": "node", "id": 12244305781, "lat": 51.359503, "lon": 1.063048, "tags": {"amenity": "charging_station", "addr:country": "FR", "_source": "worldwide"}}, {"type": "node", "id": 12794023235, "lat": 51.368817, "lon": 1.299419, "tags": {"amenity": "charging_station", "brand": "EVPower", "operator": "MFG", "name": "MFG - EVPower", "addr:country": "FR", "capacity": "1", "_source": "worldwide"}}, {"type": "node", "id": 13019450017, "lat": 51.274059, "lon": 1.339872, "tags": {"amenity": "charging_station", "operator": "Connected Kerb", "name": "Ladestation Connected Kerb", "addr:country": "FR", "capacity": "2", "_source": "worldwide"}}, {"type": "node", "id": 13057745535, "lat": 51.335698, "lon": 1.349452, "tags": {"amenity": "charging_station", "addr:country": "FR", "_source": "worldwide"}}, {"type": "node", "id": 13624038257, "lat": 51.08952, "lon": 1.123867, "tags": {"amenity": "charging_station", "access": "yes", "fee": "yes", "brand": "Tesla Supercharger", "opening_hours": "24/7", "operator": "Tesla", "name": "Folkestone Supercharger", "addr:country": "FR", "socket:type2_combo": "8", "socket:type2_combo:output": "150.0 kW", "charging_station:output": "150.0 kW", "capacity": "12", "_source": "worldwide"}}, {"type": "node", "id": 1236845815, "lat": 51.937621, "lon": 1.282364, "tags": {"amenity": "charging_station", "access": "customers", "brand": "Mer", "name": "Mer", "addr:country": "GB", "socket:type2": "8", "socket:type2:output": "12.0 kW", "charging_station:output": "12.0 kW", "capacity": "8", "_source": "worldwide"}}, {"type": "node", "id": 1395332736, "lat": 51.095117, "lon": 1.045361, "tags": {"amenity": "charging_station", "fee": "yes", "brand": "Gridserve", "opening_hours": "24/7", "operator": "Gridserve", "name": "Gridserve - Gridserve", "addr:postcode": "CT21 4BL", "addr:city": "Hythe", "socket:type2": "2", "socket:type2:output": "22.0 kW", "socket:type2_combo": "2", "socket:type2_combo:output": "50.0 kW", "socket:chademo": "2", "socket:chademo:output": "50.0 kW", "charging_station:output": "50.0 kW", "_source": "worldwide"}}, {"type": "node", "id": 1418344513, "lat": 51.09507, "lon": 1.165634, "tags": {"amenity": "charging_station", "operator": "EVC", "name": "Ladestation EVC", "addr:country": "FR", "_source": "worldwide"}}, {"type": "node", "id": 1496733963, "lat": 51.21327, "lon": 1.400011, "tags": {"amenity": "charging_station", "fee": "yes", "network": "Connected Kerb", "operator": "Connected Kerb", "name": "Ladestation Connected Kerb", "addr:country": "FR", "socket:type2": "4", "socket:type2:output": "22 kW", "charging_station:output": "22 kW", "capacity": "2", "_source": "worldwide"}}, {"type": "node", "id": 1496733964, "lat": 51.213611, "lon": 1.398378, "tags": {"amenity": "charging_station", "fee": "yes", "network": "Connected Kerb", "operator": "Connected Kerb", "name": "Ladestation Connected Kerb", "addr:country": "FR", "socket:type2": "4", "socket:type2:output": "22 kW", "charging_station:output": "22 kW", "capacity": "4", "_source": "worldwide"}}]}