{"id": "61-10", "latMin": 61, "lonMin": 10, "latMax": 62, "lonMax": 11, "generated": "2026-04-16T18:39:08.796Z", "count": 34, "pois": [{"type": "node", "id": 1770691950, "lat": 61.11473, "lon": 10.46781, "tags": {"amenity": "charging_station", "access": "yes", "brand": "Mer", "opening_hours": "24/7", "operator": "Mer", "name": "Mer Petter Nilssens gate", "addr:country": "NO", "socket:type2": "4", "socket:type2:output": "3.6 kW", "charging_station:output": "3.6 kW", "capacity": "4", "_source": "worldwide"}}, {"type": "node", "id": 6025956802, "lat": 61.11285, "lon": 10.4657, "tags": {"amenity": "charging_station", "access": "yes", "brand": "Mer", "opening_hours": "24/7", "operator": "Mer", "name": "Mer Kirkegata 41", "addr:country": "NO", "socket:type2": "4", "socket:type2:output": "3.6 kW", "charging_station:output": "3.6 kW", "capacity": "4", "_source": "worldwide"}}, {"type": "node", "id": 6025956803, "lat": 61.115846, "lon": 10.467308, "tags": {"amenity": "charging_station", "access": "yes", "brand": "Recharge", "opening_hours": "24/7", "operator": "Recharge", "name": "Recharge OnePark sentrum p-hus Lillehammer", "addr:country": "NO", "socket:type2": "6", "socket:type2:output": "3.6 kW", "charging_station:output": "3.6 kW", "capacity": "6", "_source": "worldwide"}}, {"type": "node", "id": 6025956833, "lat": 61.11694, "lon": 10.46176, "tags": {"amenity": "charging_station", "access": "yes", "opening_hours": "24/7", "operator": "Øya Parkering AS", "name": "Øya parkering", "addr:country": "NO", "socket:type2": "6", "socket:type2:output": "3.6 kW", "charging_station:output": "3.6 kW", "capacity": "6", "_source": "worldwide"}}, {"type": "node", "id": 8983039071, "lat": 61.112651, "lon": 10.469248, "tags": {"amenity": "charging_station", "operator": "Lillehammer kommune", "name": "Ladestation Lillehammer kommune", "addr:country": "NO", "capacity": "2", "_source": "worldwide"}}, {"type": "node", "id": 2871087177, "lat": 61.130461, "lon": 10.434631, "tags": {"amenity": "charging_station", "access": "yes", "fee": "yes", "brand": "Tesla Supercharger", "opening_hours": "24/7", "operator": "Tesla", "name": "Tesla Lillehammer Supercharger", "addr:country": "NO", "socket:type2_combo": "10", "socket:type2_combo:output": "150.0 kW", "socket:tesla_supercharger": "10", "socket:tesla_supercharger:output": "150.0 kW", "charging_station:output": "150.0 kW", "capacity": "10", "_source": "worldwide"}}, {"type": "node", "id": 6025956807, "lat": 61.129941, "lon": 10.43553, "tags": {"amenity": "charging_station", "access": "yes", "brand": "Mer", "name": "Mer Burger King Lillehammer", "addr:country": "NO", "socket:type2_combo": "8", "socket:type2_combo:output": "150.0 kW", "socket:chademo": "8", "socket:chademo:output": "62.0 kW", "charging_station:output": "150.0 kW", "capacity": "8", "_source": "worldwide"}}, {"type": "node", "id": 6110032278, "lat": 61.129053, "lon": 10.436259, "tags": {"amenity": "charging_station", "access": "private", "addr:country": "NO", "_source": "worldwide"}}, {"type": "node", "id": 11172580070, "lat": 61.130886, "lon": 10.433774, "tags": {"amenity": "charging_station", "access": "yes", "brand": "Recharge", "name": "Recharge Esso Lillehammer", "addr:country": "NO", "socket:type2_combo": "5", "socket:type2_combo:output": "225.0 kW", "socket:chademo": "1", "socket:chademo:output": "62.0 kW", "charging_station:output": "225.0 kW", "capacity": "5", "_source": "worldwide"}}, {"type": "node", "id": 5346495926, "lat": 61.115364, "lon": 10.448461, "tags": {"amenity": "charging_station", "access": "yes", "brand": "Recharge", "opening_hours": "24/7", "operator": "Recharge", "name": "Recharge McDonald's Lillehammer", "addr:country": "NO", "socket:type2_combo": "2", "socket:type2_combo:output": "400.0 kW", "charging_station:output": "400.0 kW", "capacity": "2", "_source": "worldwide"}}, {"type": "node", "id": 5808132454, "lat": 61.243692, "lon": 10.437459, "tags": {"amenity": "charging_station", "access": "yes", "brand": "Recharge", "opening_hours": "24/7", "name": "Recharge Kiwi Øyer", "addr:country": "NO", "socket:type2": "1", "socket:type2:output": "11.0 kW", "socket:type2_combo": "2", "socket:type2_combo:output": "50.0 kW", "socket:chademo": "2", "socket:chademo:output": "50.0 kW", "charging_station:output": "50.0 kW", "capacity": "3", "_source": "worldwide"}}, {"type": "node", "id": 10799731063, "lat": 61.243779, "lon": 10.438748, "tags": {"amenity": "charging_station", "access": "yes", "addr:country": "NO", "_source": "worldwide"}}, {"type": "node", "id": 6025956785, "lat": 61.240228, "lon": 10.437589, "tags": {"amenity": "charging_station", "access": "yes", "opening_hours": "24/7", "operator": "Lade i Norge", "name": "Hafjell hotel & Apartments", "addr:country": "NO", "socket:type2": "2", "socket:type2:output": "22.0 kW", "charging_station:output": "22.0 kW", "capacity": "2", "_source": "worldwide"}}, {"type": "node", "id": 11185853258, "lat": 61.242707, "lon": 10.439626, "tags": {"amenity": "charging_station", "access": "yes", "brand": "Kople", "name": "Kople Coop Extra Hafjell", "addr:country": "NO", "socket:type2_combo": "6", "socket:type2_combo:output": "180.0 kW", "socket:chademo": "2", "socket:chademo:output": "100.0 kW", "charging_station:output": "180.0 kW", "capacity": "6", "_source": "worldwide"}}, {"type": "node", "id": 6025956789, "lat": 61.454534, "lon": 10.191969, "tags": {"amenity": "charging_station", "access": "yes", "brand": "Recharge", "opening_hours": "24/7", "operator": "Recharge", "name": "Recharge Kiwi Fåvang", "addr:country": "NO", "socket:type2": "3", "socket:type2:output": "22.0 kW", "socket:type2_combo": "2", "socket:type2_combo:output": "50.0 kW", "socket:chademo": "2", "socket:chademo:output": "50.0 kW", "charging_station:output": "50.0 kW", "capacity": "5", "_source": "worldwide"}}, {"type": "node", "id": 11169096653, "lat": 61.454175, "lon": 10.189374, "tags": {"amenity": "charging_station", "access": "yes", "brand": "Eviny", "name": "Eviny Kvitfjelltunet, Fåvang", "addr:country": "NO", "socket:type2_combo": "16", "socket:type2_combo:output": "400.0 kW", "socket:chademo": "8", "socket:chademo:output": "62.0 kW", "charging_station:output": "400.0 kW", "capacity": "16", "_source": "worldwide"}}, {"type": "node", "id": 6025956820, "lat": 61.118625, "lon": 10.465113, "tags": {"amenity": "charging_station", "access": "yes", "opening_hours": "24/7", "operator": "Lillehammer kommune", "name": "Gamlevegen 100", "addr:country": "NO", "socket:type2": "4", "socket:type2:output": "3.6 kW", "charging_station:output": "3.6 kW", "capacity": "4", "_source": "worldwide"}}, {"type": "node", "id": 6025956838, "lat": 61.529287, "lon": 10.142529, "tags": {"amenity": "charging_station", "access": "yes", "brand": "Recharge", "opening_hours": "24/7", "name": "Recharge Kiwi Ringebu", "addr:country": "NO", "socket:type2": "2", "socket:type2:output": "11.0 kW", "socket:type2_combo": "2", "socket:type2_combo:output": "50.0 kW", "socket:chademo": "2", "socket:chademo:output": "50.0 kW", "charging_station:output": "50.0 kW", "capacity": "4", "_source": "worldwide"}}, {"type": "node", "id": 12755217979, "lat": 61.529713, "lon": 10.146251, "tags": {"amenity": "charging_station", "access": "yes", "brand": "Ragde Charge", "name": "Ragde Charge Europris Ringebu", "addr:country": "NO", "socket:type2_combo": "4", "socket:type2_combo:output": "250.0 kW", "charging_station:output": "250.0 kW", "capacity": "4", "_source": "worldwide"}}, {"type": "node", "id": 6037457098, "lat": 61.83491, "lon": 10.885674, "tags": {"amenity": "charging_station", "access": "yes", "brand": "Recharge", "opening_hours": "24/7", "name": "Recharge Hanestad Vertshus", "addr:country": "NO", "socket:type2": "2", "socket:type2:output": "11.0 kW", "socket:type2_combo": "2", "socket:type2_combo:output": "50.0 kW", "socket:chademo": "2", "socket:chademo:output": "50.0 kW", "charging_station:output": "50.0 kW", "capacity": "4", "_source": "worldwide"}}, {"type": "node", "id": 6037457106, "lat": 61.588478, "lon": 10.995425, "tags": {"amenity": "charging_station", "access": "yes", "brand": "Recharge", "name": "Recharge Shell Koppang", "addr:country": "NO", "socket:type2_combo": "8", "socket:type2_combo:output": "200.0 kW", "socket:chademo": "2", "socket:chademo:output": "50.0 kW", "charging_station:output": "200.0 kW", "capacity": "8", "_source": "worldwide"}}, {"type": "node", "id": 6037457141, "lat": 61.152254, "lon": 10.691211, "tags": {"amenity": "charging_station", "access": "yes", "brand": "Recharge", "opening_hours": "24/7", "name": "Recharge Kiwi Sjusjøen", "addr:country": "NO", "socket:type2": "2", "socket:type2:output": "11.0 kW", "socket:type2_combo": "2", "socket:type2_combo:output": "50.0 kW", "socket:chademo": "2", "socket:chademo:output": "50.0 kW", "charging_station:output": "50.0 kW", "capacity": "4", "_source": "worldwide"}}, {"type": "node", "id": 6557167244, "lat": 61.120915, "lon": 10.506595, "tags": {"amenity": "charging_station", "operator": "VIKØrstra", "name": "Ladestation VIKØrstra", "addr:country": "NO", "capacity": "2", "_source": "worldwide"}}, {"type": "node", "id": 6771439328, "lat": 61.14836, "lon": 10.415596, "tags": {"amenity": "charging_station", "access": "yes", "brand": "Mer", "name": "Mer Blåswixbutikken", "addr:country": "NO", "socket:type2": "2", "socket:type2:output": "22.0 kW", "socket:type2_combo": "2", "socket:type2_combo:output": "50.0 kW", "socket:chademo": "2", "socket:chademo:output": "50.0 kW", "charging_station:output": "50.0 kW", "capacity": "4", "_source": "worldwide"}}, {"type": "node", "id": 7004520231, "lat": 61.243385, "lon": 10.43448, "tags": {"amenity": "charging_station", "access": "yes", "brand": "Tesla", "name": "Tesla Øyer Supercharger", "addr:country": "NO", "socket:type2_combo": "20", "socket:type2_combo:output": "150.0 kW", "socket:tesla_supercharger": "20", "socket:tesla_supercharger:output": "150.0 kW", "charging_station:output": "150.0 kW", "capacity": "20", "_source": "worldwide"}}, {"type": "node", "id": 7618226729, "lat": 61.226406, "lon": 10.54581, "tags": {"amenity": "charging_station", "addr:country": "NO", "_source": "worldwide"}}, {"type": "node", "id": 8999215403, "lat": 61.24317, "lon": 10.434812, "tags": {"amenity": "charging_station", "access": "yes", "brand": "Ionity", "name": "Ionity Øyer", "addr:country": "NO", "socket:type2_combo": "6", "socket:type2_combo:output": "350.0 kW", "charging_station:output": "350.0 kW", "capacity": "6", "_source": "worldwide"}}, {"type": "node", "id": 11169096647, "lat": 61.114387, "lon": 10.447298, "tags": {"amenity": "charging_station", "access": "yes", "brand": "Eviny", "name": "Eviny Strandtorget senter", "addr:country": "NO", "socket:type2_combo": "14", "socket:type2_combo:output": "400.0 kW", "socket:chademo": "6", "socket:chademo:output": "62.0 kW", "charging_station:output": "400.0 kW", "capacity": "14", "_source": "worldwide"}}, {"type": "node", "id": 10799854400, "lat": 61.530048, "lon": 10.137294, "tags": {"amenity": "charging_station", "access": "yes", "brand": "Kople", "name": "Kople Ringebu E6", "addr:country": "NO", "socket:type2_combo": "6", "socket:type2_combo:output": "180.0 kW", "socket:chademo": "2", "socket:chademo:output": "62.0 kW", "charging_station:output": "180.0 kW", "capacity": "6", "_source": "worldwide"}}, {"type": "node", "id": 11185853253, "lat": 61.225898, "lon": 10.22376, "tags": {"amenity": "charging_station", "access": "yes", "brand": "Kople", "name": "Kople Gausdal", "addr:country": "NO", "socket:type2_combo": "3", "socket:type2_combo:output": "150.0 kW", "socket:chademo": "1", "socket:chademo:output": "100.0 kW", "charging_station:output": "150.0 kW", "capacity": "3", "_source": "worldwide"}}, {"type": "node", "id": 12165328878, "lat": 61.223711, "lon": 10.437012, "tags": {"amenity": "charging_station", "brand": "Apcoa Parkering", "name": "Ladestation Apcoa Parkering", "addr:country": "NO", "capacity": "7", "_source": "worldwide"}}, {"type": "node", "id": 12736743712, "lat": 61.127497, "lon": 10.45142, "tags": {"amenity": "charging_station", "access": "yes", "fee": "yes", "brand": "Tesla Supercharger", "opening_hours": "24/7", "operator": "Tesla", "name": "Tesla Lillehammer Rosenlund Supercharger", "addr:country": "NO", "socket:type2_combo": "12", "socket:type2_combo:output": "250.0 kW", "charging_station:output": "250.0 kW", "capacity": "12", "_source": "worldwide"}}, {"type": "node", "id": 12776823567, "lat": 61.227706, "lon": 10.220689, "tags": {"amenity": "charging_station", "access": "yes", "brand": "Circle K", "name": "Circle K Segalstad Bru", "addr:country": "NO", "socket:type2_combo": "4", "socket:type2_combo:output": "400.0 kW", "charging_station:output": "400.0 kW", "capacity": "4", "_source": "worldwide"}}, {"type": "node", "id": 13095942637, "lat": 61.117808, "lon": 10.47751, "tags": {"amenity": "charging_station", "addr:country": "NO", "capacity": "2", "_source": "worldwide"}}]}