{"id": "44--72", "latMin": 44, "lonMin": -72, "latMax": 45, "lonMax": -71, "generated": "2026-04-16T18:39:08.032Z", "count": 7, "pois": [{"type": "node", "id": 4423170664, "lat": 44.032254, "lon": -71.68694, "tags": {"amenity": "charging_station", "name": "EV Charging Station", "_source": "worldwide"}}, {"type": "node", "id": 6648083722, "lat": 44.04278, "lon": -71.66739, "tags": {"amenity": "charging_station", "fee": "yes", "access": "customers", "opening_hours": "24/7", "brand": "Tesla Supercharger", "network": "Supercharger", "operator": "Tesla, Inc.", "name": "Tesla Supercharger", "addr:street": "South Mountain Drive", "addr:housenumber": "22", "addr:postcode": "03251", "addr:city": "Lincoln", "addr:country": "US", "capacity": "10", "_source": "worldwide"}}, {"type": "node", "id": 8870488510, "lat": 44.054994, "lon": -71.11131, "tags": {"amenity": "charging_station", "fee": "no", "operator": "Tesla, Inc", "name": "Cranmore Destination Charger", "_source": "worldwide"}}, {"type": "node", "id": 10078618727, "lat": 44.306537, "lon": -71.774849, "tags": {"amenity": "charging_station", "name": "EV Charging Station", "_source": "worldwide"}}, {"type": "node", "id": 11227433159, "lat": 44.02027, "lon": -71.11374, "tags": {"amenity": "charging_station", "fee": "yes", "access": "yes", "opening_hours": "24/7", "brand": "Tesla Supercharger", "network": "Supercharger", "operator": "Tesla, Inc.", "name": "North Conway Supercharger", "addr:street": "Mountain Valley Boulevard", "addr:housenumber": "32", "addr:postcode": "03860", "addr:city": "North Conway", "addr:country": "US", "capacity": "8", "_source": "worldwide"}}, {"type": "node", "id": 11732162829, "lat": 44.057249, "lon": -71.635288, "tags": {"amenity": "charging_station", "fee": "yes", "brand": "SWTCH", "name": "SWTCH", "_source": "worldwide"}}, {"type": "node", "id": 12248627908, "lat": 44.413588, "lon": -71.195468, "tags": {"amenity": "charging_station", "fee": "yes", "operator": "Red E", "name": "Berlin City Auto Group", "_source": "worldwide"}}]}