{"id": "46-7", "latMin": 46, "lonMin": 7, "latMax": 47, "lonMax": 8, "generated": "2026-04-16T18:39:08.130Z", "count": 25, "pois": [{"type": "node", "id": 541075896, "lat": 46.921212, "lon": 7.424993, "tags": {"amenity": "charging_station", "fee": "no", "opening_hours": "24/7", "operator": "Bernmobil", "name": "Ladestation für Batteriebusse", "addr:street": "Spiegelstrasse 5b", "addr:postcode": "3095", "addr:city": "Spiegel b. Bern", "addr:country": "CH", "_source": "worldwide"}}, {"type": "node", "id": 1198059142, "lat": 46.184545, "lon": 7.026481, "tags": {"amenity": "charging_station", "fee": "yes", "brand": "SOCAR", "operator": "SOCAR", "name": "SOCAR Charge Dents de Morcles", "addr:country": "CH", "_source": "worldwide"}}, {"type": "node", "id": 1254400879, "lat": 46.673389, "lon": 7.871923, "tags": {"amenity": "charging_station", "brand": "evpass", "operator": "evpass", "name": "evpass - evpass", "addr:country": "CH", "capacity": "10", "_source": "worldwide"}}, {"type": "node", "id": 1293518484, "lat": 46.779041, "lon": 7.089395, "tags": {"amenity": "charging_station", "access": "yes", "fee": "yes", "network": "Swisscharge", "opening_hours": "24/7", "operator": "GOFAST", "name": "GOFAST Matran", "addr:country": "CH", "socket:type2_combo": "12", "socket:type2_combo:output": "300.0 kW", "charging_station:output": "300.0 kW", "capacity": "12", "_source": "worldwide"}}, {"type": "node", "id": 1300575098, "lat": 46.28121, "lon": 7.815817, "tags": {"amenity": "charging_station", "access": "yes", "fee": "yes", "operator": "Enalpin", "name": "Ladestation Enalpin", "addr:country": "CH", "capacity": "2", "_source": "worldwide"}}, {"type": "node", "id": 1308276800, "lat": 46.288527, "lon": 7.8015, "tags": {"amenity": "charging_station", "access": "yes", "addr:country": "CH", "capacity": "2", "_source": "worldwide"}}, {"type": "node", "id": 1352975732, "lat": 46.961022, "lon": 7.210667, "tags": {"amenity": "charging_station", "brand": "Fastned", "operator": "Fastned", "name": "Fastned - Fastned", "addr:country": "CH", "capacity": "4", "_source": "worldwide"}}, {"type": "node", "id": 1352975733, "lat": 46.963045, "lon": 7.226231, "tags": {"amenity": "charging_station", "brand": "Fastned", "opening_hours": "24/7", "operator": "Fastned", "name": "Fastned - Fastned", "addr:country": "CH", "socket:chademo": "2", "socket:chademo:output": "50 kW", "charging_station:output": "50 kW", "capacity": "4", "_source": "worldwide"}}, {"type": "node", "id": 1360570420, "lat": 46.879383, "lon": 7.044115, "tags": {"amenity": "charging_station", "operator": "Eni", "name": "Ladestation Eni", "addr:country": "CH", "socket:type2": "1", "socket:type2:output": "22 kW", "charging_station:output": "22 kW", "capacity": "2", "_source": "worldwide"}}, {"type": "node", "id": 1385944582, "lat": 46.943424, "lon": 7.370555, "tags": {"amenity": "charging_station", "access": "customers", "fee": "yes", "brand": "Tesla Supercharger", "opening_hours": "24/7", "operator": "Tesla", "name": "Westside Supercharger", "addr:country": "CH", "socket:type2_combo": "12", "socket:type2_combo:output": "250.0 kW", "charging_station:output": "250.0 kW", "capacity": "12", "_source": "worldwide"}}, {"type": "node", "id": 1385946850, "lat": 46.624983, "lon": 7.037397, "tags": {"amenity": "charging_station", "access": "yes", "fee": "yes", "brand": "Tesla Supercharger", "opening_hours": "24/7", "operator": "Tesla", "name": "Bulle Supercharger", "addr:street": "Rue de l'Industrie 31", "addr:postcode": "1630", "addr:city": "Bulle", "addr:country": "CH", "socket:type2_combo": "16", "socket:type2_combo:output": "250.0 kW", "charging_station:output": "250.0 kW", "capacity": "16", "_source": "worldwide"}}, {"type": "node", "id": 1386290492, "lat": 46.126615, "lon": 7.060975, "tags": {"amenity": "charging_station", "access": "yes", "fee": "yes", "brand": "Tesla Supercharger", "opening_hours": "24/7", "operator": "Tesla", "name": "Martigny Supercharger", "addr:postcode": "1920", "addr:city": "Martigny", "addr:country": "CH", "socket:type2_combo": "20", "socket:type2_combo:output": "250.0 kW", "socket:tesla_supercharger": "20", "socket:tesla_supercharger:output": "250.0 kW", "charging_station:output": "250.0 kW", "capacity": "20", "_source": "worldwide"}}, {"type": "node", "id": 1386290502, "lat": 46.127727, "lon": 7.059923, "tags": {"amenity": "charging_station", "access": "yes", "fee": "yes", "brand": "Tesla Supercharger", "opening_hours": "24/7", "operator": "Tesla", "name": "Martigny Supercharger", "addr:postcode": "1920", "addr:city": "Martigny", "addr:country": "CH", "socket:type2_combo": "20", "socket:type2_combo:output": "250.0 kW", "socket:tesla_supercharger": "20", "socket:tesla_supercharger:output": "250.0 kW", "charging_station:output": "250.0 kW", "capacity": "20", "_source": "worldwide"}}, {"type": "node", "id": 1386300360, "lat": 46.891903, "lon": 7.54276, "tags": {"amenity": "charging_station", "access": "yes", "fee": "yes", "brand": "Tesla Supercharger", "opening_hours": "24/7", "operator": "Tesla", "name": "Rubigen Supercharger", "addr:street": "Belpstrasse 103", "addr:postcode": "3113", "addr:city": "Rubigen", "addr:country": "CH", "socket:type2_combo": "16", "socket:type2_combo:output": "150.0 kW", "socket:tesla_supercharger": "16", "socket:tesla_supercharger:output": "150.0 kW", "charging_station:output": "150.0 kW", "capacity": "16", "_source": "worldwide"}}, {"type": "node", "id": 1386303646, "lat": 46.310366, "lon": 7.749534, "tags": {"amenity": "charging_station", "access": "yes", "fee": "yes", "brand": "Tesla Supercharger", "opening_hours": "24/7", "operator": "Tesla", "name": "Steg-Hohtenn Supercharger", "addr:street": "Besche Mattenstrasse 1", "addr:postcode": "3940", "addr:city": "Steg-Hohtenn", "addr:country": "CH", "socket:type2_combo": "8", "socket:type2_combo:output": "125.0 kW", "socket:tesla_supercharger": "8", "socket:tesla_supercharger:output": "125.0 kW", "charging_station:output": "125.0 kW", "capacity": "8", "_source": "worldwide"}}, {"type": "node", "id": 1390039705, "lat": 46.306733, "lon": 7.96111, "tags": {"amenity": "charging_station", "operator": "GOFAST", "name": "GOFAST Brig", "addr:country": "CH", "_source": "worldwide"}}, {"type": "node", "id": 1390133089, "lat": 46.721204, "lon": 7.08921, "tags": {"amenity": "charging_station", "access": "yes", "fee": "yes", "network": "Swisscharge", "opening_hours": "24/7", "operator": "GOFAST", "name": "GOFAST Rossens", "addr:country": "CH", "socket:type2_combo": "2", "socket:type2_combo:output": "150.0 kW", "charging_station:output": "150.0 kW", "capacity": "2", "authentication:none": "", "_source": "worldwide"}}, {"type": "node", "id": 1390212016, "lat": 46.990214, "lon": 7.476033, "tags": {"amenity": "charging_station", "access": "yes", "fee": "yes", "brand": "Ionity", "network": "Ionity", "opening_hours": "24/7", "operator": "IONITY", "name": "IONITY Grauholz", "addr:country": "CH", "socket:type2_combo": "10", "socket:type2_combo:output": "350.0 kW", "charging_station:output": "350.0 kW", "capacity": "10", "authentication:none": "", "_source": "worldwide"}}, {"type": "node", "id": 1390702394, "lat": 46.398986, "lon": 7.771364, "tags": {"amenity": "charging_station", "operator": "mobilecharge", "name": "Ladestation mobilecharge", "addr:country": "CH", "capacity": "2", "_source": "worldwide"}}, {"type": "node", "id": 1441634140, "lat": 46.318787, "lon": 7.991988, "tags": {"amenity": "charging_station", "fee": "yes", "addr:country": "CH", "socket:type2": "8", "socket:type2:output": "22.0 kW", "charging_station:output": "22.0 kW", "capacity": "8", "_source": "worldwide"}}, {"type": "node", "id": 1441638876, "lat": 46.294538, "lon": 7.907278, "tags": {"amenity": "charging_station", "fee": "yes", "opening_hours": "24/7", "addr:country": "CH", "socket:type2": "2", "socket:type2:output": "22.0 kW", "charging_station:output": "22.0 kW", "capacity": "2", "_source": "worldwide"}}, {"type": "node", "id": 1478423685, "lat": 46.940081, "lon": 7.144867, "tags": {"amenity": "charging_station", "access": "yes", "fee": "yes", "brand": "GOFAST", "opening_hours": "24/7", "operator": "GOFAST", "name": "GOFAST Murten McDonald's", "addr:country": "CH", "socket:type2_combo": "1", "socket:type2_combo:output": "150.0 kW", "socket:chademo": "1", "socket:chademo:output": "50 kW", "charging_station:output": "150.0 kW", "capacity": "4", "_source": "worldwide"}}, {"type": "node", "id": 1484142955, "lat": 46.307611, "lon": 7.966801, "tags": {"amenity": "charging_station", "fee": "yes", "operator": "Migrol", "name": "Ladestation Migrol", "addr:country": "CH", "capacity": "2", "_source": "worldwide"}}, {"type": "node", "id": 1484143180, "lat": 46.307591, "lon": 7.965063, "tags": {"amenity": "charging_station", "fee": "yes", "network": "evpass", "opening_hours": "24/7", "operator": "evpass", "name": "Ladestation evpass", "addr:country": "CH", "socket:type2_combo": "1", "socket:type2_combo:output": "50.0 kW", "socket:chademo": "1", "socket:chademo:output": "50.0 kW", "charging_station:output": "50.0 kW", "capacity": "2", "authentication:none": "", "_source": "worldwide"}}, {"type": "node", "id": 1488458821, "lat": 46.894877, "lon": 7.051236, "tags": {"amenity": "charging_station", "addr:country": "CH", "_source": "worldwide"}}]}