{"id": "44-14", "latMin": 44, "lonMin": 14, "latMax": 45, "lonMax": 15, "generated": "2026-04-16T18:39:08.049Z", "count": 21, "pois": [{"type": "node", "id": 3866958433, "lat": 44.98932, "lon": 14.897587, "tags": {"amenity": "charging_station", "access": "customers", "fee": "yes", "brand": "Tesla Supercharger", "opening_hours": "24/7", "operator": "Tesla", "name": "Senj Supercharger", "addr:street": "Obala Dr. Franje Tudjmana", "addr:postcode": "52370", "addr:city": "Senj", "addr:country": "HR", "socket:type2_combo": "4", "socket:type2_combo:output": "150.0 kW", "socket:tesla_supercharger": "4", "socket:tesla_supercharger:output": "150.0 kW", "charging_station:output": "150.0 kW", "capacity": "4", "_source": "worldwide"}}, {"type": "node", "id": 5922956091, "lat": 44.96249, "lon": 14.397349, "tags": {"amenity": "charging_station", "fee": "yes", "brand": "T-Mobile", "operator": "T-Mobile", "name": "T-Mobile - T-Mobile", "addr:country": "IT", "socket:type2": "2", "socket:type2:output": "22 kW", "charging_station:output": "22 kW", "capacity": "2", "_source": "worldwide"}}, {"type": "node", "id": 8485213637, "lat": 44.75636, "lon": 14.764267, "tags": {"amenity": "charging_station", "name": "(Under construction)", "addr:country": "IT", "capacity": "1", "_source": "worldwide"}}, {"type": "node", "id": 8485980644, "lat": 44.754679, "lon": 14.762055, "tags": {"amenity": "charging_station", "access": "customers", "name": "Arbiana hotel", "addr:country": "IT", "socket:tesla_destination": "2", "socket:tesla_destination:output": "11 kW", "charging_station:output": "11 kW", "capacity": "2", "_source": "worldwide"}}, {"type": "node", "id": 10042573154, "lat": 44.756285, "lon": 14.761798, "tags": {"amenity": "charging_station", "access": "yes", "fee": "no", "addr:country": "IT", "authentication:none": "yes", "_source": "worldwide"}}, {"type": "node", "id": 8485980642, "lat": 44.761991, "lon": 14.758176, "tags": {"amenity": "charging_station", "addr:country": "IT", "socket:type2": "2", "socket:type2:output": "22 kW", "charging_station:output": "22 kW", "capacity": "2", "_source": "worldwide"}}, {"type": "node", "id": 8485980643, "lat": 44.761151, "lon": 14.758477, "tags": {"amenity": "charging_station", "name": "Hotel Imperial", "addr:country": "IT", "socket:type2": "2", "socket:type2:output": "22 kW", "charging_station:output": "22 kW", "capacity": "2", "_source": "worldwide"}}, {"type": "node", "id": 8485980645, "lat": 44.763672, "lon": 14.74951, "tags": {"amenity": "charging_station", "access": "customers", "name": "Apartment Resort Kaldana", "addr:country": "IT", "socket:tesla_destination": "1", "socket:tesla_destination:output": "11.0 kW", "charging_station:output": "11.0 kW", "_source": "worldwide"}}, {"type": "node", "id": 8485980646, "lat": 44.803237, "lon": 14.726006, "tags": {"amenity": "charging_station", "name": "AC Marina", "addr:country": "IT", "socket:type2": "1", "socket:type2:output": "22 kW", "socket:tesla_destination": "2", "socket:tesla_destination:output": "22.0 kW", "socket:schuko": "1", "socket:schuko:output": "2.3 kW", "charging_station:output": "22 kW", "capacity": "3", "_source": "worldwide"}}, {"type": "node", "id": 8485980647, "lat": 44.835791, "lon": 14.725371, "tags": {"amenity": "charging_station", "fee": "no", "operator": "ELEN", "name": "ELEN Trajektna luka LOPAR", "addr:country": "IT", "socket:type2": "2", "socket:type2:output": "22.0 kW", "charging_station:output": "22.0 kW", "capacity": "2", "_source": "worldwide"}}, {"type": "node", "id": 9098286573, "lat": 44.971663, "lon": 14.755579, "tags": {"amenity": "charging_station", "fee": "yes", "addr:country": "IT", "socket:type2": "2", "socket:type2:output": "18.0 kW", "charging_station:output": "18.0 kW", "capacity": "2", "_source": "worldwide"}}, {"type": "node", "id": 9170518029, "lat": 44.969041, "lon": 14.763986, "tags": {"amenity": "charging_station", "fee": "yes", "operator": "Absolute", "name": "Ladestation Absolute", "addr:country": "IT", "socket:type2": "2", "socket:type2:output": "18.0 kW", "charging_station:output": "18.0 kW", "capacity": "2", "_source": "worldwide"}}, {"type": "node", "id": 12065103395, "lat": 44.95365, "lon": 14.690231, "tags": {"amenity": "charging_station", "access": "yes", "brand": "Chargeport", "network": "Chargeport", "operator": "Chargeport", "name": "Chargeport - Chargeport", "addr:country": "IT", "capacity": "1", "_source": "worldwide"}}, {"type": "node", "id": 12186499041, "lat": 44.522218, "lon": 14.459755, "tags": {"amenity": "charging_station", "network": "Hrvatski Telekom", "operator": "Hrvatski Telekom", "name": "Jadranka turizam - Hotel Aurora", "addr:country": "IT", "capacity": "2", "_source": "worldwide"}}, {"type": "node", "id": 12186499042, "lat": 44.533556, "lon": 14.464491, "tags": {"amenity": "charging_station", "network": "Hrvatski Telekom", "operator": "Hrvatski Telekom", "name": "Losinj", "addr:country": "IT", "capacity": "2", "_source": "worldwide"}}, {"type": "node", "id": 12186499043, "lat": 44.541207, "lon": 14.464351, "tags": {"amenity": "charging_station", "network": "Hrvatski Telekom", "operator": "Hrvatski Telekom", "name": "Losinj Shipyard", "addr:country": "IT", "capacity": "2", "_source": "worldwide"}}, {"type": "node", "id": 12852966146, "lat": 44.960261, "lon": 14.405345, "tags": {"amenity": "charging_station", "access": "yes", "fee": "yes", "brand": "HEP ELEN", "operator": "ELEN", "name": "Parkiraliste Melin bb, Cres", "addr:country": "IT", "socket:type2": "1", "socket:type2:output": "22 kW", "charging_station:output": "22 kW", "capacity": "2", "_source": "worldwide"}}, {"type": "node", "id": 13072538935, "lat": 44.580517, "lon": 14.852049, "tags": {"amenity": "charging_station", "access": "visitors", "operator": "Terra Park d.o.o.", "name": "Ladestation Terra Park d.o.o.", "addr:country": "IT", "_source": "worldwide"}}, {"type": "node", "id": 13113090554, "lat": 44.960474, "lon": 14.39773, "tags": {"amenity": "charging_station", "addr:country": "IT", "_source": "worldwide"}}, {"type": "node", "id": 13113103229, "lat": 44.960705, "lon": 14.398429, "tags": {"amenity": "charging_station", "fee": "yes", "brand": "T-Mobile", "operator": "T-Mobile", "name": "T-Mobile - T-Mobile", "addr:country": "IT", "_source": "worldwide"}}, {"type": "node", "id": 13428825481, "lat": 44.655315, "lon": 14.394547, "tags": {"amenity": "charging_station", "access": "permit", "fee": "yes", "operator": "Hotel Manora", "name": "Ladestation Hotel Manora", "addr:country": "IT", "socket:type2": "1", "socket:type2:output": "22 kW", "charging_station:output": "22 kW", "_source": "worldwide"}}]}