{"id": "49-9", "latMin": 49, "lonMin": 9, "latMax": 50, "lonMax": 10, "generated": "2026-04-16T18:39:08.301Z", "count": 715, "pois": [{"type": "node", "id": 8680221562, "lat": 49.000947, "lon": 9.770345, "tags": {"amenity": "charging_station", "fee": "no", "opening_hours": "24/7", "operator": "EVG Energieversorgung Gaildorf", "name": "Velobox", "addr:country": "DE", "socket:schuko": "2", "socket:schuko:output": "2.3 kW", "charging_station:output": "2.3 kW", "capacity": "3", "authentication:none": "yes", "_source": "worldwide"}}, {"type": "node", "id": 9215587854, "lat": 49.004403, "lon": 9.77493, "tags": {"amenity": "charging_station", "opening_hours": "24/7", "operator": "Comfortcharge", "name": "Ladestation Comfortcharge", "addr:country": "DE", "socket:type2": "2", "socket:type2:output": "22 kW", "socket:type2_combo": "2", "socket:type2_combo:output": "50 kW", "charging_station:output": "50 kW", "capacity": "2", "authentication:none": "", "_source": "worldwide"}}, {"type": "node", "id": 9215632609, "lat": 49.001973, "lon": 9.770876, "tags": {"amenity": "charging_station", "access": "yes", "opening_hours": "24/7", "operator": "EnBW", "name": "EnBW - EnBW GmbH", "addr:country": "DE", "socket:type2": "1", "socket:type2:output": "43.0 kW", "socket:type2_combo": "1", "socket:type2_combo:output": "50.0 kW", "socket:chademo": "1", "socket:chademo:output": "50.0 kW", "charging_station:output": "50.0 kW", "capacity": "2", "authentication:none": "", "_source": "worldwide"}}, {"type": "node", "id": 9199940328, "lat": 49.67939, "lon": 9.001273, "tags": {"amenity": "charging_station", "fee": "yes", "opening_hours": "24/7", "operator": "Entega", "name": "Ladestation Entega", "addr:country": "DE", "socket:type2": "2", "socket:type2:output": "22.0 kW", "charging_station:output": "22.0 kW", "capacity": "2", "_source": "worldwide"}}, {"type": "node", "id": 11449268161, "lat": 49.679713, "lon": 9.003849, "tags": {"amenity": "charging_station", "name": "eBike Ladestation", "addr:country": "DE", "_source": "worldwide"}}, {"type": "node", "id": 13607804519, "lat": 49.678859, "lon": 9.004099, "tags": {"amenity": "charging_station", "fee": "no", "operator": "Zukunft Innenstadt", "name": "Ladestation Zukunft Innenstadt", "addr:country": "DE", "_source": "worldwide"}}, {"type": "node", "id": 280885031, "lat": 49.847725, "lon": 9.149682, "tags": {"amenity": "charging_station", "access": "yes", "fee": "no", "operator": "bike energy", "name": "E-Bike Ladestation", "addr:street": "Dekaneistraße 2", "addr:postcode": "63785", "addr:city": "Obernburg am Main", "socket:schuko": "1", "socket:schuko:output": "2.3 kW", "charging_station:output": "2.3 kW", "_source": "worldwide"}}, {"type": "node", "id": 1409585679, "lat": 49.798769, "lon": 9.992204, "tags": {"amenity": "charging_station", "addr:country": "DE", "_source": "worldwide"}}, {"type": "node", "id": 4503000152, "lat": 49.799086, "lon": 9.993601, "tags": {"amenity": "charging_station", "opening_hours": "24/7", "operator": "Belectric Drive", "name": "Ladestation Belectric Drive", "addr:street": "Nürnberger Straße 111", "addr:postcode": "97076", "addr:city": "Würzburg", "socket:type2": "1", "socket:type2:output": "22 kW", "socket:schuko": "3", "socket:schuko:output": "2.3 kW", "charging_station:output": "22 kW", "capacity": "4", "_source": "worldwide"}}, {"type": "node", "id": 11786210411, "lat": 49.797196, "lon": 9.991547, "tags": {"amenity": "charging_station", "access": "yes", "fee": "yes", "operator": "Pfalzwerke", "name": "Ladestation Pfalzwerke", "addr:country": "DE", "socket:type2_combo": "2", "socket:type2_combo:output": "300.0 kW", "charging_station:output": "300.0 kW", "capacity": "6", "_source": "worldwide"}}, {"type": "node", "id": 11786210412, "lat": 49.798257, "lon": 9.991187, "tags": {"amenity": "charging_station", "access": "yes", "fee": "yes", "brand": "Mer", "operator": "Mer", "name": "Mer", "addr:country": "DE", "socket:type2_combo": "2", "socket:type2_combo:output": "150.0 kW", "charging_station:output": "150.0 kW", "capacity": "2", "_source": "worldwide"}}, {"type": "node", "id": 11801467364, "lat": 49.797691, "lon": 9.986913, "tags": {"amenity": "charging_station", "access": "yes", "fee": "yes", "operator": "EWE Go", "name": "Ladestation EWE Go", "addr:country": "DE", "socket:type2_combo": "2", "socket:type2_combo:output": "300.0 kW", "charging_station:output": "300.0 kW", "capacity": "2", "_source": "worldwide"}}, {"type": "node", "id": 1610862103, "lat": 49.210323, "lon": 9.068636, "tags": {"amenity": "charging_station", "addr:country": "DE", "_source": "worldwide"}}, {"type": "node", "id": 11582443369, "lat": 49.210502, "lon": 9.072857, "tags": {"amenity": "charging_station", "opening_hours": "24/7", "name": "Hochtief Ladepartner HTL", "addr:country": "DE", "socket:type2_combo": "6", "socket:type2_combo:output": "300.0 kW", "charging_station:output": "300.0 kW", "_source": "worldwide"}}, {"type": "node", "id": 1829070531, "lat": 49.167402, "lon": 9.845619, "tags": {"amenity": "charging_station", "operator": "Gemeinde Wolpertshausen", "name": "Ladestation Gemeinde Wolpertshausen", "addr:street": "Haller Straße 15", "addr:postcode": "74549", "addr:city": "Wolpertshausen", "_source": "worldwide"}}, {"type": "node", "id": 6185950650, "lat": 49.169052, "lon": 9.848115, "tags": {"amenity": "charging_station", "addr:country": "DE", "_source": "worldwide"}}, {"type": "node", "id": 1854364438, "lat": 49.050943, "lon": 9.1928, "tags": {"amenity": "charging_station", "operator": "ZEAG Energie", "name": "ZEAG Energie - ZEAG Energie AG", "addr:country": "DE", "_source": "worldwide"}}, {"type": "node", "id": 2082451717, "lat": 49.987325, "lon": 9.164986, "tags": {"amenity": "charging_station", "name": "Strom", "addr:country": "DE", "_source": "worldwide"}}, {"type": "node", "id": 2384041469, "lat": 49.152993, "lon": 9.732474, "tags": {"amenity": "charging_station", "addr:country": "DE", "_source": "worldwide"}}, {"type": "node", "id": 2432608311, "lat": 49.804243, "lon": 9.940324, "tags": {"amenity": "charging_station", "access": "yes", "fee": "yes", "brand": "chargeIT mobility", "operator": "WVV Würzburger Versorgungs- und Verkehrs-GmbH", "name": "WVV Würzburger Versorgungs- und Verkehrs-GmbH - chargeIT mobility", "addr:country": "DE", "capacity": "4", "_source": "worldwide"}}, {"type": "node", "id": 7524097808, "lat": 49.801133, "lon": 9.936341, "tags": {"amenity": "charging_station", "fee": "no", "opening_hours": "24/7", "operator": "Stadt Würzburg", "name": "Ladestation Stadt Würzburg", "addr:country": "DE", "socket:schuko": "6", "socket:schuko:output": "2.3 kW", "charging_station:output": "2.3 kW", "capacity": "3", "_source": "worldwide"}}, {"type": "node", "id": 1375198824, "lat": 49.803868, "lon": 9.941773, "tags": {"amenity": "charging_station", "access": "yes", "fee": "yes", "brand": "chargeIT mobility", "operator": "WVV Würzburger Versorgungs- und Verkehrs-GmbH", "name": "WVV Würzburger Versorgungs- und Verkehrs-GmbH - chargeIT mobility", "addr:country": "DE", "capacity": "4", "_source": "worldwide"}}, {"type": "node", "id": 2472869286, "lat": 49.966343, "lon": 9.205231, "tags": {"amenity": "charging_station", "fee": "no", "brand": "bike-energy", "network": "Wald Erfahren", "operator": "bike-energy", "name": "bike-energy", "addr:country": "DE", "socket:schuko": "1", "socket:schuko:output": "2.3 kW", "charging_station:output": "2.3 kW", "capacity": "3", "_source": "worldwide"}}, {"type": "node", "id": 2516630155, "lat": 49.249593, "lon": 9.195103, "tags": {"amenity": "charging_station", "addr:country": "DE", "_source": "worldwide"}}, {"type": "node", "id": 8206072464, "lat": 49.212065, "lon": 9.077495, "tags": {"amenity": "charging_station", "fee": "yes", "opening_hours": "24/7", "operator": "Allego", "name": "Ladestation Allego", "addr:street": "Buchäckerring 40", "addr:postcode": "74906", "addr:city": "Bad Rappenau", "addr:country": "DE", "socket:type2": "1", "socket:type2:output": "43.0 kW", "socket:type2_combo": "1", "socket:type2_combo:output": "50.0 kW", "socket:chademo": "1", "socket:chademo:output": "50.0 kW", "charging_station:output": "50.0 kW", "capacity": "2", "_source": "worldwide"}}, {"type": "node", "id": 2590746841, "lat": 49.995703, "lon": 9.575116, "tags": {"amenity": "charging_station", "access": "yes", "operator": "Die Energie", "name": "Ladestation Die Energie", "addr:country": "DE", "socket:type2": "2", "socket:type2:output": "22.0 kW", "charging_station:output": "22.0 kW", "capacity": "2", "_source": "worldwide"}}, {"type": "node", "id": 4012941141, "lat": 49.994566, "lon": 9.574442, "tags": {"amenity": "charging_station", "access": "yes", "fee": "yes", "operator": "die-energie;Stadt Lohr a. Main", "name": "E-Lade Station", "addr:country": "DE", "capacity": "6", "_source": "worldwide"}}, {"type": "node", "id": 7616169312, "lat": 49.995582, "lon": 9.573357, "tags": {"amenity": "charging_station", "access": "yes", "fee": "no", "brand": "bike-energy", "operator": "bike-energy", "name": "bike-energy", "addr:country": "DE", "capacity": "4", "_source": "worldwide"}}, {"type": "node", "id": 7616183113, "lat": 49.99482, "lon": 9.573597, "tags": {"amenity": "charging_station", "access": "yes", "fee": "yes", "operator": "Die Energie", "name": "Ladestation Die Energie", "addr:country": "DE", "capacity": "4", "_source": "worldwide"}}, {"type": "node", "id": 2803618548, "lat": 49.795787, "lon": 9.937688, "tags": {"amenity": "charging_station", "operator": "WVV", "name": "Ladestation WVV", "addr:country": "DE", "capacity": "2", "_source": "worldwide"}}, {"type": "node", "id": 5630677614, "lat": 49.797699, "lon": 9.935678, "tags": {"amenity": "charging_station", "operator": "WVV", "name": "Ladestation WVV", "addr:country": "DE", "socket:type2": "2", "socket:type2:output": "22 kW", "charging_station:output": "22 kW", "capacity": "2", "_source": "worldwide"}}, {"type": "node", "id": 7494869151, "lat": 49.799541, "lon": 9.936938, "tags": {"amenity": "charging_station", "access": "yes", "fee": "no", "operator": "WVV", "name": "Stadtwerke Würzburg Charging Station", "addr:country": "DE", "capacity": "4", "_source": "worldwide"}}, {"type": "node", "id": 2848493847, "lat": 49.981042, "lon": 9.160487, "tags": {"amenity": "charging_station", "access": "yes", "opening_hours": "24/7", "operator": "Energieversorgung Main-Spessart", "name": "Energieversorgung Main-Spessart - Energieversorgung Main-Spessart GmbH", "addr:country": "DE", "socket:type2": "2", "socket:type2:output": "22 kW", "charging_station:output": "22 kW", "capacity": "2", "_source": "worldwide"}}, {"type": "node", "id": 8035935687, "lat": 49.98118, "lon": 9.159433, "tags": {"amenity": "charging_station", "fee": "no", "network": "Wald Erfahren", "opening_hours": "24/7", "operator": "Aschaffenburg Landratsamt", "name": "Aschaffenburg Landratsamt - Wald Erfahren", "addr:country": "DE", "socket:schuko": "1", "socket:schuko:output": "2.3 kW", "charging_station:output": "2.3 kW", "capacity": "5", "_source": "worldwide"}}, {"type": "node", "id": 9897426732, "lat": 49.980894, "lon": 9.158868, "tags": {"amenity": "charging_station", "operator": "Stadtwerke Aschaffenburg", "name": "Ladestation Stadtwerke Aschaffenburg", "addr:country": "DE", "capacity": "2", "_source": "worldwide"}}, {"type": "node", "id": 2848509054, "lat": 49.976401, "lon": 9.143327, "tags": {"amenity": "charging_station", "opening_hours": "Mo-Fr 10:00-18:00; Sa,Su,PH 10:00-16:00", "operator": "AVG", "name": "Ladestation AVG", "addr:country": "DE", "socket:schuko": "2", "socket:schuko:output": "2.3 kW", "charging_station:output": "2.3 kW", "capacity": "2", "_source": "worldwide"}}, {"type": "node", "id": 2949112463, "lat": 49.973636, "lon": 9.145113, "tags": {"amenity": "charging_station", "operator": "AVG", "name": "Ladestation AVG", "addr:country": "DE", "capacity": "2", "_source": "worldwide"}}, {"type": "node", "id": 8531756399, "lat": 49.974553, "lon": 9.14317, "tags": {"amenity": "charging_station", "access": "yes", "fee": "no", "network": "Wald erfahren", "opening_hours": "24/7", "operator": "Wald erFahren", "name": "Wald erFahren - Wald erfahren", "addr:country": "DE", "socket:schuko": "1", "socket:schuko:output": "2.3 kW", "charging_station:output": "2.3 kW", "capacity": "5", "_source": "worldwide"}}, {"type": "node", "id": 13026791474, "lat": 49.97421, "lon": 9.147386, "tags": {"amenity": "charging_station", "access": "yes", "fee": "no", "network": "Wald erFahren", "opening_hours": "24/7", "operator": "Wald erFahren", "name": "Ladestation Wald erFahren", "addr:country": "DE", "capacity": "4", "_source": "worldwide"}}, {"type": "node", "id": 2953806370, "lat": 49.087517, "lon": 9.882353, "tags": {"amenity": "charging_station", "fee": "yes", "opening_hours": "24/7", "operator": "Gemeinde Vellberg", "name": "Ladestation Gemeinde Vellberg", "addr:street": "Im Städtle", "addr:postcode": "74541", "addr:city": "Vellberg", "socket:cee_blue": "2", "socket:cee_blue:output": "3.7 kW", "socket:schuko": "2", "socket:schuko:output": "2.3 kW", "charging_station:output": "3.7 kW", "_source": "worldwide"}}, {"type": "node", "id": 7698025889, "lat": 49.08715, "lon": 9.880506, "tags": {"amenity": "charging_station", "operator": "EnBW Ostwürttemberg DonauRies", "name": "EnBW Ostwürttemberg DonauRies - EnBW Ostwürttemberg DonauRies AG", "addr:country": "DE", "socket:type2": "2", "socket:type2:output": "22 kW", "charging_station:output": "22 kW", "capacity": "2", "_source": "worldwide"}}, {"type": "node", "id": 2953807122, "lat": 49.253014, "lon": 9.847065, "tags": {"amenity": "charging_station", "operator": "Gemeinde Langenburg", "name": "Elektrotankstelle", "addr:street": "Hauptstraße 17", "addr:postcode": "74595", "addr:city": "Langenburg", "_source": "worldwide"}}, {"type": "node", "id": 7700194536, "lat": 49.253091, "lon": 9.845761, "tags": {"amenity": "charging_station", "operator": "EnBW", "name": "EnBW - EnBW Energie Baden-Württemberg AG", "addr:country": "DE", "socket:type2": "2", "socket:type2:output": "22 kW", "socket:schuko": "2", "socket:schuko:output": "2.3 kW", "charging_station:output": "22 kW", "capacity": "2", "_source": "worldwide"}}, {"type": "node", "id": 7886916803, "lat": 49.253143, "lon": 9.844953, "tags": {"amenity": "charging_station", "access": "yes", "fee": "no", "opening_hours": "24/7", "operator": "EnBW", "name": "EnBW - EnBW Energie Baden-Württemberg AG", "addr:country": "DE", "capacity": "4", "_source": "worldwide"}}, {"type": "node", "id": 2953807864, "lat": 49.106342, "lon": 9.772582, "tags": {"amenity": "charging_station", "operator": "Frank H.", "name": "Elektrotankstelle", "addr:street": "Grauwiesenweg 7", "addr:postcode": "74523", "addr:city": "Schwäbisch Hall", "capacity": "1", "_source": "worldwide"}}, {"type": "node", "id": 2953810772, "lat": 49.170193, "lon": 9.91837, "tags": {"amenity": "charging_station", "operator": "Gemeinde Ilshofen", "name": "Elektrotankstelle", "addr:street": "Haller Straße 1", "addr:postcode": "74532", "addr:city": "Ilshofen", "capacity": "1", "_source": "worldwide"}}, {"type": "node", "id": 2953810848, "lat": 49.168841, "lon": 9.930387, "tags": {"amenity": "charging_station", "operator": "Marcus Maier", "name": "Elektrotankstelle", "addr:street": "Eckartshäuser Straße 24", "addr:postcode": "74532", "addr:city": "Ilshofen", "_source": "worldwide"}}, {"type": "node", "id": 2953813265, "lat": 49.170121, "lon": 9.860097, "tags": {"amenity": "charging_station", "operator": "Bäuerliche Erzeugergemeinschaft Schwäbisch Hall", "name": "Ladestation Bäuerliche Erzeugergemeinschaft Schwäbisch Hall", "addr:street": "Birkichstraße 10", "addr:postcode": "74549", "addr:city": "Wolpertshausen", "capacity": "4", "_source": "worldwide"}}, {"type": "node", "id": 1359149946, "lat": 49.170673, "lon": 9.86044, "tags": {"amenity": "charging_station", "access": "yes", "fee": "yes", "brand": "Fastned", "opening_hours": "24/7", "operator": "Fastned", "name": "Fastned Ladepark", "addr:country": "DE", "socket:type2_combo": "8", "socket:type2_combo:output": "300.0 kW", "socket:chademo": "2", "socket:chademo:output": "50.0 kW", "charging_station:output": "300.0 kW", "capacity": "8", "_source": "worldwide"}}, {"type": "node", "id": 2964267587, "lat": 49.141043, "lon": 9.205837, "tags": {"amenity": "charging_station", "operator": "ZEAG Energie", "name": "Strom Tanken", "addr:country": "DE", "socket:cee_blue": "2", "socket:cee_blue:output": "3.7 kW", "charging_station:output": "3.7 kW", "capacity": "2", "_source": "worldwide"}}, {"type": "node", "id": 6779992550, "lat": 49.137873, "lon": 9.203543, "tags": {"amenity": "charging_station", "opening_hours": "24/7", "operator": "ZEAG", "name": "Ladestation ZEAG", "addr:country": "DE", "socket:type2": "6", "socket:type2:output": "22 kW", "charging_station:output": "22 kW", "capacity": "6", "_source": "worldwide"}}, {"type": "node", "id": 3124551936, "lat": 49.794572, "lon": 9.929183, "tags": {"amenity": "charging_station", "fee": "yes", "opening_hours": "24/7", "operator": "Belectric DRIVE", "name": "Marktgarage", "addr:country": "DE", "socket:type2": "2", "socket:type2:output": "22 kW", "charging_station:output": "22 kW", "capacity": "2", "_source": "worldwide"}}, {"type": "node", "id": 11102477817, "lat": 49.791269, "lon": 9.930053, "tags": {"amenity": "charging_station", "brand": "wvv", "opening_hours": "24/7", "operator": "WVV", "name": "WVV - wvv", "addr:country": "DE", "socket:type2": "2", "socket:type2:output": "22 kW", "charging_station:output": "22 kW", "capacity": "2", "_source": "worldwide"}}, {"type": "node", "id": 3390859602, "lat": 49.203711, "lon": 9.983538, "tags": {"amenity": "charging_station", "operator": "HEV", "name": "Ladestation HEV", "addr:country": "DE", "_source": "worldwide"}}, {"type": "node", "id": 8566951100, "lat": 49.144054, "lon": 9.120749, "tags": {"amenity": "charging_station", "access": "yes", "fee": "yes", "operator": "ZEAG", "name": "Ladestation ZEAG", "addr:country": "DE", "capacity": "2", "_source": "worldwide"}}, {"type": "node", "id": 8685032118, "lat": 49.143051, "lon": 9.124256, "tags": {"amenity": "charging_station", "access": "yes", "fee": "no", "brand": "Spelsberg", "name": "Spelsberg BCS E-Bike Ladestation", "addr:country": "DE", "socket:schuko": "2", "socket:schuko:output": "2.3 kW", "charging_station:output": "2.3 kW", "capacity": "4", "_source": "worldwide"}}, {"type": "node", "id": 9757761378, "lat": 49.144979, "lon": 9.121173, "tags": {"amenity": "charging_station", "access": "yes", "fee": "yes", "operator": "ZEAG", "name": "Ladestation ZEAG", "addr:country": "DE", "capacity": "22", "_source": "worldwide"}}, {"type": "node", "id": 12462878341, "lat": 49.146529, "lon": 9.120771, "tags": {"amenity": "charging_station", "access": "yes", "fee": "yes", "brand": "EnBW", "network": "EnBW", "operator": "EnBW", "name": "EnBW - EnBW", "addr:country": "DE", "_source": "worldwide"}}, {"type": "node", "id": 12462878342, "lat": 49.146892, "lon": 9.119649, "tags": {"amenity": "charging_station", "access": "yes", "fee": "yes", "operator": "Lidl", "name": "Ladestation Lidl", "addr:country": "DE", "_source": "worldwide"}}, {"type": "node", "id": 3547123993, "lat": 49.340518, "lon": 9.11904, "tags": {"amenity": "charging_station", "name": "Käsmann", "addr:country": "DE", "_source": "worldwide"}}, {"type": "node", "id": 10575687153, "lat": 49.340745, "lon": 9.125344, "tags": {"amenity": "charging_station", "fee": "yes", "operator": "Kaufland", "name": "Ladestation Kaufland", "addr:country": "DE", "socket:type2": "1", "socket:type2:output": "22.0 kW", "socket:type2_combo": "1", "socket:type2_combo:output": "50.0 kW", "socket:chademo": "1", "socket:chademo:output": "50.0 kW", "charging_station:output": "50.0 kW", "capacity": "2", "authentication:none": "", "_source": "worldwide"}}, {"type": "node", "id": 10575687160, "lat": 49.343156, "lon": 9.12292, "tags": {"amenity": "charging_station", "fee": "yes", "opening_hours": "24/7", "operator": "Stadtwerke Mosbach", "name": "Ladestation Stadtwerke Mosbach", "addr:country": "DE", "socket:type2": "2", "socket:type2:output": "22.0 kW", "charging_station:output": "22.0 kW", "capacity": "2", "authentication:none": "", "_source": "worldwide"}}, {"type": "node", "id": 3715087783, "lat": 49.229538, "lon": 9.167538, "tags": {"amenity": "charging_station", "operator": "RWE", "name": "Ladestation RWE", "addr:country": "DE", "socket:type2": "2", "socket:type2:output": "22 kW", "charging_station:output": "22 kW", "capacity": "2", "_source": "worldwide"}}, {"type": "node", "id": 3840425982, "lat": 49.189096, "lon": 9.220274, "tags": {"amenity": "charging_station", "opening_hours": "24/7", "operator": "EnBW", "name": "EnBW - EnBW Energie Baden-Württemberg AG", "addr:country": "DE", "socket:type2": "2", "socket:type2:output": "22 kW", "socket:schuko": "2", "socket:schuko:output": "2.3 kW", "charging_station:output": "22 kW", "capacity": "2", "_source": "worldwide"}}, {"type": "node", "id": 11807273457, "lat": 49.191195, "lon": 9.225146, "tags": {"amenity": "charging_station", "addr:country": "DE", "capacity": "2", "_source": "worldwide"}}, {"type": "node", "id": 3868300148, "lat": 49.842313, "lon": 9.599451, "tags": {"amenity": "charging_station", "access": "yes", "fee": "no", "operator": "Stadt Marktheidenfeld", "name": "E-Bike-Ladestation", "addr:country": "DE", "capacity": "2", "_source": "worldwide"}}, {"type": "node", "id": 3868300149, "lat": 49.844928, "lon": 9.600504, "tags": {"amenity": "charging_station", "operator": "Stadt Marktheidenfeld", "name": "E-Bike-Ladestation", "addr:country": "DE", "_source": "worldwide"}}, {"type": "node", "id": 3868309131, "lat": 49.840249, "lon": 9.607276, "tags": {"amenity": "charging_station", "operator": "Autohaus Hettinger", "name": "Ladestation Autohaus Hettinger", "addr:country": "DE", "_source": "worldwide"}}, {"type": "node", "id": 4062177145, "lat": 49.844567, "lon": 9.602353, "tags": {"amenity": "charging_station", "name": "Ladestation im Parkhaus", "addr:street": "Luitpoldstraße 17", "addr:postcode": "97828", "addr:city": "Marktheidenfeld", "socket:type2": "2", "socket:type2:output": "22 kW", "charging_station:output": "22 kW", "_source": "worldwide"}}, {"type": "node", "id": 4087953122, "lat": 49.19783, "lon": 9.506569, "tags": {"amenity": "charging_station", "access": "yes", "fee": "yes", "operator": "EnBW", "name": "EnBW - EnBW Energie Baden-Württemberg AG", "addr:country": "DE", "socket:type2": "2", "socket:type2:output": "22.0 kW", "charging_station:output": "22.0 kW", "capacity": "2", "_source": "worldwide"}}, {"type": "node", "id": 4171737440, "lat": 49.797538, "lon": 9.91861, "tags": {"amenity": "charging_station", "fee": "no", "opening_hours": "Mo-Fr 06:30-18:30, Sa,Su,PH off", "operator": "Lama", "name": "Ladestation Lama", "addr:street": "Neunerplatz 2", "addr:postcode": "97082", "addr:city": "Würzburg", "addr:country": "DE", "socket:type2": "1", "socket:type2:output": "11.0 kW", "socket:schuko": "1", "socket:schuko:output": "2.3 kW", "charging_station:output": "11.0 kW", "capacity": "1", "_source": "worldwide"}}, {"type": "node", "id": 1467607306, "lat": 49.797157, "lon": 9.914786, "tags": {"amenity": "charging_station", "access": "customers", "fee": "yes", "brand": "ChargePoint", "network": "EnBW", "operator": "EnBW", "name": "EnBW - ChargePoint", "addr:country": "DE", "socket:type2": "6", "socket:type2:output": "21.0 kW", "socket:type2_combo": "4", "socket:type2_combo:output": "150.0 kW", "charging_station:output": "150.0 kW", "capacity": "10", "authentication:none": "", "_source": "worldwide"}}, {"type": "node", "id": 4189433228, "lat": 49.237317, "lon": 9.08787, "tags": {"amenity": "charging_station", "operator": "Autohaus Jung", "name": "Ladestation Autohaus Jung", "addr:country": "DE", "socket:type2": "1", "socket:type2:output": "22 kW", "socket:type2_combo": "1", "socket:type2_combo:output": "50 kW", "charging_station:output": "50 kW", "capacity": "2", "_source": "worldwide"}}, {"type": "node", "id": 8689832755, "lat": 49.237502, "lon": 9.089691, "tags": {"amenity": "charging_station", "addr:country": "DE", "_source": "worldwide"}}, {"type": "node", "id": 8689832806, "lat": 49.237552, "lon": 9.086619, "tags": {"amenity": "charging_station", "operator": "Autohaus Heermann-Rhein", "name": "Ladestation Autohaus Heermann-Rhein", "addr:country": "DE", "socket:type2": "2", "socket:type2:output": "22 kW", "charging_station:output": "22 kW", "capacity": "2", "_source": "worldwide"}}, {"type": "node", "id": 9864080228, "lat": 49.236215, "lon": 9.096057, "tags": {"amenity": "charging_station", "operator": "Kaufland", "name": "Ladestation Kaufland", "addr:country": "DE", "_source": "worldwide"}}, {"type": "node", "id": 9340296896, "lat": 49.999448, "lon": 9.192027, "tags": {"amenity": "charging_station", "fee": "no", "brand": "EWG", "operator": "EWG", "name": "EWG - EWG", "addr:country": "DE", "socket:schuko": "3", "socket:schuko:output": "2.3 kW", "charging_station:output": "2.3 kW", "_source": "worldwide"}}, {"type": "node", "id": 4250307221, "lat": 49.28025, "lon": 9.692443, "tags": {"amenity": "charging_station", "operator": "EnBW", "name": "EnBW - EnBW Energie Baden-Württemberg AG", "addr:country": "DE", "capacity": "2", "_source": "worldwide"}}, {"type": "node", "id": 1363301164, "lat": 49.279745, "lon": 9.693357, "tags": {"amenity": "charging_station", "brand": "Mer", "operator": "Mer", "name": "Mer", "addr:country": "DE", "capacity": "2", "_source": "worldwide"}}, {"type": "node", "id": 7619181730, "lat": 49.790746, "lon": 9.972269, "tags": {"amenity": "charging_station", "fee": "no", "opening_hours": "24/7", "name": "Pedelec Ladestation Hubland", "addr:country": "DE", "socket:schuko": "6", "socket:schuko:output": "2.3 kW", "charging_station:output": "2.3 kW", "capacity": "3", "_source": "worldwide"}}, {"type": "node", "id": 12925816696, "lat": 49.790371, "lon": 9.967815, "tags": {"amenity": "charging_station", "access": "yes", "fee": "yes", "brand": "WVV", "network": "Eneco/ChargeIT/Lichtblick", "operator": "WVV", "name": "DC Ladestation WVV Hubland Center", "addr:country": "DE", "socket:type2_combo": "2", "socket:type2_combo:output": "50.0 kW", "charging_station:output": "50.0 kW", "capacity": "2", "_source": "worldwide"}}, {"type": "node", "id": 4378882881, "lat": 49.705403, "lon": 9.24908, "tags": {"amenity": "charging_station", "fee": "yes", "opening_hours": "24/7", "operator": "EMB Energieversorgung", "name": "Ladestation EMB Energieversorgung", "addr:street": "Berliner Platz 1", "addr:postcode": "63897", "addr:city": "Miltenberg", "socket:type2": "2", "socket:type2:output": "22 kW", "charging_station:output": "22 kW", "capacity": "2", "_source": "worldwide"}}, {"type": "node", "id": 9350374879, "lat": 49.707542, "lon": 9.249064, "tags": {"amenity": "charging_station", "fee": "no", "network": "Wald Erfahren", "opening_hours": "24/7", "operator": "Wald Erfahren", "name": "Ladestation Wald Erfahren", "addr:country": "DE", "socket:type2": "1", "socket:type2:output": "22.0 kW", "socket:schuko": "1", "socket:schuko:output": "2.3 kW", "charging_station:output": "22.0 kW", "_source": "worldwide"}}, {"type": "node", "id": 9578160550, "lat": 49.70617, "lon": 9.248373, "tags": {"amenity": "charging_station", "fee": "no", "opening_hours": "24/7", "operator": "Deutsche Bahn", "name": "Ladestation Deutsche Bahn", "addr:country": "DE", "capacity": "6", "_source": "worldwide"}}, {"type": "node", "id": 4378882882, "lat": 49.716262, "lon": 9.264877, "tags": {"amenity": "charging_station", "fee": "yes", "opening_hours": "24/7", "operator": "EMB Energieversorgung", "name": "Ladestation EMB Energieversorgung", "addr:street": "Josef-Ullrich-Straße 2", "addr:postcode": "63927", "addr:city": "Bürgstadt", "socket:type2": "2", "socket:type2:output": "22 kW", "charging_station:output": "22 kW", "capacity": "2", "_source": "worldwide"}}, {"type": "node", "id": 4911448103, "lat": 49.715293, "lon": 9.266897, "tags": {"amenity": "charging_station", "fee": "no", "operator": "EMB Energieversorgung", "name": "Ladestation EMB Energieversorgung", "addr:country": "DE", "charging_station:output": "2.3 kW", "capacity": "4", "_source": "worldwide"}}, {"type": "node", "id": 4378882883, "lat": 49.704283, "lon": 9.258324, "tags": {"amenity": "charging_station", "fee": "yes", "opening_hours": "24/7", "operator": "EMB Energieversorgung", "name": "Ladestation EMB Energieversorgung", "addr:street": "Mainstraße 5", "addr:postcode": "63897", "addr:city": "Miltenberg", "socket:type2": "2", "socket:type2:output": "22 kW", "charging_station:output": "22 kW", "capacity": "2", "_source": "worldwide"}}, {"type": "node", "id": 11408475803, "lat": 49.704757, "lon": 9.252404, "tags": {"amenity": "charging_station", "access": "yes", "fee": "yes", "operator": "EMB", "name": "Ladestation EMB", "addr:country": "DE", "capacity": "4", "_source": "worldwide"}}, {"type": "node", "id": 4378882884, "lat": 49.700927, "lon": 9.257547, "tags": {"amenity": "charging_station", "fee": "yes", "opening_hours": "24/7", "operator": "EMB Energieversorgung", "name": "Ladestation EMB Energieversorgung", "addr:street": "Engelplatz 69", "addr:postcode": "63897", "addr:city": "Miltenberg", "socket:type2": "2", "socket:type2:output": "22 kW", "charging_station:output": "22 kW", "capacity": "2", "_source": "worldwide"}}, {"type": "node", "id": 4440568446, "lat": 49.755399, "lon": 9.966913, "tags": {"amenity": "charging_station", "fee": "no", "name": "Ladepunkt Hämmelmann WÜ-Heidingsfeld", "addr:street": "Unterer Kirchbergweg 106", "addr:postcode": "97084", "addr:city": "Würzburg", "socket:type2": "1", "socket:type2:output": "43.0 kW", "charging_station:output": "43.0 kW", "capacity": "1", "_source": "worldwide"}}, {"type": "node", "id": 12833171578, "lat": 49.755505, "lon": 9.975188, "tags": {"amenity": "charging_station", "access": "yes", "fee": "yes", "brand": "KEBA - KeContact P30", "opening_hours": "24/7", "operator": "SolarLoader+", "name": "SolarLoader+ Ladestation", "addr:country": "DE", "socket:type2": "1", "socket:type2:output": "22.0 kW", "charging_station:output": "22.0 kW", "capacity": "5", "_source": "worldwide"}}, {"type": "node", "id": 4448235432, "lat": 49.488927, "lon": 9.899458, "tags": {"amenity": "charging_station", "addr:country": "DE", "_source": "worldwide"}}, {"type": "node", "id": 4461183389, "lat": 49.918396, "lon": 9.078333, "tags": {"amenity": "charging_station", "operator": "Bayernwerk", "name": "Ladestation Bayernwerk", "addr:country": "DE", "capacity": "2", "_source": "worldwide"}}, {"type": "node", "id": 8168761916, "lat": 49.917809, "lon": 9.07976, "tags": {"amenity": "charging_station", "operator": "Bayernwerk", "name": "Ladestation Bayernwerk", "addr:country": "DE", "capacity": "2", "_source": "worldwide"}}, {"type": "node", "id": 9195923498, "lat": 49.917795, "lon": 9.078066, "tags": {"amenity": "charging_station", "fee": "no", "opening_hours": "24/7", "operator": "Markt Großostheim", "name": "Ladestation Markt Großostheim", "addr:country": "DE", "socket:schuko": "3", "socket:schuko:output": "2.3 kW", "charging_station:output": "2.3 kW", "_source": "worldwide"}}, {"type": "node", "id": 9658783926, "lat": 49.919487, "lon": 9.081995, "tags": {"amenity": "charging_station", "fee": "yes", "operator": "Blumen Berchtenreiter", "name": "Ladestation Blumen Berchtenreiter", "addr:country": "DE", "capacity": "2", "_source": "worldwide"}}, {"type": "node", "id": 4487014958, "lat": 49.984066, "lon": 9.15148, "tags": {"amenity": "charging_station", "access": "permissive", "addr:country": "DE", "socket:type2": "2", "socket:type2:output": "22 kW", "charging_station:output": "22 kW", "_source": "worldwide"}}, {"type": "node", "id": 8599255360, "lat": 49.986105, "lon": 9.150652, "tags": {"amenity": "charging_station", "access": "yes", "fee": "yes", "opening_hours": "24/7", "operator": "AVG", "name": "Ladestation AVG", "addr:country": "DE", "socket:type2": "2", "socket:type2:output": "22.0 kW", "charging_station:output": "22.0 kW", "capacity": "2", "authentication:none": "", "_source": "worldwide"}}, {"type": "node", "id": 4503013431, "lat": 49.793874, "lon": 9.996826, "tags": {"amenity": "charging_station", "fee": "no", "opening_hours": "24/7", "operator": "BMWi ChargeNow", "name": "Ladestation BMWi ChargeNow", "addr:country": "DE", "socket:type2": "2", "socket:type2:output": "22 kW", "charging_station:output": "22 kW", "capacity": "2", "_source": "worldwide"}}, {"type": "node", "id": 4503037213, "lat": 49.800222, "lon": 9.997892, "tags": {"amenity": "charging_station", "opening_hours": "Mo-Fr 08:00-18:00; Sa 10:00-14:00", "operator": "Autoforum Häfner", "name": "Ladestation Autoforum Häfner", "addr:street": "Sandäcker 3", "addr:postcode": "97076", "addr:city": "Würzburg", "socket:chademo": "1", "socket:chademo:output": "50 kW", "charging_station:output": "50 kW", "capacity": "1", "_source": "worldwide"}}, {"type": "node", "id": 4664364326, "lat": 49.75756, "lon": 9.98149, "tags": {"amenity": "charging_station", "addr:country": "DE", "_source": "worldwide"}}, {"type": "node", "id": 9779101608, "lat": 49.759498, "lon": 9.979908, "tags": {"amenity": "charging_station", "access": "yes", "fee": "no", "opening_hours": "24/7", "operator": "Gemeinde Randersacker", "name": "Ladestation Gemeinde Randersacker", "addr:country": "DE", "socket:schuko": "4", "socket:schuko:output": "2.3 kW", "charging_station:output": "2.3 kW", "capacity": "4", "_source": "worldwide"}}, {"type": "node", "id": 11015484240, "lat": 49.758595, "lon": 9.980642, "tags": {"amenity": "charging_station", "fee": "no", "addr:country": "DE", "socket:type2": "2", "socket:type2:output": "22.0 kW", "charging_station:output": "22.0 kW", "_source": "worldwide"}}, {"type": "node", "id": 4690839050, "lat": 49.786747, "lon": 9.967701, "tags": {"amenity": "charging_station", "access": "yes", "fee": "yes", "opening_hours": "24/7", "operator": "ChargeIT", "name": "Ladestation ChargeIT", "addr:country": "DE", "socket:type2": "2", "socket:type2:output": "22 kW", "charging_station:output": "22 kW", "capacity": "2", "_source": "worldwide"}}, {"type": "node", "id": 4737061909, "lat": 49.493377, "lon": 9.774356, "tags": {"amenity": "charging_station", "opening_hours": "24/7", "operator": "Ladeverbund Franken+", "name": "Ladestation Ladeverbund Franken+", "addr:country": "DE", "socket:type2": "1", "socket:type2:output": "22 kW", "charging_station:output": "22 kW", "capacity": "1", "_source": "worldwide"}}, {"type": "node", "id": 6793672865, "lat": 49.489602, "lon": 9.772915, "tags": {"amenity": "charging_station", "fee": "yes", "operator": "Stadtwerk Tauberfranken (Ladeverbund+)", "name": "Ladestation Stadtwerk Tauberfranken (Ladeverbund+)", "addr:country": "DE", "socket:chademo": "2", "socket:chademo:output": "50 kW", "charging_station:output": "50 kW", "capacity": "2", "_source": "worldwide"}}, {"type": "node", "id": 6823003988, "lat": 49.490041, "lon": 9.772002, "tags": {"amenity": "charging_station", "access": "customers", "operator": "Hotel Deutschmeister", "name": "Ladestation Hotel Deutschmeister", "addr:country": "DE", "socket:type2": "1", "socket:type2:output": "11.0 kW", "charging_station:output": "11.0 kW", "capacity": "1", "_source": "worldwide"}}, {"type": "node", "id": 7578739201, "lat": 49.493085, "lon": 9.769921, "tags": {"amenity": "charging_station", "operator": "Ladeverbund+", "name": "Ladestation Ladeverbund+", "addr:country": "DE", "capacity": "2", "_source": "worldwide"}}, {"type": "node", "id": 7593180977, "lat": 49.492907, "lon": 9.776475, "tags": {"amenity": "charging_station", "fee": "yes", "operator": "PBW", "name": "Ladestation PBW", "addr:country": "DE", "socket:type2": "2", "socket:type2:output": "22.0 kW", "charging_station:output": "22.0 kW", "capacity": "2", "authentication:none": "", "_source": "worldwide"}}, {"type": "node", "id": 11061896422, "lat": 49.491163, "lon": 9.775842, "tags": {"amenity": "charging_station", "addr:country": "DE", "socket:schuko": "12", "socket:schuko:output": "2.3 kW", "charging_station:output": "2.3 kW", "capacity": "12", "_source": "worldwide"}}, {"type": "node", "id": 4756299731, "lat": 49.720158, "lon": 9.967367, "tags": {"amenity": "charging_station", "access": "private", "fee": "no", "addr:country": "DE", "socket:type2": "1", "socket:type2:output": "22 kW", "socket:schuko": "1", "socket:schuko:output": "2.3 kW", "charging_station:output": "22 kW", "authentication:none": "yes", "_source": "worldwide"}}, {"type": "node", "id": 4807304972, "lat": 49.898278, "lon": 9.394123, "tags": {"amenity": "charging_station", "fee": "no", "opening_hours": "24/7", "operator": "Tank & Rast", "name": "Spessart Nord", "addr:country": "DE", "socket:type2": "1", "socket:type2:output": "43.0 kW", "socket:type2_combo": "1", "socket:type2_combo:output": "50.0 kW", "socket:chademo": "1", "socket:chademo:output": "50.0 kW", "charging_station:output": "50.0 kW", "capacity": "2", "authentication:none": "yes", "_source": "worldwide"}}, {"type": "node", "id": 4825943995, "lat": 49.207074, "lon": 9.639041, "tags": {"amenity": "charging_station", "fee": "yes", "brand": "EnBW", "opening_hours": "24/7", "operator": "EnBW", "name": "EnBW - EnBW", "addr:country": "DE", "socket:type2": "1", "socket:type2:output": "43.0 kW", "socket:type2_combo": "1", "socket:type2_combo:output": "50.0 kW", "socket:chademo": "1", "socket:chademo:output": "50.0 kW", "charging_station:output": "50.0 kW", "capacity": "2", "authentication:none": "", "_source": "worldwide"}}, {"type": "node", "id": 6795828759, "lat": 49.205289, "lon": 9.640075, "tags": {"amenity": "charging_station", "fee": "yes", "opening_hours": "24/7", "operator": "EnBW", "name": "EnBW - EnBW Energie Baden-Württemberg AG", "addr:country": "DE", "socket:type2": "1", "socket:type2:output": "43.0 kW", "socket:type2_combo": "1", "socket:type2_combo:output": "50.0 kW", "socket:chademo": "1", "socket:chademo:output": "50.0 kW", "charging_station:output": "50.0 kW", "capacity": "2", "authentication:none": "", "_source": "worldwide"}}, {"type": "node", "id": 4830412177, "lat": 49.496678, "lon": 9.776857, "tags": {"amenity": "charging_station", "operator": "Stadtwerke Tauberfranken (Ladeverbund+)", "name": "E-Ladestation", "addr:country": "DE", "capacity": "2", "_source": "worldwide"}}, {"type": "node", "id": 4844180009, "lat": 49.699792, "lon": 9.249634, "tags": {"amenity": "charging_station", "operator": "EMB Energieversorgung", "name": "Ladestation EMB Energieversorgung", "addr:country": "DE", "charging_station:output": "2.3 kW", "capacity": "4", "_source": "worldwide"}}, {"type": "node", "id": 4848172205, "lat": 49.750859, "lon": 9.963102, "tags": {"amenity": "charging_station", "fee": "no", "opening_hours": "24/7", "operator": "Tank & Rast", "name": "Ladestation Tank & Rast", "addr:country": "DE", "socket:type2": "1", "socket:type2:output": "22 kW", "socket:type2_combo": "1", "socket:type2_combo:output": "50 kW", "socket:chademo": "1", "socket:chademo:output": "50 kW", "charging_station:output": "50 kW", "capacity": "2", "authentication:none": "yes", "_source": "worldwide"}}, {"type": "node", "id": 1151220957, "lat": 49.750837, "lon": 9.957995, "tags": {"amenity": "charging_station", "access": "yes", "operator": "ABL", "name": "Ladestation ABL", "addr:country": "DE", "capacity": "4", "_source": "worldwide"}}, {"type": "node", "id": 4848172206, "lat": 49.75583, "lon": 9.959881, "tags": {"amenity": "charging_station", "fee": "7,95", "brand": "E.ON Drive", "opening_hours": "24/7", "operator": "Tank & Rast", "name": "Tank & Rast - E.ON Drive", "addr:country": "DE", "socket:type2_combo": "2", "socket:type2_combo:output": "50 kW", "charging_station:output": "50 kW", "capacity": "2", "authentication:none": "yes", "_source": "worldwide"}}, {"type": "node", "id": 4911448102, "lat": 49.771642, "lon": 9.339728, "tags": {"amenity": "charging_station", "fee": "no", "brand": "bike-energy", "network": "Wald Erfahren", "operator": "Gemeinde Collenberg", "name": "Gemeinde Collenberg - bike-energy", "addr:country": "DE", "socket:schuko": "1", "socket:schuko:output": "0.4 kW", "charging_station:output": "0.4 kW", "capacity": "3", "_source": "worldwide"}}, {"type": "node", "id": 4919225016, "lat": 49.969744, "lon": 9.252372, "tags": {"amenity": "charging_station", "access": "yes", "fee": "yes", "brand": "Compleo", "opening_hours": "24/7", "operator": "Energieversorgung MainSpessart", "name": "Energieversorgung MainSpessart - Compleo", "addr:country": "DE", "socket:type2": "1", "socket:type2:output": "22 kW", "socket:schuko": "1", "socket:schuko:output": "2.3 kW", "charging_station:output": "22 kW", "capacity": "2", "_source": "worldwide"}}, {"type": "node", "id": 4946022696, "lat": 49.823533, "lon": 9.412152, "tags": {"amenity": "charging_station", "fee": "no", "network": "Wald erFahren", "operator": "Gemeinde Altenbuch", "name": "Gemeinde Altenbuch - Wald erFahren", "addr:country": "DE", "socket:schuko": "1", "socket:schuko:output": "2.3 kW", "charging_station:output": "2.3 kW", "capacity": "3", "_source": "worldwide"}}, {"type": "node", "id": 4947436550, "lat": 49.771419, "lon": 9.526296, "tags": {"amenity": "charging_station", "addr:country": "DE", "capacity": "1", "_source": "worldwide"}}, {"type": "node", "id": 5012406213, "lat": 49.785475, "lon": 9.948001, "tags": {"amenity": "charging_station", "access": "customers", "fee": "no", "operator": "Landratsamt Würzburg", "name": "Ladestation Landratsamt Würzburg", "addr:country": "DE", "socket:type2": "2", "socket:type2:output": "11.0 kW", "charging_station:output": "11.0 kW", "capacity": "2", "_source": "worldwide"}}, {"type": "node", "id": 5012437132, "lat": 49.839041, "lon": 9.143311, "tags": {"amenity": "charging_station", "fee": "yes", "opening_hours": "24/7", "operator": "EZV", "name": "EZV - EZV GmbH & Co. KG", "addr:street": "Wendelinusplatz 3", "addr:postcode": "63785", "addr:city": "Obernburg am Main", "addr:country": "DE", "socket:type2": "2", "socket:type2:output": "22.0 kW", "charging_station:output": "22.0 kW", "capacity": "2", "_source": "worldwide"}}, {"type": "node", "id": 12626104852, "lat": 49.837215, "lon": 9.144049, "tags": {"amenity": "charging_station", "brand": "Aral pulse", "name": "Ladestation Aral pulse", "addr:country": "DE", "capacity": "7", "_source": "worldwide"}}, {"type": "node", "id": 5059088510, "lat": 49.901644, "lon": 9.21934, "tags": {"amenity": "charging_station", "fee": "no", "network": "Wald erFahren", "operator": "Gemeinde Leidersbach", "name": "Gemeinde Leidersbach - Wald erFahren", "addr:country": "DE", "socket:schuko": "1", "socket:schuko:output": "2.3 kW", "charging_station:output": "2.3 kW", "capacity": "4", "authentication:none": "yes", "_source": "worldwide"}}, {"type": "node", "id": 5076838995, "lat": 49.302876, "lon": 9.634312, "tags": {"amenity": "charging_station", "addr:country": "DE", "_source": "worldwide"}}, {"type": "node", "id": 9363916237, "lat": 49.302158, "lon": 9.634209, "tags": {"amenity": "charging_station", "addr:country": "DE", "capacity": "16", "_source": "worldwide"}}, {"type": "node", "id": 5092993442, "lat": 49.741341, "lon": 9.006284, "tags": {"amenity": "charging_station", "opening_hours": "24/7", "operator": "Entega", "name": "Ladestation Entega", "addr:country": "DE", "socket:type2": "2", "socket:type2:output": "22.0 kW", "charging_station:output": "22.0 kW", "capacity": "2", "_source": "worldwide"}}, {"type": "node", "id": 5176588100, "lat": 49.566169, "lon": 9.708376, "tags": {"amenity": "charging_station", "fee": "yes", "network": "Ladeverbund Fraken+", "operator": "Stadtwerke Tauberfranken", "name": "Stadtwerke Tauberfranken - Ladeverbund Fraken+", "addr:country": "DE", "socket:type2": "2", "socket:type2:output": "22.0 kW", "charging_station:output": "22.0 kW", "capacity": "2", "_source": "worldwide"}}, {"type": "node", "id": 12836837856, "lat": 49.566949, "lon": 9.709366, "tags": {"amenity": "charging_station", "access": "yes", "fee": "yes", "operator": "Stadtwerk Tauberfranken", "name": "Ladestation Stadtwerk Tauberfranken", "addr:country": "DE", "socket:type2": "2", "socket:type2:output": "22.0 kW", "charging_station:output": "22.0 kW", "capacity": "2", "_source": "worldwide"}}, {"type": "node", "id": 1421773498, "lat": 49.566352, "lon": 9.709879, "tags": {"amenity": "charging_station", "opening_hours": "24/7", "addr:country": "DE", "capacity": "3", "_source": "worldwide"}}, {"type": "node", "id": 5177910172, "lat": 49.831828, "lon": 9.356151, "tags": {"amenity": "charging_station", "fee": "no", "network": "Wald erFahren", "operator": "Markt Eschau", "name": "Markt Eschau - Wald erFahren", "addr:country": "DE", "socket:schuko": "1", "socket:schuko:output": "2.3 kW", "charging_station:output": "2.3 kW", "capacity": "5", "_source": "worldwide"}}, {"type": "node", "id": 5202498456, "lat": 49.962216, "lon": 9.768832, "tags": {"amenity": "charging_station", "operator": "Energieversorgung Lohr-Karlstadt u. Umgebung", "name": "Energieversorgung Lohr-Karlstadt u. Umgebung - Energieversorgung Lohr-Karlstadt u. Umgebung GmbH & Co. KG", "addr:country": "DE", "capacity": "2", "_source": "worldwide"}}, {"type": "node", "id": 5226298129, "lat": 49.837581, "lon": 9.875121, "tags": {"amenity": "charging_station", "access": "yes", "fee": "yes", "opening_hours": "24/7", "operator": "die Energie", "name": "Ladestation die Energie", "addr:country": "DE", "socket:type2": "2", "socket:type2:output": "22 kW", "charging_station:output": "22 kW", "capacity": "2", "_source": "worldwide"}}, {"type": "node", "id": 5253729854, "lat": 49.322958, "lon": 9.415841, "tags": {"amenity": "charging_station", "operator": "EnBW", "name": "Ladestation EnBW", "addr:country": "DE", "capacity": "2", "_source": "worldwide"}}, {"type": "node", "id": 5308581024, "lat": 49.493551, "lon": 9.816594, "tags": {"amenity": "charging_station", "operator": "E-Bike", "name": "Ladestation E-Bike", "addr:country": "DE", "_source": "worldwide"}}, {"type": "node", "id": 5323129362, "lat": 49.044437, "lon": 9.261792, "tags": {"amenity": "charging_station", "fee": "yes", "operator": "EnBW", "name": "EnBW", "addr:country": "DE", "socket:type2": "1", "socket:type2:output": "43.0 kW", "socket:type2_combo": "3", "socket:type2_combo:output": "150.0 kW", "socket:chademo": "1", "socket:chademo:output": "50.0 kW", "charging_station:output": "150.0 kW", "capacity": "4", "_source": "worldwide"}}, {"type": "node", "id": 5323129365, "lat": 49.045178, "lon": 9.266053, "tags": {"amenity": "charging_station", "operator": "EnBW", "name": "EnBW", "addr:country": "DE", "socket:type2": "1", "socket:type2:output": "22 kW", "socket:type2_combo": "3", "socket:type2_combo:output": "50 kW", "socket:chademo": "1", "socket:chademo:output": "50 kW", "charging_station:output": "50 kW", "capacity": "2", "_source": "worldwide"}}, {"type": "node", "id": 5393201253, "lat": 49.571448, "lon": 9.702522, "tags": {"amenity": "charging_station", "fee": "yes", "network": "Ladeverbund Franken+", "opening_hours": "24/7", "operator": "Stadtwerk Tauberfranken", "name": "Stadtwerk Tauberfranken - Ladeverbund Franken+", "addr:country": "DE", "socket:type2": "2", "socket:type2:output": "22.0 kW", "charging_station:output": "22.0 kW", "capacity": "2", "_source": "worldwide"}}, {"type": "node", "id": 5413104096, "lat": 49.993634, "lon": 9.070134, "tags": {"amenity": "charging_station", "opening_hours": "Mo-Sa 07:00-20:00", "operator": "REWE", "name": "Ladestation REWE", "addr:country": "DE", "socket:type2": "1", "socket:type2:output": "22 kW", "charging_station:output": "22 kW", "capacity": "1", "authentication:none": "yes", "_source": "worldwide"}}, {"type": "node", "id": 1362592395, "lat": 49.994576, "lon": 9.070086, "tags": {"amenity": "charging_station", "fee": "yes", "brand": "Allego", "opening_hours": "24/7", "operator": "Allego", "name": "Allego - Allego", "addr:country": "DE", "charging_station:output": "50 kW", "capacity": "8", "_source": "worldwide"}}, {"type": "node", "id": 1362592396, "lat": 49.994008, "lon": 9.07073, "tags": {"amenity": "charging_station", "access": "yes", "fee": "yes", "brand": "Tesla Supercharger", "opening_hours": "24/7", "operator": "Tesla", "name": "Kleinostheim Supercharger", "addr:country": "DE", "socket:type2_combo": "16", "socket:type2_combo:output": "250.0 kW", "charging_station:output": "250.0 kW", "capacity": "16", "_source": "worldwide"}}, {"type": "node", "id": 1365532393, "lat": 49.995, "lon": 9.068629, "tags": {"amenity": "charging_station", "fee": "yes", "brand": "Aral pulse", "operator": "Aral", "name": "Aral - Aral pulse", "addr:country": "DE", "socket:type2_combo": "4", "socket:type2_combo:output": "300.0 kW", "socket:chademo": "2", "socket:chademo:output": "100.0 kW", "charging_station:output": "300.0 kW", "capacity": "4", "_source": "worldwide"}}, {"type": "node", "id": 5424939204, "lat": 49.846129, "lon": 9.160719, "tags": {"amenity": "charging_station", "fee": "no", "name": "e-bike Ladestation", "addr:country": "DE", "socket:schuko": "3", "socket:schuko:output": "2.3 kW", "charging_station:output": "2.3 kW", "capacity": "3", "_source": "worldwide"}}, {"type": "node", "id": 5462116704, "lat": 49.831611, "lon": 9.863263, "tags": {"amenity": "charging_station", "access": "yes", "fee": "yes", "network": "LastMileSolutions", "opening_hours": "24/7", "operator": "Gemeinde Margetshöchheim / Sonneninitiative e.V.", "name": "Gemeinde Margetshöchheim / Sonneninitiative e.V. - LastMileSolutions", "addr:country": "DE", "socket:type2": "2", "socket:type2:output": "22.0 kW", "charging_station:output": "22.0 kW", "capacity": "2", "_source": "worldwide"}}, {"type": "node", "id": 5470401052, "lat": 49.308216, "lon": 9.467095, "tags": {"amenity": "charging_station", "fee": "no", "operator": "Gemeinde Jagsthausen", "name": "Ladestation Gemeinde Jagsthausen", "addr:country": "DE", "socket:schuko": "4", "socket:schuko:output": "2.3 kW", "charging_station:output": "2.3 kW", "capacity": "4", "_source": "worldwide"}}, {"type": "node", "id": 5484624616, "lat": 49.323222, "lon": 9.360753, "tags": {"amenity": "charging_station", "fee": "no", "operator": "www.lad-e.de", "name": "Ladestation www.lad-e.de", "addr:country": "DE", "capacity": "6", "_source": "worldwide"}}, {"type": "node", "id": 5516092194, "lat": 49.896261, "lon": 9.30426, "tags": {"amenity": "charging_station", "fee": "no", "network": "Wald erFahren", "operator": "Gemeinde Heimbuchenthal", "name": "Gemeinde Heimbuchenthal - Wald erFahren", "addr:country": "DE", "socket:schuko": "1", "socket:schuko:output": "2.3 kW", "charging_station:output": "2.3 kW", "capacity": "3", "_source": "worldwide"}}, {"type": "node", "id": 5528412002, "lat": 49.652558, "lon": 9.947147, "tags": {"amenity": "charging_station", "fee": "no", "brand": "bike-energy", "opening_hours": "24/7", "operator": "Markt Giebelstadt", "name": "Markt Giebelstadt - bike-energy", "addr:country": "DE", "socket:schuko": "1", "socket:schuko:output": "2.3 kW", "charging_station:output": "2.3 kW", "capacity": "4", "_source": "worldwide"}}, {"type": "node", "id": 5530874135, "lat": 49.778144, "lon": 9.378179, "tags": {"amenity": "charging_station", "fee": "no", "brand": "bike-energy", "network": "Wald Erfahren", "operator": "Gemeinde Dorfprozelten", "name": "Gemeinde Dorfprozelten - bike-energy", "addr:country": "DE", "socket:schuko": "1", "socket:schuko:output": "2.3 kW", "charging_station:output": "2.3 kW", "capacity": "5", "_source": "worldwide"}}, {"type": "node", "id": 5530926355, "lat": 49.743734, "lon": 9.320608, "tags": {"amenity": "charging_station", "fee": "no", "brand": "bike-energy", "network": "Wald Erfahren", "operator": "Gemeinde Collenberg", "name": "Gemeinde Collenberg - bike-energy", "addr:country": "DE", "socket:schuko": "1", "socket:schuko:output": "2.3 kW", "charging_station:output": "2.3 kW", "capacity": "3", "_source": "worldwide"}}, {"type": "node", "id": 6896190545, "lat": 49.742745, "lon": 9.323249, "tags": {"amenity": "charging_station", "fee": "no", "opening_hours": "24/7", "operator": "Stadtwerke Freudenberg", "name": "Ladestation Stadtwerke Freudenberg", "addr:country": "DE", "socket:schuko": "3", "socket:schuko:output": "2.3 kW", "charging_station:output": "2.3 kW", "capacity": "3", "_source": "worldwide"}}, {"type": "node", "id": 5530935347, "lat": 49.852857, "lon": 9.278227, "tags": {"amenity": "charging_station", "fee": "no", "network": "Wald erFahren", "operator": "Markt Eschau", "name": "Markt Eschau - Wald erFahren", "addr:country": "DE", "socket:schuko": "1", "socket:schuko:output": "2.3 kW", "charging_station:output": "2.3 kW", "capacity": "4", "_source": "worldwide"}}, {"type": "node", "id": 5530988899, "lat": 49.792019, "lon": 9.266879, "tags": {"amenity": "charging_station", "fee": "no", "network": "Wald Erfahren", "operator": "Markt Mönchberg", "name": "Markt Mönchberg - Wald Erfahren", "addr:country": "DE", "socket:schuko": "1", "socket:schuko:output": "2.3 kW", "charging_station:output": "2.3 kW", "capacity": "3", "_source": "worldwide"}}, {"type": "node", "id": 8866529415, "lat": 49.791642, "lon": 9.271005, "tags": {"amenity": "charging_station", "fee": "no", "opening_hours": "24/7", "operator": "Raiffeisenbank Elsavatal", "name": "Ebike-Ladestation", "addr:country": "DE", "socket:schuko": "4", "socket:schuko:output": "2.3 kW", "charging_station:output": "2.3 kW", "capacity": "4", "_source": "worldwide"}}, {"type": "node", "id": 5530999353, "lat": 49.783269, "lon": 9.236421, "tags": {"amenity": "charging_station", "fee": "no", "network": "Wald erFahren", "operator": "Markt Mönchberg", "name": "Markt Mönchberg - Wald erFahren", "addr:country": "DE", "socket:schuko": "1", "socket:schuko:output": "2.3 kW", "charging_station:output": "2.3 kW", "capacity": "2", "_source": "worldwide"}}, {"type": "node", "id": 5531006805, "lat": 49.773807, "lon": 9.240868, "tags": {"amenity": "charging_station", "access": "yes", "network": "Wald erFahren", "operator": "Gemeinde Röllbach", "name": "Gemeinde Röllbach - Wald erFahren", "addr:country": "DE", "socket:schuko": "1", "socket:schuko:output": "2.3 kW", "charging_station:output": "2.3 kW", "capacity": "2", "_source": "worldwide"}}, {"type": "node", "id": 5531015737, "lat": 49.766678, "lon": 9.249571, "tags": {"amenity": "charging_station", "fee": "no", "network": "Wald erFahren", "operator": "Gemeinde Röllbach", "name": "Gemeinde Röllbach - Wald erFahren", "addr:country": "DE", "socket:schuko": "1", "socket:schuko:output": "2.3 kW", "charging_station:output": "2.3 kW", "capacity": "2", "_source": "worldwide"}}, {"type": "node", "id": 5531038272, "lat": 49.784011, "lon": 9.411291, "tags": {"amenity": "charging_station", "fee": "no", "brand": "bike-energy", "network": "Wald Erfahren", "operator": "bike-energy", "name": "bike-energy", "addr:country": "DE", "socket:schuko": "1", "socket:schuko:output": "2.3 kW", "charging_station:output": "2.3 kW", "capacity": "5", "_source": "worldwide"}}, {"type": "node", "id": 5531048523, "lat": 49.806201, "lon": 9.409595, "tags": {"amenity": "charging_station", "fee": "no", "network": "Wald erFahren", "operator": "Stadtprozelten", "name": "Stadtprozelten - Wald erFahren", "addr:country": "DE", "socket:schuko": "1", "socket:schuko:output": "2.3 kW", "charging_station:output": "2.3 kW", "capacity": "4", "_source": "worldwide"}}, {"type": "node", "id": 5531060934, "lat": 49.78733, "lon": 9.43794, "tags": {"amenity": "charging_station", "fee": "no", "brand": "bike-energy", "network": "Wald Erfahren", "operator": "Gemeinde Faulbach", "name": "Gemeinde Faulbach - bike-energy", "addr:country": "DE", "socket:schuko": "1", "socket:schuko:output": "2.3 kW", "charging_station:output": "2.3 kW", "capacity": "5", "_source": "worldwide"}}, {"type": "node", "id": 5531061415, "lat": 49.906599, "lon": 9.297753, "tags": {"amenity": "charging_station", "fee": "no", "network": "Wald erFahren", "operator": "Gemeinde Mespelbrunn", "name": "Mespelbrunn Hotel Engel", "addr:country": "DE", "socket:schuko": "1", "socket:schuko:output": "2.3 kW", "charging_station:output": "2.3 kW", "capacity": "4", "_source": "worldwide"}}, {"type": "node", "id": 5531071132, "lat": 49.799559, "lon": 9.448366, "tags": {"amenity": "charging_station", "fee": "no", "network": "Wald erFahren", "operator": "Gemeinde Dorfprozelten", "name": "Gemeinde Dorfprozelten - Wald erFahren", "addr:country": "DE", "socket:schuko": "1", "socket:schuko:output": "2.3 kW", "charging_station:output": "2.3 kW", "capacity": "4", "_source": "worldwide"}}, {"type": "node", "id": 5531080133, "lat": 49.820113, "lon": 9.255615, "tags": {"amenity": "charging_station", "fee": "no", "network": "Wald erFahren", "operator": "Markt Eschau", "name": "Markt Eschau - Wald erFahren", "addr:country": "DE", "socket:schuko": "1", "socket:schuko:output": "2.3 kW", "charging_station:output": "2.3 kW", "capacity": "4", "_source": "worldwide"}}, {"type": "node", "id": 5531084653, "lat": 49.878088, "lon": 9.28113, "tags": {"amenity": "charging_station", "access": "yes", "fee": "no", "network": "Wald erfahren", "operator": "Gemeinde Heimbuchenthal", "name": "Gemeinde Heimbuchenthal - Wald erfahren", "addr:country": "DE", "socket:schuko": "1", "socket:schuko:output": "2.3 kW", "charging_station:output": "2.3 kW", "capacity": "3", "_source": "worldwide"}}, {"type": "node", "id": 5531093290, "lat": 49.881895, "lon": 9.294543, "tags": {"amenity": "charging_station", "fee": "no", "network": "Wald erFahren", "operator": "Gemeinde Heimbuchenthal", "name": "Gemeinde Heimbuchenthal - Wald erFahren", "addr:country": "DE", "socket:schuko": "1", "socket:schuko:output": "2.3 kW", "charging_station:output": "2.3 kW", "capacity": "3", "_source": "worldwide"}}, {"type": "node", "id": 5531099814, "lat": 49.927273, "lon": 9.284558, "tags": {"amenity": "charging_station", "fee": "no", "network": "Wald erFahren", "operator": "Gemeinse Mespelbrunn", "name": "Gemeinse Mespelbrunn - Wald erFahren", "addr:country": "DE", "socket:schuko": "1", "socket:schuko:output": "2.3 kW", "charging_station:output": "2.3 kW", "capacity": "3", "_source": "worldwide"}}, {"type": "node", "id": 5531126137, "lat": 49.99614, "lon": 9.264709, "tags": {"amenity": "charging_station", "fee": "no", "network": "Wald erFahren", "operator": "Gemeinde Bessenbach", "name": "Gemeinde Bessenbach - Wald erFahren", "addr:country": "DE", "socket:schuko": "1", "socket:schuko:output": "2.3 kW", "charging_station:output": "2.3 kW", "capacity": "4", "_source": "worldwide"}}, {"type": "node", "id": 5531152355, "lat": 49.968304, "lon": 9.3022, "tags": {"amenity": "charging_station", "access": "yes", "fee": "no", "brand": "bike-energy", "network": "Wald erFahren", "operator": "bike-energy", "name": "Wald erFahren", "addr:country": "DE", "socket:schuko": "1", "socket:schuko:output": "2.3 kW", "charging_station:output": "2.3 kW", "capacity": "4", "_source": "worldwide"}}, {"type": "node", "id": 5531156879, "lat": 49.958397, "lon": 9.275441, "tags": {"amenity": "charging_station", "fee": "no", "network": "Wald erFahren", "operator": "Gemeinde Bessenbach", "name": "Gemeinde Bessenbach - Wald erFahren", "addr:country": "DE", "socket:schuko": "1", "socket:schuko:output": "2.3 kW", "charging_station:output": "2.3 kW", "capacity": "4", "_source": "worldwide"}}, {"type": "node", "id": 5531166748, "lat": 49.971866, "lon": 9.25406, "tags": {"amenity": "charging_station", "access": "yes", "fee": "no", "brand": "bike-energy", "network": "Wald Erfahren", "opening_hours": "24/7", "operator": "REWE", "name": "REWE - bike-energy", "addr:country": "DE", "socket:schuko": "1", "socket:schuko:output": "2.3 kW", "charging_station:output": "2.3 kW", "capacity": "5", "_source": "worldwide"}}, {"type": "node", "id": 5531170905, "lat": 49.962868, "lon": 9.192698, "tags": {"amenity": "charging_station", "access": "yes", "fee": "no", "network": "Wald Erfahren", "operator": "Gemeinde Haibach", "name": "Gemeinde Haibach - Wald Erfahren", "addr:country": "DE", "socket:schuko": "1", "socket:schuko:output": "2.3 kW", "charging_station:output": "2.3 kW", "capacity": "3", "_source": "worldwide"}}, {"type": "node", "id": 5531187955, "lat": 49.968573, "lon": 9.397952, "tags": {"amenity": "charging_station", "fee": "no", "brand": "bike-energy", "network": "Wald erFahren", "operator": "bike-energy", "name": "Wald erFahren", "addr:country": "DE", "socket:schuko": "1", "socket:schuko:output": "2.3 kW", "charging_station:output": "2.3 kW", "capacity": "4", "_source": "worldwide"}}, {"type": "node", "id": 5531190722, "lat": 49.949119, "lon": 9.453099, "tags": {"amenity": "charging_station", "access": "yes", "fee": "no", "network": "Wald Erfahren", "operator": "Gemeinde Rothenbuch", "name": "Gemeinde Rothenbuch - Wald Erfahren", "addr:country": "DE", "socket:schuko": "1", "socket:schuko:output": "2.3 kW", "charging_station:output": "2.3 kW", "capacity": "4", "_source": "worldwide"}}, {"type": "node", "id": 5531204882, "lat": 49.963719, "lon": 9.389615, "tags": {"amenity": "charging_station", "fee": "no", "network": "Wald erFahren", "operator": "Gemeinde Rothenbuch", "name": "Gemeinde Rothenbuch - Wald erFahren", "addr:country": "DE", "socket:schuko": "1", "socket:schuko:output": "2.3 kW", "charging_station:output": "2.3 kW", "capacity": "2", "_source": "worldwide"}}, {"type": "node", "id": 5531241121, "lat": 49.930766, "lon": 9.368217, "tags": {"amenity": "charging_station", "fee": "no", "network": "Wald erFahren", "operator": "Gemeinde Weibersbrunn", "name": "Gemeinde Weibersbrunn - Wald erFahren", "addr:country": "DE", "socket:schuko": "1", "socket:schuko:output": "2.3 kW", "charging_station:output": "2.3 kW", "capacity": "2", "_source": "worldwide"}}, {"type": "node", "id": 5570005363, "lat": 49.15029, "lon": 9.298828, "tags": {"amenity": "charging_station", "operator": "Kaufland", "name": "Ladestation Kaufland", "addr:country": "DE", "_source": "worldwide"}}, {"type": "node", "id": 5570049374, "lat": 49.204054, "lon": 9.5034, "tags": {"amenity": "charging_station", "operator": "EnBW", "name": "Ladestation EnBW", "addr:country": "DE", "capacity": "2", "_source": "worldwide"}}, {"type": "node", "id": 5641274105, "lat": 49.832292, "lon": 9.872589, "tags": {"amenity": "charging_station", "access": "yes", "fee": "no", "opening_hours": "24/7", "operator": "Gemeinde Veitshöchheim", "name": "Ladestation Gemeinde Veitshöchheim", "addr:country": "DE", "socket:schuko": "1", "socket:schuko:output": "2.3 kW", "charging_station:output": "2.3 kW", "capacity": "6", "authentication:none": "yes", "_source": "worldwide"}}, {"type": "node", "id": 6276221161, "lat": 49.831476, "lon": 9.875802, "tags": {"amenity": "charging_station", "access": "customers", "fee": "no", "operator": "Gemeinde Veitshöchheim", "name": "Ladestation Gemeinde Veitshöchheim", "addr:country": "DE", "socket:schuko": "2", "socket:schuko:output": "2.3 kW", "charging_station:output": "2.3 kW", "capacity": "2", "_source": "worldwide"}}, {"type": "node", "id": 6404653089, "lat": 49.832406, "lon": 9.87544, "tags": {"amenity": "charging_station", "access": "yes", "fee": "yes", "opening_hours": "24/7", "operator": "die Energie", "name": "Ladestation die Energie", "addr:country": "DE", "socket:type2": "2", "socket:type2:output": "22.0 kW", "charging_station:output": "22.0 kW", "capacity": "2", "_source": "worldwide"}}, {"type": "node", "id": 12054701547, "lat": 49.829984, "lon": 9.871134, "tags": {"amenity": "charging_station", "access": "yes", "network": "Ladeverbund+", "opening_hours": "24/7", "operator": "Die Energie", "name": "Die Energie - Ladeverbund+", "addr:country": "DE", "socket:type2": "2", "socket:type2:output": "22.0 kW", "charging_station:output": "22.0 kW", "capacity": "2", "_source": "worldwide"}}, {"type": "node", "id": 13031272384, "lat": 49.832865, "lon": 9.86985, "tags": {"amenity": "charging_station", "access": "private", "fee": "yes", "operator": "Ferienhaus am Main", "name": "Ladestation Ferienhaus am Main", "addr:country": "DE", "socket:type2": "1", "socket:type2:output": "11.0 kW", "charging_station:output": "11.0 kW", "capacity": "1", "_source": "worldwide"}}, {"type": "node", "id": 5664546823, "lat": 49.143263, "lon": 9.218176, "tags": {"amenity": "charging_station", "access": "yes", "fee": "yes", "operator": "Stadtwerke Heilbronn", "name": "DESHNE001801", "addr:country": "DE", "socket:type2": "2", "socket:type2:output": "11.0 kW", "charging_station:output": "11.0 kW", "capacity": "2", "authentication:none": "", "_source": "worldwide"}}, {"type": "node", "id": 5664548521, "lat": 49.150166, "lon": 9.128887, "tags": {"amenity": "charging_station", "operator": "Holz Hauff", "name": "Ladestation Holz Hauff", "addr:country": "DE", "capacity": "1", "_source": "worldwide"}}, {"type": "node", "id": 5788233586, "lat": 49.179247, "lon": 9.167418, "tags": {"amenity": "charging_station", "addr:country": "DE", "capacity": "4", "_source": "worldwide"}}, {"type": "node", "id": 5814452034, "lat": 49.464838, "lon": 9.096327, "tags": {"amenity": "charging_station", "addr:country": "DE", "capacity": "1", "_source": "worldwide"}}, {"type": "node", "id": 5825749343, "lat": 49.621583, "lon": 9.730814, "tags": {"amenity": "charging_station", "operator": "EnBW", "name": "Ob der Tauber Ost", "addr:country": "DE", "socket:type2_combo": "1", "socket:type2_combo:output": "50.0 kW", "socket:chademo": "1", "socket:chademo:output": "50.0 kW", "charging_station:output": "50.0 kW", "capacity": "2", "_source": "worldwide"}}, {"type": "node", "id": 5860718135, "lat": 49.798067, "lon": 9.228542, "tags": {"amenity": "charging_station", "fee": "no", "network": "Wald Erfahren", "operator": "Wald Erfahren", "name": "Ladestation Wald Erfahren", "addr:country": "DE", "_source": "worldwide"}}, {"type": "node", "id": 5897974206, "lat": 49.278726, "lon": 9.695269, "tags": {"amenity": "charging_station", "fee": "yes", "operator": "Stadt Künzelsau", "name": "strom für e-bikes", "addr:country": "DE", "capacity": "3", "authentication:none": "yes", "_source": "worldwide"}}, {"type": "node", "id": 5940599990, "lat": 49.082183, "lon": 9.066677, "tags": {"amenity": "charging_station", "access": "private", "opening_hours": "24/7", "addr:country": "DE", "capacity": "2", "_source": "worldwide"}}, {"type": "node", "id": 7430966860, "lat": 49.082561, "lon": 9.067206, "tags": {"amenity": "charging_station", "opening_hours": "24/7", "operator": "EnBW", "name": "Ladestation EnBW", "addr:country": "DE", "socket:type2": "1", "socket:type2:output": "22 kW", "socket:type2_combo": "1", "socket:type2_combo:output": "50 kW", "socket:chademo": "1", "socket:chademo:output": "50 kW", "charging_station:output": "50 kW", "_source": "worldwide"}}, {"type": "node", "id": 6004894178, "lat": 49.123253, "lon": 9.209869, "tags": {"amenity": "charging_station", "operator": "HHN", "name": "Ladestation HHN", "addr:country": "DE", "capacity": "2", "_source": "worldwide"}}, {"type": "node", "id": 6105810103, "lat": 49.769235, "lon": 9.185562, "tags": {"amenity": "charging_station", "opening_hours": "24/7", "operator": "Hemmelrath Lackfabrik", "name": "Hemmelrath Lackfabrik - Hemmelrath Lackfabrik GmbH", "addr:country": "DE", "socket:type2": "1", "socket:type2:output": "22.0 kW", "charging_station:output": "22.0 kW", "capacity": "1", "_source": "worldwide"}}, {"type": "node", "id": 6135829263, "lat": 49.482818, "lon": 9.895226, "tags": {"amenity": "charging_station", "opening_hours": "24/7", "operator": "Überlandwerke Schäftersheim", "name": "AC Ladestation Am Schmecker", "addr:street": "August-Laukhuff-Straße 1", "socket:type2": "2", "socket:type2:output": "22.0 kW", "charging_station:output": "22.0 kW", "capacity": "2", "_source": "worldwide"}}, {"type": "node", "id": 7553357223, "lat": 49.48467, "lon": 9.897479, "tags": {"amenity": "charging_station", "fee": "yes", "opening_hours": "24/7", "operator": "Lidl", "name": "Ladestation Lidl", "addr:country": "DE", "capacity": "2", "authentication:none": "", "_source": "worldwide"}}, {"type": "node", "id": 6235015201, "lat": 49.430237, "lon": 9.421886, "tags": {"amenity": "charging_station", "access": "customers", "operator": "Café Köpfle", "name": "Ladestation Café Köpfle", "addr:country": "DE", "capacity": "2", "authentication:none": "yes", "_source": "worldwide"}}, {"type": "node", "id": 13324651918, "lat": 49.429301, "lon": 9.420474, "tags": {"amenity": "charging_station", "brand": "TEAG", "operator": "TEAG Mobil", "name": "TEAG Mobil - TEAG", "addr:country": "DE", "_source": "worldwide"}}, {"type": "node", "id": 6239281946, "lat": 49.907997, "lon": 9.151109, "tags": {"amenity": "charging_station", "fee": "no", "brand": "bike-energy", "operator": "bike-energy", "name": "bike-energy-Ladestation", "addr:country": "DE", "socket:schuko": "1", "socket:schuko:output": "2.3 kW", "charging_station:output": "2.3 kW", "capacity": "3", "_source": "worldwide"}}, {"type": "node", "id": 6253691538, "lat": 49.399743, "lon": 9.07051, "tags": {"amenity": "charging_station", "access": "yes", "fee": "no", "opening_hours": "24/7", "operator": "Gemeinde Neckargerach", "name": "Ladestation Gemeinde Neckargerach", "addr:country": "DE", "socket:schuko": "6", "socket:schuko:output": "2.3 kW", "charging_station:output": "2.3 kW", "capacity": "6", "authentication:none": "yes", "_source": "worldwide"}}, {"type": "node", "id": 6276221162, "lat": 49.807412, "lon": 9.955986, "tags": {"amenity": "charging_station", "fee": "yes", "opening_hours": "24/7", "operator": "WVV", "name": "Ladestation WVV", "addr:country": "DE", "socket:type2": "2", "socket:type2:output": "22 kW", "charging_station:output": "22 kW", "capacity": "2", "_source": "worldwide"}}, {"type": "node", "id": 13313491670, "lat": 49.810542, "lon": 9.96137, "tags": {"amenity": "charging_station", "fee": "yes", "operator": "WVV", "name": "Ladestation WVV", "addr:country": "DE", "socket:type2": "2", "socket:type2:output": "22.0 kW", "charging_station:output": "22.0 kW", "capacity": "2", "_source": "worldwide"}}, {"type": "node", "id": 13313493030, "lat": 49.810963, "lon": 9.958736, "tags": {"amenity": "charging_station", "fee": "yes", "operator": "WVV", "name": "Ladestation WVV", "addr:country": "DE", "socket:type2": "2", "socket:type2:output": "22.0 kW", "charging_station:output": "22.0 kW", "capacity": "2", "_source": "worldwide"}}, {"type": "node", "id": 6276221167, "lat": 49.800755, "lon": 9.954301, "tags": {"amenity": "charging_station", "opening_hours": "24/7", "operator": "Würzburger Versorgungs- und Verkehrs-GmbH (WVV)", "name": "Ladestation Würzburger Versorgungs- und Verkehrs-GmbH (WVV)", "addr:country": "DE", "socket:type2": "2", "socket:type2:output": "22 kW", "charging_station:output": "22 kW", "capacity": "2", "_source": "worldwide"}}, {"type": "node", "id": 9271769253, "lat": 49.800196, "lon": 9.956869, "tags": {"amenity": "charging_station", "opening_hours": "24/7", "operator": "Würzburger Versorgungs- und Verkehrs-GmbH (WVV)", "name": "Ladestation Würzburger Versorgungs- und Verkehrs-GmbH (WVV)", "addr:country": "DE", "socket:type2": "2", "socket:type2:output": "22 kW", "charging_station:output": "22 kW", "capacity": "2", "_source": "worldwide"}}, {"type": "node", "id": 11663011769, "lat": 49.796111, "lon": 9.956188, "tags": {"amenity": "charging_station", "operator": "WVV Würzburger Versorgungs- und Verkehrs-GmbH", "name": "Ladestation WVV Würzburger Versorgungs- und Verkehrs-GmbH", "addr:street": "Barbarastraße 28", "capacity": "4", "_source": "worldwide"}}, {"type": "node", "id": 11733697873, "lat": 49.797311, "lon": 9.959091, "tags": {"amenity": "charging_station", "access": "yes", "fee": "yes", "brand": "Mer", "operator": "Mer", "name": "Mer", "addr:country": "DE", "socket:type2_combo": "2", "socket:type2_combo:output": "150.0 kW", "charging_station:output": "150.0 kW", "capacity": "150", "_source": "worldwide"}}, {"type": "node", "id": 6330141857, "lat": 49.75812, "lon": 9.970256, "tags": {"amenity": "charging_station", "operator": "Energieteam sbw", "name": "bike-energy Ladestation", "addr:country": "DE", "capacity": "1", "_source": "worldwide"}}, {"type": "node", "id": 6356968442, "lat": 49.228141, "lon": 9.210299, "tags": {"amenity": "charging_station", "operator": "Stadtwerke Bad Friedrichshall", "name": "Ladestation Stadtwerke Bad Friedrichshall", "addr:country": "DE", "capacity": "2", "_source": "worldwide"}}, {"type": "node", "id": 6366810409, "lat": 49.480858, "lon": 9.898105, "tags": {"amenity": "charging_station", "fee": "no", "brand": "bike-energy", "network": "bike-energy", "operator": "bike-energy", "name": "bike-energy Ladestation", "addr:street": "Marktplatz 2", "addr:postcode": "97990", "addr:city": "Weikersheim", "addr:country": "DE", "capacity": "3", "_source": "worldwide"}}, {"type": "node", "id": 9460318241, "lat": 49.481108, "lon": 9.896435, "tags": {"amenity": "charging_station", "access": "yes", "addr:country": "DE", "socket:schuko": "8", "socket:schuko:output": "2.3 kW", "charging_station:output": "2.3 kW", "_source": "worldwide"}}, {"type": "node", "id": 6418381874, "lat": 49.753899, "lon": 9.519952, "tags": {"amenity": "charging_station", "addr:country": "DE", "socket:type2": "2", "socket:type2:output": "22 kW", "charging_station:output": "22 kW", "capacity": "2", "_source": "worldwide"}}, {"type": "node", "id": 6418384938, "lat": 49.761985, "lon": 9.51232, "tags": {"amenity": "charging_station", "addr:country": "DE", "socket:type2": "2", "socket:type2:output": "22 kW", "charging_station:output": "22 kW", "capacity": "2", "_source": "worldwide"}}, {"type": "node", "id": 6418833664, "lat": 49.056494, "lon": 9.250341, "tags": {"amenity": "charging_station", "brand": "Innogy", "operator": "Innogy", "name": "Innogy", "addr:country": "DE", "capacity": "2", "_source": "worldwide"}}, {"type": "node", "id": 11778951538, "lat": 49.055985, "lon": 9.246175, "tags": {"amenity": "charging_station", "access": "yes", "brand": "Innogy", "operator": "Innogy", "name": "Innogy", "addr:country": "DE", "capacity": "2", "_source": "worldwide"}}, {"type": "node", "id": 13037150614, "lat": 49.054955, "lon": 9.242689, "tags": {"amenity": "charging_station", "access": "yes", "operator": "Gemeinde Isfeld", "name": "Ladestation Gemeinde Isfeld", "addr:country": "DE", "capacity": "2", "_source": "worldwide"}}, {"type": "node", "id": 13037150616, "lat": 49.055177, "lon": 9.241798, "tags": {"amenity": "charging_station", "access": "yes", "operator": "Gemeinde Isfeld", "name": "Ladestation Gemeinde Isfeld", "addr:country": "DE", "capacity": "2", "_source": "worldwide"}}, {"type": "node", "id": 340656719, "lat": 49.056977, "lon": 9.246563, "tags": {"amenity": "charging_station", "brand": "Innogy", "operator": "Innogy", "name": "Innogy", "addr:country": "DE", "capacity": "2", "_source": "worldwide"}}, {"type": "node", "id": 6421049087, "lat": 49.076168, "lon": 9.146392, "tags": {"amenity": "charging_station", "fee": "no", "opening_hours": "Mo-Fr 08:00-18:00; Sa 09:00-13:00", "operator": "Stadtwerke Lauffen am Neckar", "name": "Ladestation Stadtwerke Lauffen am Neckar", "addr:country": "DE", "socket:type2": "2", "socket:type2:output": "22 kW", "charging_station:output": "22 kW", "capacity": "2", "_source": "worldwide"}}, {"type": "node", "id": 10939033464, "lat": 49.075983, "lon": 9.145123, "tags": {"amenity": "charging_station", "opening_hours": "24/7", "operator": "ZEAG Energie", "name": "Ladestation ZEAG Energie", "addr:country": "DE", "socket:type2": "2", "socket:type2:output": "22 kW", "charging_station:output": "22 kW", "capacity": "2", "_source": "worldwide"}}, {"type": "node", "id": 6535358187, "lat": 49.760496, "lon": 9.519512, "tags": {"amenity": "charging_station", "fee": "yes", "operator": "Stadtwerke Wertheim", "name": "Ladestation Stadtwerke Wertheim", "addr:country": "DE", "socket:type2": "2", "socket:type2:output": "22 kW", "charging_station:output": "22 kW", "capacity": "2", "_source": "worldwide"}}, {"type": "node", "id": 7834702801, "lat": 49.75896, "lon": 9.517647, "tags": {"amenity": "charging_station", "fee": "no", "operator": "Stadtwerke Wertheim", "name": "Ladestation Stadtwerke Wertheim", "addr:country": "DE", "socket:schuko": "2", "socket:schuko:output": "2.3 kW", "charging_station:output": "2.3 kW", "capacity": "2", "authentication:none": "yes", "_source": "worldwide"}}, {"type": "node", "id": 12504541897, "lat": 49.761393, "lon": 9.514903, "tags": {"amenity": "charging_station", "operator": "Stadtwerke Wertheim", "name": "Ladestation Stadtwerke Wertheim", "addr:country": "DE", "socket:type2_combo": "2", "socket:type2_combo:output": "150.0 kW", "charging_station:output": "150.0 kW", "capacity": "2", "_source": "worldwide"}}, {"type": "node", "id": 6577649645, "lat": 49.076458, "lon": 9.305507, "tags": {"amenity": "charging_station", "fee": "yes", "brand": "swarco", "opening_hours": "24/7", "operator": "Robert Bosch", "name": "Robert Bosch - swarco", "addr:country": "DE", "socket:type2": "2", "socket:type2:output": "22 kW", "charging_station:output": "22 kW", "capacity": "2", "authentication:none": "", "_source": "worldwide"}}, {"type": "node", "id": 9917001032, "lat": 49.077548, "lon": 9.306711, "tags": {"amenity": "charging_station", "access": "private", "fee": "yes", "brand": "swarco", "operator": "Robert Bosch", "name": "Robert Bosch - swarco", "addr:country": "DE", "socket:type2": "2", "socket:type2:output": "22 kW", "charging_station:output": "22 kW", "capacity": "2", "authentication:none": "", "_source": "worldwide"}}, {"type": "node", "id": 9918446329, "lat": 49.08027, "lon": 9.307499, "tags": {"amenity": "charging_station", "opening_hours": "24/7", "operator": "Robert Bosch", "name": "Robert Bosch - Robert Bosch GmbH", "addr:country": "DE", "socket:schuko": "12", "socket:schuko:output": "2.3 kW", "charging_station:output": "2.3 kW", "capacity": "12", "_source": "worldwide"}}, {"type": "node", "id": 9918502967, "lat": 49.079712, "lon": 9.308601, "tags": {"amenity": "charging_station", "fee": "yes", "brand": "swarco", "opening_hours": "24/7", "operator": "Robert Bosch", "name": "Robert Bosch - swarco", "addr:country": "DE", "socket:type2": "2", "socket:type2:output": "22 kW", "charging_station:output": "22 kW", "capacity": "2", "authentication:none": "", "_source": "worldwide"}}, {"type": "node", "id": 6593616746, "lat": 49.301464, "lon": 9.646793, "tags": {"amenity": "charging_station", "network": "EnBW", "operator": "EnBW", "name": "Ladestation EnBW", "addr:country": "DE", "socket:type2": "2", "socket:type2:output": "22 kW", "socket:schuko": "2", "socket:schuko:output": "2.3 kW", "charging_station:output": "22 kW", "capacity": "2", "_source": "worldwide"}}, {"type": "node", "id": 6643659901, "lat": 49.076438, "lon": 9.156656, "tags": {"amenity": "charging_station", "operator": "Intercharge", "name": "Ladestation Intercharge", "addr:country": "DE", "capacity": "2", "_source": "worldwide"}}, {"type": "node", "id": 6745437832, "lat": 49.658055, "lon": 9.946309, "tags": {"amenity": "charging_station", "fee": "yes", "operator": "N-Energie", "name": "Ladestation N-Energie", "addr:country": "DE", "capacity": "2", "_source": "worldwide"}}, {"type": "node", "id": 6761242002, "lat": 49.041821, "lon": 9.090842, "tags": {"amenity": "charging_station", "fee": "yes", "opening_hours": "24/7", "operator": "EnBW", "name": "Ladestation EnBW", "addr:country": "DE", "socket:type2": "2", "socket:type2:output": "22 kW", "socket:schuko": "2", "socket:schuko:output": "2.3 kW", "charging_station:output": "22 kW", "capacity": "2", "_source": "worldwide"}}, {"type": "node", "id": 6761309169, "lat": 49.038805, "lon": 9.314632, "tags": {"amenity": "charging_station", "operator": "Süwag", "name": "Ladestation Süwag", "addr:country": "DE", "capacity": "2", "_source": "worldwide"}}, {"type": "node", "id": 6801102967, "lat": 49.19367, "lon": 9.221467, "tags": {"amenity": "charging_station", "access": "private", "fee": "no", "addr:country": "DE", "capacity": "2", "_source": "worldwide"}}, {"type": "node", "id": 7802724723, "lat": 49.195558, "lon": 9.224052, "tags": {"amenity": "charging_station", "fee": "yes", "operator": "Audi", "name": "Audi - Audi AG", "addr:country": "DE", "socket:type2_combo": "1", "socket:type2_combo:output": "350.0 kW", "charging_station:output": "350.0 kW", "capacity": "1", "_source": "worldwide"}}, {"type": "node", "id": 8823970122, "lat": 49.191906, "lon": 9.222748, "tags": {"amenity": "charging_station", "access": "yes", "brand": "ChargePoint", "operator": "ChargePoint", "name": "ChargePoint", "addr:country": "DE", "_source": "worldwide"}}, {"type": "node", "id": 6804222802, "lat": 49.075878, "lon": 9.559547, "tags": {"amenity": "charging_station", "addr:country": "DE", "_source": "worldwide"}}, {"type": "node", "id": 6842003279, "lat": 49.277423, "lon": 9.688743, "tags": {"amenity": "charging_station", "addr:country": "DE", "capacity": "1", "_source": "worldwide"}}, {"type": "node", "id": 6854699188, "lat": 49.416941, "lon": 9.279426, "tags": {"amenity": "charging_station", "operator": "Stadtwerke Mosbach", "name": "Ladestation Stadtwerke Mosbach", "addr:country": "DE", "capacity": "2", "_source": "worldwide"}}, {"type": "node", "id": 6893220995, "lat": 49.001785, "lon": 9.142257, "tags": {"amenity": "charging_station", "fee": "yes", "opening_hours": "24/7", "operator": "EnBW Energie Baden-Württemberg", "name": "EnBW Energie Baden-Württemberg - EnBW Energie Baden-Württemberg GmbH", "addr:country": "DE", "_source": "worldwide"}}, {"type": "node", "id": 6893783720, "lat": 49.209994, "lon": 9.203969, "tags": {"amenity": "charging_station", "operator": "Süwag", "name": "Ladestation Süwag", "addr:country": "DE", "capacity": "2", "_source": "worldwide"}}, {"type": "node", "id": 1230949535, "lat": 49.211689, "lon": 9.196146, "tags": {"amenity": "charging_station", "operator": "Süwag", "name": "Ladestation Süwag", "addr:country": "DE", "capacity": "2", "_source": "worldwide"}}, {"type": "node", "id": 6943724715, "lat": 49.85641, "lon": 9.957523, "tags": {"amenity": "charging_station", "access": "yes", "fee": "yes", "operator": "WVV", "name": "Ladestation WVV", "addr:country": "DE", "capacity": "2", "_source": "worldwide"}}, {"type": "node", "id": 12944473972, "lat": 49.857316, "lon": 9.958202, "tags": {"amenity": "charging_station", "addr:country": "DE", "capacity": "2", "_source": "worldwide"}}, {"type": "node", "id": 6966635085, "lat": 49.963226, "lon": 9.762953, "tags": {"amenity": "charging_station", "addr:country": "DE", "_source": "worldwide"}}, {"type": "node", "id": 9926162803, "lat": 49.963553, "lon": 9.76456, "tags": {"amenity": "charging_station", "fee": "no", "operator": "ADFC", "name": "Ladestation ADFC", "addr:country": "DE", "capacity": "6", "_source": "worldwide"}}, {"type": "node", "id": 11891104709, "lat": 49.961255, "lon": 9.764126, "tags": {"amenity": "charging_station", "access": "yes", "fee": "no", "opening_hours": "24/7", "addr:country": "DE", "socket:schuko": "12", "socket:schuko:output": "2.3 kW", "charging_station:output": "2.3 kW", "capacity": "12", "_source": "worldwide"}}, {"type": "node", "id": 6989899533, "lat": 49.138239, "lon": 9.064666, "tags": {"amenity": "charging_station", "access": "customers", "brand": "Kaufland eCharge", "operator": "Kaufland eCharge", "name": "Kaufland eCharge", "addr:country": "DE", "capacity": "2", "_source": "worldwide"}}, {"type": "node", "id": 6990592184, "lat": 49.797879, "lon": 9.901495, "tags": {"amenity": "charging_station", "access": "private", "operator": "Feuerwehr Schule", "name": "Ladestation Feuerwehr Schule", "addr:country": "DE", "capacity": "2", "_source": "worldwide"}}, {"type": "node", "id": 9925279221, "lat": 49.796005, "lon": 9.900699, "tags": {"amenity": "charging_station", "fee": "yes", "opening_hours": "24/7", "operator": "Vogel Communications Group", "name": "Ladestation Vogel Communications Group", "addr:country": "DE", "capacity": "2", "_source": "worldwide"}}, {"type": "node", "id": 12062829824, "lat": 49.79744, "lon": 9.907025, "tags": {"amenity": "charging_station", "access": "yes", "fee": "yes", "operator": "Würzburger Verkehrs- und Versorgungsbetriebe", "name": "Ladestation Würzburger Verkehrs- und Versorgungsbetriebe", "addr:country": "DE", "capacity": "2", "_source": "worldwide"}}, {"type": "node", "id": 12833185671, "lat": 49.798727, "lon": 9.900705, "tags": {"amenity": "charging_station", "access": "yes", "fee": "yes", "brand": "KEBA - KeContact P30", "opening_hours": "24/7", "operator": "SolarLoader+", "name": "SolarLoader+ Ladestation", "addr:country": "DE", "socket:type2": "1", "socket:type2:output": "22.0 kW", "charging_station:output": "22.0 kW", "capacity": "2", "_source": "worldwide"}}, {"type": "node", "id": 1393772873, "lat": 49.797668, "lon": 9.900746, "tags": {"amenity": "charging_station", "operator": "Eneco", "name": "Ladestation Eneco", "addr:country": "DE", "capacity": "2", "_source": "worldwide"}}, {"type": "node", "id": 6992773813, "lat": 49.142014, "lon": 9.057922, "tags": {"amenity": "charging_station", "operator": "Stadt Schwaigern", "name": "Ladestation Stadt Schwaigern", "addr:country": "DE", "capacity": "2", "_source": "worldwide"}}, {"type": "node", "id": 6992773814, "lat": 49.140048, "lon": 9.0561, "tags": {"amenity": "charging_station", "operator": "Stadt Schwaigern", "name": "Ladestation Stadt Schwaigern", "addr:country": "DE", "capacity": "2", "_source": "worldwide"}}, {"type": "node", "id": 6992773815, "lat": 49.138615, "lon": 9.057604, "tags": {"amenity": "charging_station", "operator": "EnBW", "name": "Ladestation EnBW", "addr:country": "DE", "capacity": "2", "_source": "worldwide"}}, {"type": "node", "id": 9876913417, "lat": 49.141842, "lon": 9.058952, "tags": {"amenity": "charging_station", "access": "yes", "fee": "no", "brand": "Spelsberg", "name": "[BCS] Bovend Radstation Grünes Dach", "addr:country": "DE", "socket:schuko": "2", "socket:schuko:output": "2.3 kW", "charging_station:output": "2.3 kW", "capacity": "4", "_source": "worldwide"}}, {"type": "node", "id": 7010935972, "lat": 49.172429, "lon": 9.221892, "tags": {"amenity": "charging_station", "fee": "no", "operator": "Kaufland", "name": "Ladestation Kaufland", "addr:country": "DE", "_source": "worldwide"}}, {"type": "node", "id": 7042630299, "lat": 49.488913, "lon": 9.781752, "tags": {"amenity": "charging_station", "addr:country": "DE", "socket:tesla_supercharger": "1", "socket:tesla_supercharger:output": "150 kW", "charging_station:output": "150 kW", "_source": "worldwide"}}, {"type": "node", "id": 13230380321, "lat": 49.493335, "lon": 9.784547, "tags": {"amenity": "charging_station", "opening_hours": "08:00-20:00", "addr:country": "DE", "socket:schuko": "3", "socket:schuko:output": "2.3 kW", "charging_station:output": "2.3 kW", "_source": "worldwide"}}, {"type": "node", "id": 7047308475, "lat": 49.610216, "lon": 9.480036, "tags": {"amenity": "charging_station", "addr:country": "DE", "_source": "worldwide"}}, {"type": "node", "id": 12695414072, "lat": 49.609632, "lon": 9.480569, "tags": {"amenity": "charging_station", "access": "private", "addr:country": "DE", "_source": "worldwide"}}, {"type": "node", "id": 7047308695, "lat": 49.606884, "lon": 9.469445, "tags": {"amenity": "charging_station", "fee": "no", "opening_hours": "24/7", "operator": "EnBW", "name": "EnBW - EnBw", "addr:country": "DE", "socket:type2": "2", "socket:type2:output": "22 kW", "charging_station:output": "22 kW", "_source": "worldwide"}}, {"type": "node", "id": 7215643919, "lat": 49.786834, "lon": 9.841146, "tags": {"amenity": "charging_station", "access": "yes", "fee": "yes", "operator": "Versorgungsbetriebe Waldbüttelbrunn", "name": "Parkdeck am Gässchen", "addr:country": "DE", "socket:type2": "1", "socket:type2:output": "22.0 kW", "charging_station:output": "22.0 kW", "capacity": "1", "_source": "worldwide"}}, {"type": "node", "id": 7411161991, "lat": 49.845447, "lon": 9.905883, "tags": {"amenity": "charging_station", "network": "Ladeverbund+", "opening_hours": "24/7", "operator": "Ladeverbund+", "name": "Ladeverbund+ Ladestation", "addr:country": "DE", "capacity": "2", "_source": "worldwide"}}, {"type": "node", "id": 7454795659, "lat": 49.910804, "lon": 9.880698, "tags": {"amenity": "charging_station", "access": "yes", "fee": "no", "addr:country": "DE", "capacity": "3", "_source": "worldwide"}}, {"type": "node", "id": 7489378806, "lat": 49.804436, "lon": 9.895981, "tags": {"amenity": "charging_station", "access": "yes", "operator": "has.to.be", "name": "has.to.be Charging Station", "addr:country": "DE", "capacity": "2", "_source": "worldwide"}}, {"type": "node", "id": 12054701549, "lat": 49.802891, "lon": 9.895629, "tags": {"amenity": "charging_station", "access": "yes", "brand": "WVV", "opening_hours": "24/7", "operator": "WVV", "name": "DC Ladestation WVV Dürrbachau", "addr:country": "DE", "socket:type2_combo": "2", "socket:type2_combo:output": "150.0 kW", "charging_station:output": "150.0 kW", "capacity": "2", "authentication:none": "", "_source": "worldwide"}}, {"type": "node", "id": 7494921570, "lat": 49.796568, "lon": 9.927184, "tags": {"amenity": "charging_station", "fee": "yes", "operator": "WVV", "name": "Ladestation WVV", "addr:country": "DE", "socket:type2": "2", "socket:type2:output": "22 kW", "charging_station:output": "22 kW", "capacity": "2", "_source": "worldwide"}}, {"type": "node", "id": 11733723506, "lat": 49.799241, "lon": 9.927058, "tags": {"amenity": "charging_station", "access": "yes", "fee": "yes", "operator": "Fraunhofer Gesellschaft zur Förderung der angewandten Forschung e.V.", "name": "Ladestation Fraunhofer Gesellschaft zur Förderung der angewandten Forschung e.V.", "addr:country": "DE", "socket:type2": "1", "socket:type2:output": "22.0 kW", "socket:type2_combo": "1", "socket:type2_combo:output": "150.0 kW", "socket:chademo": "1", "socket:chademo:output": "22.0 kW", "charging_station:output": "150.0 kW", "_source": "worldwide"}}, {"type": "node", "id": 12054701545, "lat": 49.800843, "lon": 9.928982, "tags": {"amenity": "charging_station", "access": "yes", "operator": "Würzburger Versorgungs- und Verkehrsbetriebe", "name": "Ladestation Würzburger Versorgungs- und Verkehrsbetriebe", "addr:country": "DE", "capacity": "2", "_source": "worldwide"}}, {"type": "node", "id": 12054701546, "lat": 49.800446, "lon": 9.925598, "tags": {"amenity": "charging_station", "access": "yes", "operator": "Würzburger Versorgungs- und Verkehrsbetriebe", "name": "Ladestation Würzburger Versorgungs- und Verkehrsbetriebe", "addr:country": "DE", "capacity": "2", "_source": "worldwide"}}, {"type": "node", "id": 13449809770, "lat": 49.79557, "lon": 9.922069, "tags": {"amenity": "charging_station", "fee": "yes", "opening_hours": "24/7", "operator": "WVV Würzburg Versorgungs- und Verkehrs -", "name": "Alte Kasernstraße", "addr:country": "DE", "socket:type2": "2", "socket:type2:output": "22.0 kW", "charging_station:output": "22.0 kW", "capacity": "2", "_source": "worldwide"}}, {"type": "node", "id": 450280839, "lat": 49.798174, "lon": 9.926044, "tags": {"amenity": "charging_station", "access": "yes", "operator": "WVV Energie", "name": "Ladestation WVV Energie", "addr:country": "DE", "capacity": "2", "_source": "worldwide"}}, {"type": "node", "id": 7494970508, "lat": 49.298069, "lon": 9.593637, "tags": {"amenity": "charging_station", "fee": "no", "network": "EnBW", "opening_hours": "24/7", "operator": "Stadt Weißbach", "name": "Stadt Weißbach - EnBW", "addr:country": "DE", "capacity": "3", "authentication:none": "yes", "_source": "worldwide"}}, {"type": "node", "id": 12066969628, "lat": 49.296479, "lon": 9.591191, "tags": {"amenity": "charging_station", "brand": "TotalEnergies", "operator": "TotalEnergies", "name": "TotalEnergies - TotalEnergies", "addr:country": "DE", "_source": "worldwide"}}, {"type": "node", "id": 7554545948, "lat": 49.778255, "lon": 9.983098, "tags": {"amenity": "charging_station", "fee": "no", "operator": "Compleo Charging Technologies", "name": "Compleo Charging Technologies - Compleo Charging Technologies GmbH", "addr:country": "DE", "socket:schuko": "3", "socket:schuko:output": "2.3 kW", "charging_station:output": "2.3 kW", "capacity": "3", "_source": "worldwide"}}, {"type": "node", "id": 7556461299, "lat": 49.289648, "lon": 9.561925, "tags": {"amenity": "charging_station", "fee": "no", "network": "Smight", "opening_hours": "24/7", "operator": "Stadt Forchtenberg", "name": "Velobox", "addr:country": "DE", "socket:schuko": "6", "socket:schuko:output": "2.3 kW", "charging_station:output": "2.3 kW", "capacity": "3", "authentication:none": "yes", "_source": "worldwide"}}, {"type": "node", "id": 7573517308, "lat": 49.289884, "lon": 9.56286, "tags": {"amenity": "charging_station", "fee": "yes", "network": "EnBW", "opening_hours": "24/7", "operator": "Stadt Forchtenberg", "name": "Stadt Forchtenberg - EnBW", "addr:country": "DE", "capacity": "2", "_source": "worldwide"}}, {"type": "node", "id": 13391176751, "lat": 49.287556, "lon": 9.561894, "tags": {"amenity": "charging_station", "brand": "smopi", "name": "Ladestation smopi", "addr:country": "DE", "socket:type2": "6", "socket:type2:output": "22.0 kW", "charging_station:output": "22.0 kW", "_source": "worldwide"}}, {"type": "node", "id": 9722326999, "lat": 49.813482, "lon": 9.871189, "tags": {"amenity": "charging_station", "access": "yes", "fee": "yes", "network": "chargeIT", "opening_hours": "24/7", "operator": "Würzburger Versorgungs- und Verkehrs-GmbH", "name": "Würzburger Versorgungs- und Verkehrs-GmbH - chargeIT", "addr:country": "DE", "socket:type2": "2", "socket:type2:output": "22 kW", "charging_station:output": "22 kW", "capacity": "2", "_source": "worldwide"}}, {"type": "node", "id": 7589578017, "lat": 49.794383, "lon": 9.932363, "tags": {"amenity": "charging_station", "access": "private", "addr:country": "DE", "_source": "worldwide"}}, {"type": "node", "id": 9936992825, "lat": 49.792826, "lon": 9.936626, "tags": {"amenity": "charging_station", "fee": "yes", "operator": "WVV", "name": "Ladestation WVV", "addr:country": "DE", "capacity": "2", "_source": "worldwide"}}, {"type": "node", "id": 11494246672, "lat": 49.792938, "lon": 9.932712, "tags": {"amenity": "charging_station", "access": "yes", "fee": "yes", "operator": "Lichtblick", "name": "Ladestation Lichtblick", "addr:country": "DE", "socket:type2_combo": "2", "socket:type2_combo:output": "150.0 kW", "charging_station:output": "150.0 kW", "capacity": "2", "_source": "worldwide"}}, {"type": "node", "id": 7593180976, "lat": 49.493899, "lon": 9.790868, "tags": {"amenity": "charging_station", "operator": "Ladeverbund+", "name": "Ladestation Ladeverbund+", "addr:country": "DE", "capacity": "2", "_source": "worldwide"}}, {"type": "node", "id": 7593180979, "lat": 49.477875, "lon": 9.768596, "tags": {"amenity": "charging_station", "operator": "Ladeverbund+", "name": "Ladestation Ladeverbund+", "addr:country": "DE", "capacity": "2", "_source": "worldwide"}}, {"type": "node", "id": 13014152102, "lat": 49.477293, "lon": 9.768836, "tags": {"amenity": "charging_station", "addr:country": "DE", "_source": "worldwide"}}, {"type": "node", "id": 7593382452, "lat": 49.85214, "lon": 9.530159, "tags": {"amenity": "charging_station", "access": "yes", "fee": "no", "brand": "bike-energy", "operator": "Wald erfahren", "name": "bike-energy", "addr:country": "DE", "capacity": "2", "_source": "worldwide"}}, {"type": "node", "id": 7616207604, "lat": 49.989991, "lon": 9.584647, "tags": {"amenity": "charging_station", "access": "yes", "fee": "no", "brand": "bike-energy", "operator": "bike-energy", "name": "bike-energy", "addr:country": "DE", "capacity": "2", "_source": "worldwide"}}, {"type": "node", "id": 7616214712, "lat": 49.862191, "lon": 9.524321, "tags": {"amenity": "charging_station", "access": "yes", "fee": "no", "brand": "bike-energy", "network": "Wald Erfahren", "opening_hours": "24/7", "operator": "Wald Erfahren", "name": "Wald Erfahren - bike-energy", "addr:country": "DE", "socket:schuko": "1", "socket:schuko:output": "2.3 kW", "charging_station:output": "2.3 kW", "capacity": "3", "_source": "worldwide"}}, {"type": "node", "id": 7619181728, "lat": 49.790937, "lon": 9.963893, "tags": {"amenity": "charging_station", "fee": "no", "opening_hours": "24/7", "name": "Pedelec Ladestation Hubland", "addr:country": "DE", "socket:schuko": "6", "socket:schuko:output": "2.3 kW", "charging_station:output": "2.3 kW", "capacity": "3", "_source": "worldwide"}}, {"type": "node", "id": 7636444727, "lat": 49.740286, "lon": 9.319538, "tags": {"amenity": "charging_station", "addr:country": "DE", "capacity": "2", "_source": "worldwide"}}, {"type": "node", "id": 7653477377, "lat": 49.978338, "lon": 9.150606, "tags": {"amenity": "charging_station", "fee": "no", "network": "Wald Erfahren", "opening_hours": "24/7", "operator": "Aschaffenburg City-Galerie", "name": "Aschaffenburg City-Galerie - Wald Erfahren", "addr:country": "DE", "socket:schuko": "1", "socket:schuko:output": "2.3 kW", "charging_station:output": "2.3 kW", "capacity": "4", "_source": "worldwide"}}, {"type": "node", "id": 8025724601, "lat": 49.979643, "lon": 9.14502, "tags": {"amenity": "charging_station", "fee": "no", "network": "Wald erfahren", "opening_hours": "24/7", "operator": "Deutsche Bahn", "name": "Deutsche Bahn - Wald erfahren", "addr:country": "DE", "socket:schuko": "1", "socket:schuko:output": "2.3 kW", "charging_station:output": "2.3 kW", "capacity": "5", "_source": "worldwide"}}, {"type": "node", "id": 7785279418, "lat": 49.201256, "lon": 9.502172, "tags": {"amenity": "charging_station", "access": "yes", "fee": "yes", "network": "EnBW", "operator": "Stadt Öhringen", "name": "Stadt Öhringen - EnBW", "addr:country": "DE", "capacity": "4", "_source": "worldwide"}}, {"type": "node", "id": 11629963588, "lat": 49.200002, "lon": 9.498073, "tags": {"amenity": "charging_station", "access": "yes", "fee": "yes", "operator": "Stadtwerke Öhringen", "name": "Ladestation Stadtwerke Öhringen", "addr:country": "DE", "socket:type2": "2", "socket:type2:output": "22.0 kW", "charging_station:output": "22.0 kW", "capacity": "2", "_source": "worldwide"}}, {"type": "node", "id": 13309785315, "lat": 49.201806, "lon": 9.500016, "tags": {"amenity": "charging_station", "fee": "yes", "operator": "Kaufland", "name": "Ladestation Kaufland", "addr:country": "DE", "socket:type2": "1", "socket:type2:output": "22.0 kW", "socket:type2_combo": "1", "socket:type2_combo:output": "50.0 kW", "socket:chademo": "1", "socket:chademo:output": "50.0 kW", "charging_station:output": "50.0 kW", "capacity": "2", "_source": "worldwide"}}, {"type": "node", "id": 7816404672, "lat": 49.873198, "lon": 9.174379, "tags": {"amenity": "charging_station", "addr:country": "DE", "_source": "worldwide"}}, {"type": "node", "id": 7837235200, "lat": 49.114433, "lon": 9.777581, "tags": {"amenity": "charging_station", "access": "permit", "operator": "Firmenladen", "name": "Ladestation Firmenladen", "addr:country": "DE", "capacity": "11", "_source": "worldwide"}}, {"type": "node", "id": 7942418716, "lat": 49.782025, "lon": 9.18081, "tags": {"amenity": "charging_station", "network": "Wald erFahren", "operator": "Wald erFahren", "name": "Ladestation Wald erFahren", "addr:country": "DE", "charging_station:output": "2.3 kW", "capacity": "2", "_source": "worldwide"}}, {"type": "node", "id": 7943099320, "lat": 49.850363, "lon": 9.07971, "tags": {"amenity": "charging_station", "operator": "Löwer", "name": "Ladestation Löwer", "addr:country": "DE", "socket:type2": "2", "socket:type2:output": "22 kW", "charging_station:output": "22 kW", "capacity": "2", "authentication:none": "yes", "_source": "worldwide"}},