{"id": "46--124", "latMin": 46, "lonMin": -124, "latMax": 47, "lonMax": -123, "generated": "2026-04-16T18:39:08.113Z", "count": 11, "pois": [{"type": "node", "id": 4522431102, "lat": 46.130942, "lon": -123.374025, "tags": {"amenity": "charging_station", "name": "EV Charging Station", "_source": "worldwide"}}, {"type": "node", "id": 4746186166, "lat": 46.976631, "lon": -123.813674, "tags": {"amenity": "charging_station", "fee": "yes", "access": "customers", "opening_hours": "24/7", "brand": "Tesla Supercharger", "network": "Supercharger", "operator": "Tesla", "name": "Tesla Supercharger", "addr:street": "East Wishkah Street", "addr:housenumber": "416", "addr:postcode": "98520", "addr:city": "Aberdeen", "addr:country": "US", "capacity": "8", "_source": "worldwide"}}, {"type": "node", "id": 9506597020, "lat": 46.188729, "lon": -123.827395, "tags": {"amenity": "charging_station", "brand": "Blink", "operator": "Blink", "name": "Blink", "_source": "worldwide"}}, {"type": "node", "id": 9933614902, "lat": 46.189874, "lon": -123.833051, "tags": {"amenity": "charging_station", "fee": "yes", "access": "yes", "brand": "WCEH", "operator": "EVCS", "name": "WCEH Astoria", "_source": "worldwide"}}, {"type": "node", "id": 10677242110, "lat": 46.1619, "lon": -123.902152, "tags": {"amenity": "charging_station", "fee": "yes", "access": "yes", "opening_hours": "24/7", "brand": "Electrify America", "operator": "Electrify America", "name": "Electrify America", "addr:street": "South Highway 101", "addr:housenumber": "695", "addr:postcode": "97146", "addr:city": "Warrenton", "addr:country": "US", "socket:chademo": "1", "socket:type1_combo": "4", "capacity": "5", "_source": "worldwide"}}, {"type": "node", "id": 10681884306, "lat": 46.976424, "lon": -123.80719, "tags": {"amenity": "charging_station", "fee": "yes", "access": "customers", "brand": "Electrify America", "operator": "Electrify America", "name": "Electrify America", "_source": "worldwide"}}, {"type": "node", "id": 11035009009, "lat": 46.996786, "lon": -123.443532, "tags": {"amenity": "charging_station", "name": "EV Charging Station", "_source": "worldwide"}}, {"type": "node", "id": 11369323369, "lat": 46.182904, "lon": -123.824432, "tags": {"amenity": "charging_station", "name": "EVconnect", "_source": "worldwide"}}, {"type": "node", "id": 11991236070, "lat": 46.80405, "lon": -123.01224, "tags": {"amenity": "charging_station", "fee": "yes", "access": "yes", "opening_hours": "24/7", "brand": "Tesla Supercharger", "network": "Supercharger", "operator": "Tesla", "name": "Tesla Supercharger", "addr:street": "Elderberry Street Southwest", "addr:housenumber": "19615", "addr:postcode": "98579", "addr:city": "Rochester", "addr:country": "US", "capacity": "12", "_source": "worldwide"}}, {"type": "node", "id": 12049656208, "lat": 46.8013, "lon": -123.01515, "tags": {"amenity": "charging_station", "fee": "yes", "access": "yes", "opening_hours": "24/7", "brand": "Tesla Supercharger", "network": "Supercharger", "operator": "Tesla", "name": "Tesla Supercharger", "addr:street": "Sargent Road Southwest", "addr:housenumber": "19770", "addr:postcode": "98579", "addr:city": "Rochester", "addr:country": "US", "capacity": "12", "_source": "worldwide"}}, {"type": "node", "id": 12332778131, "lat": 46.969665, "lon": -123.82408, "tags": {"amenity": "charging_station", "fee": "yes", "access": "yes", "opening_hours": "24/7", "brand": "bp pulse", "network": "bp pulse", "operator": "bp pulse", "name": "bp pulse", "_source": "worldwide"}}]}