{"id": "2-102", "latMin": 2, "lonMin": 102, "latMax": 3, "lonMax": 103, "generated": "2026-04-16T18:39:07.219Z", "count": 8, "pois": [{"type": "node", "id": 8366319578, "lat": 2.3949, "lon": 102.223687, "tags": {"amenity": "charging_station", "fee": "yes", "access": "yes", "brand": "JomCharge", "operator": "JomCharge", "name": "JomCharge", "addr:street": "North-South Expressway Southbound", "addr:city": "Ayer Keroh", "addr:country": "MY", "socket:chademo": "1", "capacity": "3", "_source": "worldwide"}}, {"type": "node", "id": 8369963394, "lat": 2.398285, "lon": 102.219628, "tags": {"amenity": "charging_station", "fee": "yes", "access": "yes", "brand": "JomCharge", "operator": "JomCharge", "name": "JomCharge", "addr:street": "North-South Expressway Northbound", "addr:city": "Ayer Keroh", "addr:country": "MY", "socket:chademo": "1", "capacity": "3", "_source": "worldwide"}}, {"type": "node", "id": 11382919205, "lat": 2.466703, "lon": 102.119807, "tags": {"amenity": "charging_station", "fee": "yes", "access": "yes", "brand": "Gentari", "network": "Gentari", "operator": "Gentari", "name": "Gentari", "_source": "worldwide"}}, {"type": "node", "id": 11391086505, "lat": 2.445252, "lon": 102.206533, "tags": {"amenity": "charging_station", "fee": "yes", "access": "customers", "opening_hours": "24/7", "brand": "Tesla Supercharger", "operator": "Tesla, Inc.", "name": "Tesla Supercharger", "capacity": "4", "_source": "worldwide"}}, {"type": "node", "id": 11500980138, "lat": 2.398471, "lon": 102.221722, "tags": {"amenity": "charging_station", "fee": "yes", "access": "yes", "brand": "chargEV", "network": "chargEV", "operator": "chargEV", "name": "chargEV", "_source": "worldwide"}}, {"type": "node", "id": 11501042949, "lat": 2.39454, "lon": 102.223953, "tags": {"amenity": "charging_station", "brand": "chargEV", "operator": "chargEV", "name": "chargEV", "_source": "worldwide"}}, {"type": "node", "id": 12671964221, "lat": 2.148265, "lon": 102.698276, "tags": {"amenity": "charging_station", "fee": "yes", "access": "yes", "operator": "Shell Recharge Solutions", "name": "Shell Recharge Charging Station", "capacity": "2", "_source": "worldwide"}}, {"type": "node", "id": 12882368669, "lat": 2.243841, "lon": 102.531658, "tags": {"amenity": "charging_station", "fee": "yes", "access": "yes", "brand": "chargEV", "operator": "chargEV", "name": "chargEV", "_source": "worldwide"}}]}