{"id": "43-0", "latMin": 43, "lonMin": 0, "latMax": 44, "lonMax": 1, "generated": "2026-04-16T18:39:07.906Z", "count": 8, "pois": [{"type": "node", "id": 874915987, "lat": 43.332243, "lon": -0.358848, "tags": {"amenity": "charging_station", "access": "yes", "fee": "yes", "brand": "Tesla Supercharger", "opening_hours": "24/7", "operator": "Tesla", "name": "Pau Supercharger", "addr:street": "Rue Suzanne Lenglen 2", "addr:postcode": "64000", "addr:city": "Pau", "addr:country": "FR", "socket:type2_combo": "8", "socket:type2_combo:output": "250.0 kW", "charging_station:output": "250.0 kW", "capacity": "8", "_source": "worldwide"}}, {"type": "node", "id": 1235013600, "lat": 43.822247, "lon": -0.418724, "tags": {"amenity": "charging_station", "access": "yes", "fee": "yes", "brand": "sydec", "network": "CITEOS Mobive", "opening_hours": "24/7", "operator": "sydec", "name": "sydec - sydec", "addr:country": "FR", "socket:type2_combo": "1", "socket:type2_combo:output": "50 kW", "charging_station:output": "50 kW", "capacity": "2", "authentication:none": "yes", "_source": "worldwide"}}, {"type": "node", "id": 1393011069, "lat": 43.371913, "lon": -0.625411, "tags": {"amenity": "charging_station", "access": "yes", "fee": "yes", "brand": "Izivia", "operator": "Izivia", "name": "Izivia - Izivia", "addr:country": "FR", "capacity": "2", "_source": "worldwide"}}, {"type": "node", "id": 1417528663, "lat": 43.388972, "lon": -0.595895, "tags": {"amenity": "charging_station", "fee": "yes", "opening_hours": "24/7", "operator": "IECharge", "name": "IECharge Os-Marcillon", "addr:country": "FR", "socket:type2_combo": "4", "socket:type2_combo:output": "160.0 kW", "charging_station:output": "160.0 kW", "capacity": "4", "_source": "worldwide"}}, {"type": "node", "id": 1453153560, "lat": 43.725118, "lon": -0.26729, "tags": {"amenity": "charging_station", "access": "yes", "fee": "yes", "brand": "Tesla Supercharger", "network": "Tesla Supercharger", "opening_hours": "24/7", "operator": "Tesla", "name": "Superchargeur Aire sur l'Adour", "addr:country": "FR", "socket:type2_combo": "12", "socket:type2_combo:output": "250.0 kW", "charging_station:output": "250.0 kW", "capacity": "12", "_source": "worldwide"}}, {"type": "node", "id": 1497292863, "lat": 43.226041, "lon": -0.885015, "tags": {"amenity": "charging_station", "access": "yes", "addr:country": "FR", "_source": "worldwide"}}, {"type": "node", "id": 1383743749, "lat": 43.228249, "lon": 0.088187, "tags": {"amenity": "charging_station", "fee": "yes", "network": "DRIVECO", "opening_hours": "24/7", "operator": "DRIVECO", "name": "Carrefour Market - Tarbes Claverie", "addr:country": "FR", "socket:type2": "2", "socket:type2:output": "22.0 kW", "socket:type2_combo": "2", "socket:type2_combo:output": "50.0 kW", "socket:chademo": "2", "socket:chademo:output": "50.0 kW", "charging_station:output": "50.0 kW", "capacity": "4", "authentication:none": "yes", "_source": "worldwide"}}, {"type": "node", "id": 1451933871, "lat": 43.228794, "lon": 0.096025, "tags": {"amenity": "charging_station", "access": "yes", "fee": "yes", "brand": "Tesla Supercharger", "network": "Tesla Supercharger", "opening_hours": "24/7", "operator": "Tesla", "name": "Superchargeur Tarbes Séméac", "addr:country": "FR", "socket:type2_combo": "7", "socket:type2_combo:output": "250.0 kW", "charging_station:output": "250.0 kW", "capacity": "7", "_source": "worldwide"}}]}