{"id": "45-4", "latMin": 45, "lonMin": 4, "latMax": 46, "lonMax": 5, "generated": "2026-04-16T18:39:08.070Z", "count": 646, "pois": [{"type": "node", "id": 576840745, "lat": 45.587475, "lon": 4.787537, "tags": {"amenity": "charging_station", "access": "customers", "fee": "yes", "brand": "Tesla Supercharger", "network": "Tesla Supercharger", "opening_hours": "24/7", "operator": "Tesla", "name": "Vienne - Chasse sur Rhône Supercharger", "addr:country": "FR", "socket:type2_combo": "8", "socket:type2_combo:output": "150.0 kW", "socket:tesla_supercharger": "8", "socket:tesla_supercharger:output": "150 kW", "charging_station:output": "150.0 kW", "capacity": "8", "wheelchair": "yes", "_source": "worldwide"}}, {"type": "node", "id": 10590100863, "lat": 45.584931, "lon": 4.789605, "tags": {"amenity": "charging_station", "access": "yes", "fee": "yes", "network": "Electra", "opening_hours": "24/7", "operator": "Electra", "name": "Electra Chasse-sur-Rhône", "addr:country": "FR", "socket:type2_combo": "4", "socket:type2_combo:output": "150.0 kW", "charging_station:output": "150.0 kW", "capacity": "4", "_source": "worldwide"}}, {"type": "node", "id": 11180969571, "lat": 45.586997, "lon": 4.78797, "tags": {"amenity": "charging_station", "addr:country": "FR", "capacity": "2", "_source": "worldwide"}}, {"type": "node", "id": 20361193, "lat": 45.586664, "lon": 4.785625, "tags": {"amenity": "charging_station", "access": "yes", "fee": "yes", "brand": "Powerdot", "network": "Powerdot France", "opening_hours": "24/7", "operator": "Powerdot", "name": "Powerdot", "addr:country": "FR", "socket:type2": "1", "socket:type2:output": "22.0 kW", "charging_station:output": "22.0 kW", "capacity": "4", "_source": "worldwide"}}, {"type": "node", "id": 576840752, "lat": 45.698039, "lon": 4.975491, "tags": {"amenity": "charging_station", "access": "yes", "fee": "yes", "brand": "Tesla Supercharger", "opening_hours": "24/7", "operator": "Tesla", "name": "Aire de Saint-Priest Supercharger", "addr:country": "FR", "socket:type2_combo": "6", "socket:type2_combo:output": "150.0 kW", "socket:tesla_supercharger": "6", "socket:tesla_supercharger:output": "150.0 kW", "charging_station:output": "150.0 kW", "capacity": "6", "_source": "worldwide"}}, {"type": "node", "id": 576840759, "lat": 45.698472, "lon": 4.977544, "tags": {"amenity": "charging_station", "access": "yes", "fee": "yes", "brand": "Tesla Supercharger", "opening_hours": "24/7", "operator": "Tesla", "name": "Aire de Manissieux Supercharger", "addr:country": "FR", "socket:type2_combo": "6", "socket:type2_combo:output": "150.0 kW", "socket:tesla_supercharger": "6", "socket:tesla_supercharger:output": "150.0 kW", "charging_station:output": "150.0 kW", "capacity": "6", "_source": "worldwide"}}, {"type": "node", "id": 1098470840, "lat": 45.083493, "lon": 4.815351, "tags": {"amenity": "charging_station", "access": "yes", "fee": "yes", "network": "eborn", "opening_hours": "24/7", "operator": "SPBR1", "name": "SPBR1 - eborn", "addr:country": "FR", "socket:type2": "2", "socket:type2:output": "22 kW", "charging_station:output": "22 kW", "capacity": "2", "authentication:none": "yes", "_source": "worldwide"}}, {"type": "node", "id": 1102396489, "lat": 45.458062, "lon": 4.761571, "tags": {"amenity": "charging_station", "addr:country": "FR", "socket:schuko": "1", "socket:schuko:output": "2.3 kW", "charging_station:output": "2.3 kW", "_source": "worldwide"}}, {"type": "node", "id": 9393130705, "lat": 45.457795, "lon": 4.76001, "tags": {"amenity": "charging_station", "access": "customers", "brand": "Tesla, Inc.", "operator": "Hôtel Le Beau Rivage", "name": "Hôtel Le Beau Rivage Destination Charger", "addr:postcode": "69420", "addr:city": "Condrieu", "socket:type2": "2", "socket:type2:output": "22 kW", "charging_station:output": "22 kW", "capacity": "2", "_source": "worldwide"}}, {"type": "node", "id": 11081215984, "lat": 45.461101, "lon": 4.764839, "tags": {"amenity": "charging_station", "fee": "yes", "operator": "SYDER", "name": "Ladestation SYDER", "addr:country": "FR", "socket:type2": "2", "socket:type2:output": "22.0 kW", "charging_station:output": "22.0 kW", "capacity": "2", "_source": "worldwide"}}, {"type": "node", "id": 1182204866, "lat": 45.5738, "lon": 4.811762, "tags": {"amenity": "charging_station", "access": "yes", "fee": "yes", "brand": "Tesla Supercharger", "network": "Tesla Supercharger", "opening_hours": "24/7", "operator": "Tesla", "name": "Chasse-sur-Rhône Supercharger", "addr:country": "FR", "socket:type2_combo": "24", "socket:type2_combo:output": "250.0 kW", "charging_station:output": "250.0 kW", "capacity": "24", "wheelchair": "yes", "_source": "worldwide"}}, {"type": "node", "id": 10801925758, "lat": 45.575059, "lon": 4.809996, "tags": {"amenity": "charging_station", "access": "yes", "fee": "no", "operator": "EUROCOMMERCIAL", "name": "Ladestation EUROCOMMERCIAL", "addr:country": "FR", "capacity": "4", "_source": "worldwide"}}, {"type": "node", "id": 11109170644, "lat": 45.576474, "lon": 4.805603, "tags": {"amenity": "charging_station", "fee": "no", "network": "Lidl", "opening_hours": "24/7", "operator": "Lidl France", "name": "Lidl France - Lidl", "addr:country": "FR", "socket:type2": "4", "socket:type2:output": "22.0 kW", "socket:type2_combo": "2", "socket:type2_combo:output": "90.0 kW", "charging_station:output": "90.0 kW", "authentication:none": "yes", "_source": "worldwide"}}, {"type": "node", "id": 12061028396, "lat": 45.573196, "lon": 4.811997, "tags": {"amenity": "charging_station", "fee": "no", "addr:country": "FR", "_source": "worldwide"}}, {"type": "node", "id": 1298750460, "lat": 45.717161, "lon": 4.814627, "tags": {"amenity": "charging_station", "fee": "yes", "network": "GRAND LYON", "operator": "Izivia", "name": "Izivia - GRAND LYON", "addr:country": "FR", "socket:type2": "1", "socket:type2:output": "22 kW", "charging_station:output": "22 kW", "capacity": "4", "_source": "worldwide"}}, {"type": "node", "id": 1323027454, "lat": 45.439909, "lon": 4.384051, "tags": {"amenity": "charging_station", "network": "e-Totem", "operator": "e-totem / SÉM", "name": "e-totem / SÉM - e-Totem", "addr:country": "FR", "capacity": "2", "_source": "worldwide"}}, {"type": "node", "id": 9822404876, "lat": 45.440584, "lon": 4.387564, "tags": {"amenity": "charging_station", "operator": "e-totem", "name": "Ladestation e-totem", "addr:country": "FR", "capacity": "1", "_source": "worldwide"}}, {"type": "node", "id": 1329840768, "lat": 45.529172, "lon": 4.867928, "tags": {"amenity": "charging_station", "fee": "yes", "network": "Move In Pure", "opening_hours": "24/7", "operator": "Freshmile", "name": "Saint-Romain-en-Gal", "addr:country": "FR", "socket:type2": "1", "socket:type2:output": "43.0 kW", "socket:type2_combo": "2", "socket:type2_combo:output": "40.0 kW", "socket:chademo": "2", "socket:chademo:output": "40.0 kW", "charging_station:output": "43.0 kW", "capacity": "4", "authentication:none": "yes", "_source": "worldwide"}}, {"type": "node", "id": 11978204682, "lat": 45.527814, "lon": 4.874209, "tags": {"amenity": "charging_station", "access": "yes", "fee": "yes", "network": "Réseau eborn", "opening_hours": "24/7", "operator": "Easy Charge", "name": "Easy Charge - Réseau eborn", "addr:country": "FR", "socket:type2": "1", "socket:type2:output": "43.0 kW", "socket:type2_combo": "1", "socket:type2_combo:output": "50.0 kW", "socket:chademo": "1", "socket:chademo:output": "50.0 kW", "charging_station:output": "50.0 kW", "capacity": "2", "authentication:none": "yes", "_source": "worldwide"}}, {"type": "node", "id": 1435277208, "lat": 45.951923, "lon": 4.813391, "tags": {"amenity": "charging_station", "fee": "yes", "opening_hours": "24/7", "operator": "IECharge", "name": "Station de charge rapide IECharge", "addr:country": "FR", "socket:type2_combo": "4", "socket:type2_combo:output": "50 kW", "charging_station:output": "50 kW", "capacity": "4", "_source": "worldwide"}}, {"type": "node", "id": 1489462979, "lat": 45.514674, "lon": 4.864823, "tags": {"amenity": "charging_station", "access": "yes", "fee": "yes", "network": "Freshmile", "operator": "Freshmile", "name": "Ladestation Freshmile", "addr:country": "FR", "socket:type2": "8", "socket:type2:output": "7.4 kW", "charging_station:output": "7.4 kW", "capacity": "8", "authentication:none": "yes", "_source": "worldwide"}}, {"type": "node", "id": 9243262432, "lat": 45.514106, "lon": 4.86467, "tags": {"amenity": "charging_station", "access": "yes", "fee": "yes", "network": "Réseau eborn", "opening_hours": "24/7", "operator": "Easy Charge", "name": "Easy Charge - Réseau eborn", "addr:country": "FR", "socket:type2": "1", "socket:type2:output": "22.0 kW", "socket:type2_combo": "1", "socket:type2_combo:output": "24.0 kW", "socket:chademo": "1", "socket:chademo:output": "24.0 kW", "charging_station:output": "24.0 kW", "capacity": "2", "authentication:none": "yes", "_source": "worldwide"}}, {"type": "node", "id": 9243262433, "lat": 45.513163, "lon": 4.86466, "tags": {"amenity": "charging_station", "fee": "yes", "network": "Réseau eborn", "opening_hours": "24/7", "operator": "Easy Charge", "name": "Easy Charge - Réseau eborn", "addr:country": "FR", "socket:type2": "1", "socket:type2:output": "22.0 kW", "socket:type2_combo": "1", "socket:type2_combo:output": "24.0 kW", "socket:chademo": "1", "socket:chademo:output": "24.0 kW", "charging_station:output": "24.0 kW", "capacity": "2", "authentication:none": "yes", "_source": "worldwide"}}, {"type": "node", "id": 784829744, "lat": 45.459498, "lon": 4.384201, "tags": {"amenity": "charging_station", "network": "e-Totem", "operator": "e-Totem", "name": "Ladestation e-Totem", "addr:country": "FR", "capacity": "2", "_source": "worldwide"}}, {"type": "node", "id": 11109170681, "lat": 45.457303, "lon": 4.392778, "tags": {"amenity": "charging_station", "fee": "no", "network": "Réseau Saint Étienne Métropole", "opening_hours": "24/7", "operator": "E-TOTEM", "name": "E-TOTEM - Réseau Saint Étienne Métropole", "addr:country": "FR", "socket:type2": "1", "socket:type2:output": "22 kW", "charging_station:output": "22 kW", "authentication:none": "yes", "_source": "worldwide"}}, {"type": "node", "id": 2477249070, "lat": 45.76574, "lon": 4.828198, "tags": {"amenity": "charging_station", "access": "yes", "brand": "Izivia", "operator": "Izivia", "name": "Saint-Paul", "addr:country": "FR", "capacity": "4", "_source": "worldwide"}}, {"type": "node", "id": 2520953313, "lat": 45.636073, "lon": 4.197448, "tags": {"amenity": "charging_station", "network": "e-Totem", "operator": "Loire-Forez", "name": "Loire-Forez - e-Totem", "addr:country": "FR", "_source": "worldwide"}}, {"type": "node", "id": 2589076564, "lat": 45.726861, "lon": 4.830599, "tags": {"amenity": "charging_station", "fee": "yes", "operator": "Izivia", "name": "Ladestation Izivia", "addr:country": "FR", "socket:type2": "1", "socket:type2:output": "22 kW", "charging_station:output": "22 kW", "capacity": "4", "_source": "worldwide"}}, {"type": "node", "id": 2589076693, "lat": 45.752509, "lon": 4.868133, "tags": {"amenity": "charging_station", "fee": "yes", "brand": "Izivia", "operator": "Izivia", "name": "Izivia - Izivia", "addr:country": "FR", "capacity": "5", "_source": "worldwide"}}, {"type": "node", "id": 2589076694, "lat": 45.753368, "lon": 4.849685, "tags": {"amenity": "charging_station", "fee": "yes", "network": "GRAND LYON", "opening_hours": "24/7", "operator": "Izivia", "name": "IZIVIA Grand Lyon | Lyon 3 | Aristide Briand", "addr:country": "FR", "socket:type2": "1", "socket:type2:output": "22 kW", "charging_station:output": "22 kW", "capacity": "2", "authentication:none": "yes", "_source": "worldwide"}}, {"type": "node", "id": 2589076709, "lat": 45.757016, "lon": 4.851608, "tags": {"amenity": "charging_station", "fee": "yes", "network": "GRAND LYON", "opening_hours": "24/7", "operator": "Izivia", "name": "Izivia - GRAND LYON", "addr:country": "FR", "socket:type2": "1", "socket:type2:output": "22 kW", "charging_station:output": "22 kW", "capacity": "1", "authentication:none": "yes", "_source": "worldwide"}}, {"type": "node", "id": 9660805822, "lat": 45.752954, "lon": 4.854835, "tags": {"amenity": "charging_station", "fee": "yes", "network": "GRAND LYON", "opening_hours": "24/7", "operator": "Izivia", "name": "IZIVIA Grand Lyon | Lyon | Place Bir-Hakeim", "addr:country": "FR", "socket:type2": "1", "socket:type2:output": "22 kW", "charging_station:output": "22 kW", "capacity": "2", "authentication:none": "yes", "_source": "worldwide"}}, {"type": "node", "id": 10197647066, "lat": 45.754488, "lon": 4.850272, "tags": {"amenity": "charging_station", "fee": "yes", "network": "GRAND LYON", "opening_hours": "24/7", "operator": "Izivia", "name": "IZIVIA Grand Lyon | Lyon | Rue d'Arménie", "addr:country": "FR", "socket:type2": "1", "socket:type2:output": "22 kW", "charging_station:output": "22 kW", "capacity": "2", "authentication:none": "yes", "_source": "worldwide"}}, {"type": "node", "id": 2589076716, "lat": 45.758734, "lon": 4.861632, "tags": {"amenity": "charging_station", "fee": "yes", "network": "GRAND LYON", "opening_hours": "24/7", "operator": "Izivia", "name": "IZIVIA Grand Lyon | Lyon 3 | Villette - Pompidou", "addr:country": "FR", "socket:type2": "1", "socket:type2:output": "22 kW", "charging_station:output": "22 kW", "capacity": "1", "_source": "worldwide"}}, {"type": "node", "id": 11109170646, "lat": 45.761895, "lon": 4.856386, "tags": {"amenity": "charging_station", "fee": "no", "network": "UNIBAIL", "opening_hours": "24/7", "operator": "Izivia", "name": "Izivia - UNIBAIL", "addr:country": "FR", "socket:type2": "1", "socket:type2:output": "22 kW", "charging_station:output": "22 kW", "authentication:none": "yes", "_source": "worldwide"}}, {"type": "node", "id": 11109170718, "lat": 45.758517, "lon": 4.863127, "tags": {"amenity": "charging_station", "fee": "no", "network": "GRAND LYON", "opening_hours": "24/7", "operator": "Izivia", "name": "Izivia - GRAND LYON", "addr:country": "FR", "socket:type2": "1", "socket:type2:output": "22 kW", "socket:type2_combo": "1", "socket:type2_combo:output": "50 kW", "socket:chademo": "1", "socket:chademo:output": "50 kW", "charging_station:output": "50 kW", "capacity": "3", "authentication:none": "yes", "_source": "worldwide"}}, {"type": "node", "id": 12696418802, "lat": 45.760626, "lon": 4.858808, "tags": {"amenity": "charging_station", "name": "Parc LPA Béraudier P1", "addr:country": "FR", "socket:type2": "75", "socket:type2:output": "22 kW", "charging_station:output": "22 kW", "capacity": "75", "_source": "worldwide"}}, {"type": "node", "id": 2589076727, "lat": 45.763011, "lon": 4.854113, "tags": {"amenity": "charging_station", "fee": "yes", "network": "GRAND LYON", "opening_hours": "24/7", "operator": "Izivia", "name": "IZIVIA Grand Lyon | Lyon 3 | Part-Dieu - Deruelle", "addr:country": "FR", "socket:type2": "1", "socket:type2:output": "7.0 kW", "charging_station:output": "7.0 kW", "capacity": "1", "authentication:none": "yes", "_source": "worldwide"}}, {"type": "node", "id": 10786668172, "lat": 45.763294, "lon": 4.848431, "tags": {"amenity": "charging_station", "fee": "yes", "network": "GRAND LYON", "opening_hours": "24/7", "operator": "Izivia", "name": "IZIVIA Grand Lyon | Lyon 3 | Duguesclin - Les Halles", "addr:country": "FR", "socket:type2": "1", "socket:type2:output": "22 kW", "charging_station:output": "22 kW", "capacity": "1", "authentication:none": "yes", "_source": "worldwide"}}, {"type": "node", "id": 10803919137, "lat": 45.761848, "lon": 4.849366, "tags": {"amenity": "charging_station", "fee": "yes", "network": "GRAND LYON", "opening_hours": "24/7", "operator": "Izivia", "name": "IZIVIA Grand Lyon | Lyon 3 | Bonnel", "addr:country": "FR", "socket:type2": "1", "socket:type2:output": "22 kW", "charging_station:output": "22 kW", "capacity": "1", "authentication:none": "yes", "_source": "worldwide"}}, {"type": "node", "id": 10807045930, "lat": 45.759082, "lon": 4.84579, "tags": {"amenity": "charging_station", "fee": "yes", "network": "GRAND LYON", "opening_hours": "24/7", "operator": "Izivia", "name": "IZIVIA Grand Lyon | Lyon 3 | Saxe - Place Guichard", "addr:country": "FR", "socket:type2": "1", "socket:type2:output": "22 kW", "charging_station:output": "22 kW", "capacity": "1", "authentication:none": "yes", "_source": "worldwide"}}, {"type": "node", "id": 2589076730, "lat": 45.767775, "lon": 4.858399, "tags": {"amenity": "charging_station", "fee": "yes", "network": "GRAND LYON", "opening_hours": "24/7", "operator": "Izivia", "name": "IZIVIA Grand Lyon | Lyon 6 | Brotteaux", "addr:country": "FR", "socket:type2": "1", "socket:type2:output": "22 kW", "charging_station:output": "22 kW", "capacity": "1", "authentication:none": "yes", "_source": "worldwide"}}, {"type": "node", "id": 12840098661, "lat": 45.766777, "lon": 4.859048, "tags": {"amenity": "charging_station", "fee": "yes", "network": "QPARK", "opening_hours": "24/7", "operator": "Izivia", "name": "Izivia - QPARK", "addr:country": "FR", "socket:type2": "1", "socket:type2:output": "22 kW", "charging_station:output": "22 kW", "capacity": "1", "authentication:none": "yes", "_source": "worldwide"}}, {"type": "node", "id": 12840098662, "lat": 45.766254, "lon": 4.862361, "tags": {"amenity": "charging_station", "fee": "yes", "network": "GRAND LYON", "opening_hours": "24/7", "operator": "Izivia", "name": "Izivia - GRAND LYON", "addr:country": "FR", "socket:type2": "1", "socket:type2:output": "22 kW", "socket:type2_combo": "1", "socket:type2_combo:output": "50 kW", "socket:chademo": "1", "socket:chademo:output": "50 kW", "charging_station:output": "50 kW", "capacity": "2", "authentication:none": "yes", "_source": "worldwide"}}, {"type": "node", "id": 2589076741, "lat": 45.772198, "lon": 4.853071, "tags": {"amenity": "charging_station", "fee": "yes", "network": "GRAND LYON", "opening_hours": "24/7", "operator": "Izivia", "name": "IZIVIA Grand Lyon | Lyon 6 | Montgolfier", "addr:country": "FR", "socket:type2": "1", "socket:type2:output": "22 kW", "charging_station:output": "22 kW", "capacity": "1", "authentication:none": "yes", "_source": "worldwide"}}, {"type": "node", "id": 12840116763, "lat": 45.773879, "lon": 4.847266, "tags": {"amenity": "charging_station", "fee": "yes", "network": "GRAND LYON", "opening_hours": "24/7", "operator": "Izivia", "name": "Izivia - GRAND LYON", "addr:country": "FR", "socket:type2": "1", "socket:type2:output": "22 kW", "socket:type2_combo": "1", "socket:type2_combo:output": "50 kW", "socket:chademo": "1", "socket:chademo:output": "50 kW", "charging_station:output": "50 kW", "capacity": "2", "authentication:none": "yes", "_source": "worldwide"}}, {"type": "node", "id": 12840116764, "lat": 45.771533, "lon": 4.848488, "tags": {"amenity": "charging_station", "fee": "yes", "network": "GRAND LYON", "opening_hours": "24/7", "operator": "Izivia", "name": "Izivia - GRAND LYON", "addr:country": "FR", "socket:type2": "1", "socket:type2:output": "22 kW", "charging_station:output": "22 kW", "capacity": "1", "authentication:none": "yes", "_source": "worldwide"}}, {"type": "node", "id": 2715615028, "lat": 45.453306, "lon": 4.38778, "tags": {"amenity": "charging_station", "network": "e-Totem", "operator": "Saint-Étienne Métropole", "name": "Saint-Étienne Métropole - e-Totem", "addr:country": "FR", "capacity": "3", "_source": "worldwide"}}, {"type": "node", "id": 6788869343, "lat": 45.454662, "lon": 4.391306, "tags": {"amenity": "charging_station", "access": "yes", "network": "e-Totem", "operator": "e-Totem", "name": "Ladestation e-Totem", "addr:country": "FR", "capacity": "2", "_source": "worldwide"}}, {"type": "node", "id": 2991412272, "lat": 45.747124, "lon": 4.850502, "tags": {"amenity": "charging_station", "brand": "Total", "opening_hours": "24/7", "operator": "TotalEnergies", "name": "TotalEnergies - Total", "addr:country": "FR", "_source": "worldwide"}}, {"type": "node", "id": 3476331833, "lat": 45.803919, "lon": 4.858442, "tags": {"amenity": "charging_station", "access": "yes", "fee": "yes", "opening_hours": "24/7", "operator": "Izivia", "name": "Ladestation Izivia", "addr:country": "FR", "socket:type2": "2", "socket:type2:output": "22.0 kW", "charging_station:output": "22.0 kW", "capacity": "2", "authentication:none": "", "_source": "worldwide"}}, {"type": "node", "id": 11690678508, "lat": 45.805126, "lon": 4.857925, "tags": {"amenity": "charging_station", "fee": "yes", "operator": "Casebike", "name": "Ladestation Casebike", "addr:country": "FR", "capacity": "8", "_source": "worldwide"}}, {"type": "node", "id": 3500822663, "lat": 45.43637, "lon": 4.39187, "tags": {"amenity": "charging_station", "operator": "Effia", "name": "Ladestation Effia", "addr:country": "FR", "capacity": "2", "_source": "worldwide"}}, {"type": "node", "id": 10943758059, "lat": 45.435782, "lon": 4.386182, "tags": {"amenity": "charging_station", "network": "e-Totem", "operator": "e-Totem", "name": "Ladestation e-Totem", "addr:country": "FR", "capacity": "2", "_source": "worldwide"}}, {"type": "node", "id": 10994335574, "lat": 45.438002, "lon": 4.391908, "tags": {"amenity": "charging_station", "network": "e-Totem", "operator": "Saint-Étienne Métropole", "name": "Saint-Étienne Métropole - e-Totem", "addr:country": "FR", "capacity": "2", "_source": "worldwide"}}, {"type": "node", "id": 13018601618, "lat": 45.434938, "lon": 4.389674, "tags": {"amenity": "charging_station", "fee": "yes", "network": "Réseau Saint Étienne Métropole", "opening_hours": "24/7", "operator": "E-TOTEM", "name": "E-TOTEM - Réseau Saint Étienne Métropole", "addr:country": "FR", "socket:type2": "2", "socket:type2:output": "22 kW", "charging_station:output": "22 kW", "capacity": "2", "wheelchair": "yes", "authentication:none": "yes", "_source": "worldwide"}}, {"type": "node", "id": 3500901680, "lat": 45.432939, "lon": 4.415603, "tags": {"amenity": "charging_station", "operator": "Nissan", "name": "Ladestation Nissan", "addr:country": "FR", "_source": "worldwide"}}, {"type": "node", "id": 3847894218, "lat": 45.72063, "lon": 4.930593, "tags": {"amenity": "charging_station", "addr:country": "FR", "socket:type2": "1", "socket:type2:output": "22 kW", "socket:chademo": "1", "socket:chademo:output": "50 kW", "charging_station:output": "50 kW", "capacity": "2", "_source": "worldwide"}}, {"type": "node", "id": 3847894861, "lat": 45.72138, "lon": 4.927867, "tags": {"amenity": "charging_station", "addr:country": "FR", "socket:type2": "1", "socket:type2:output": "22 kW", "socket:chademo": "1", "socket:chademo:output": "50 kW", "charging_station:output": "50 kW", "capacity": "2", "_source": "worldwide"}}, {"type": "node", "id": 10567498631, "lat": 45.722045, "lon": 4.92371, "tags": {"amenity": "charging_station", "access": "yes", "fee": "yes", "brand": "Tesla Supercharger", "opening_hours": "24/7", "operator": "Tesla", "name": "Bron Supercharger", "addr:country": "FR", "socket:type2_combo": "40", "socket:type2_combo:output": "250.0 kW", "charging_station:output": "250.0 kW", "capacity": "40", "_source": "worldwide"}}, {"type": "node", "id": 3973570164, "lat": 45.787375, "lon": 4.7836, "tags": {"amenity": "charging_station", "fee": "yes", "network": "move in pure", "opening_hours": "24/7", "operator": "Freshmile", "name": "Borne de Recharge, Ecully", "addr:country": "FR", "socket:type2": "2", "socket:type2:output": "22 kW", "socket:type2_combo": "2", "socket:type2_combo:output": "50 kW", "socket:chademo": "2", "socket:chademo:output": "50 kW", "charging_station:output": "50 kW", "capacity": "2", "_source": "worldwide"}}, {"type": "node", "id": 4179216371, "lat": 45.756105, "lon": 4.801445, "tags": {"amenity": "charging_station", "access": "yes", "fee": "yes", "brand": "Izivia", "opening_hours": "24/7", "operator": "Izivia", "name": "Izivia - Izivia", "addr:country": "FR", "capacity": "2", "_source": "worldwide"}}, {"type": "node", "id": 12069378987, "lat": 45.754124, "lon": 4.805365, "tags": {"amenity": "charging_station", "access": "customers", "brand": "Izivia Fast", "name": "Ladestation Izivia Fast", "addr:country": "FR", "_source": "worldwide"}}, {"type": "node", "id": 4277898689, "lat": 45.380559, "lon": 4.755759, "tags": {"amenity": "charging_station", "fee": "yes", "network": "move in pure", "opening_hours": "24/7", "operator": "Freshmile", "name": "Borne de recharge Saint-Pierre-de-Boeuf", "addr:country": "FR", "socket:type2": "2", "socket:type2:output": "22 kW", "socket:type2_combo": "2", "socket:type2_combo:output": "50 kW", "socket:chademo": "2", "socket:chademo:output": "50 kW", "charging_station:output": "50 kW", "capacity": "3", "_source": "worldwide"}}, {"type": "node", "id": 4338217821, "lat": 45.590251, "lon": 4.770389, "tags": {"amenity": "charging_station", "fee": "yes", "network": "move in pure", "opening_hours": "24/7", "operator": "Freshmile", "name": "Freshmile - move in pure", "addr:country": "FR", "socket:type2": "2", "socket:type2:output": "22 kW", "socket:type2_combo": "2", "socket:type2_combo:output": "50 kW", "socket:chademo": "2", "socket:chademo:output": "50 kW", "charging_station:output": "50 kW", "capacity": "2", "_source": "worldwide"}}, {"type": "node", "id": 4339498776, "lat": 45.203557, "lon": 4.814179, "tags": {"amenity": "charging_station", "fee": "yes", "network": "move in pure", "opening_hours": "24/7", "operator": "Freshmile", "name": "Freshmile - move in pure", "addr:country": "FR", "socket:type2": "2", "socket:type2:output": "22 kW", "socket:type2_combo": "2", "socket:type2_combo:output": "50 kW", "socket:chademo": "2", "socket:chademo:output": "50 kW", "charging_station:output": "50 kW", "capacity": "3", "_source": "worldwide"}}, {"type": "node", "id": 4339628233, "lat": 45.070542, "lon": 4.828629, "tags": {"amenity": "charging_station", "fee": "yes", "network": "move in pure", "opening_hours": "24/7", "operator": "Freshmile", "name": "Freshmile - move in pure", "addr:country": "FR", "socket:type2": "2", "socket:type2:output": "22 kW", "socket:type2_combo": "2", "socket:type2_combo:output": "50 kW", "socket:chademo": "2", "socket:chademo:output": "50 kW", "charging_station:output": "50 kW", "capacity": "2", "_source": "worldwide"}}, {"type": "node", "id": 12579087095, "lat": 45.069994, "lon": 4.830105, "tags": {"amenity": "charging_station", "addr:country": "FR", "_source": "worldwide"}}, {"type": "node", "id": 4366343963, "lat": 45.422705, "lon": 4.409456, "tags": {"amenity": "charging_station", "fee": "yes", "network": "Réseau Saint Étienne Métropole", "opening_hours": "24/7", "operator": "E-TOTEM", "name": "E-TOTEM - Réseau Saint Étienne Métropole", "addr:country": "FR", "socket:type2": "4", "socket:type2:output": "22 kW", "charging_station:output": "22 kW", "capacity": "2", "authentication:none": "yes", "_source": "worldwide"}}, {"type": "node", "id": 11109170686, "lat": 45.420512, "lon": 4.413167, "tags": {"amenity": "charging_station", "fee": "yes", "network": "Réseau Saint Étienne Métropole", "opening_hours": "24/7", "operator": "E-TOTEM", "name": "E-TOTEM - Réseau Saint Étienne Métropole", "addr:country": "FR", "socket:type2": "2", "socket:type2:output": "22 kW", "charging_station:output": "22 kW", "capacity": "2", "wheelchair": "yes", "authentication:none": "yes", "_source": "worldwide"}}, {"type": "node", "id": 4412108294, "lat": 45.707776, "lon": 4.590286, "tags": {"amenity": "charging_station", "operator": "Chez Momo", "name": "Ladestation Chez Momo", "addr:country": "FR", "_source": "worldwide"}}, {"type": "node", "id": 4565592505, "lat": 45.631251, "lon": 4.819001, "tags": {"amenity": "charging_station", "fee": "yes", "network": "AVIA VOLT", "opening_hours": "Mo-Su 00:00-24:00", "operator": "EASYCHARGE", "name": "EASYCHARGE - AVIA VOLT", "addr:country": "FR", "socket:type2": "1", "socket:type2:output": "22 kW", "socket:type2_combo": "1", "socket:type2_combo:output": "50 kW", "socket:chademo": "1", "socket:chademo:output": "50 kW", "charging_station:output": "50 kW", "capacity": "3", "authentication:none": "yes", "_source": "worldwide"}}, {"type": "node", "id": 5536483530, "lat": 45.631185, "lon": 4.819654, "tags": {"amenity": "charging_station", "fee": "yes", "network": "Corri-dor", "opening_hours": "24/7", "operator": "Sodetrel Mobilité", "name": "Aire de Serezin du Rhône", "addr:country": "FR", "socket:type2": "1", "socket:type2:output": "43.0 kW", "socket:type2_combo": "1", "socket:type2_combo:output": "50.0 kW", "socket:chademo": "1", "socket:chademo:output": "50.0 kW", "charging_station:output": "50.0 kW", "capacity": "1", "authentication:none": "", "_source": "worldwide"}}, {"type": "node", "id": 4732338572, "lat": 45.187807, "lon": 4.799722, "tags": {"amenity": "charging_station", "fee": "yes", "network": "eborn", "opening_hours": "24/7", "operator": "SPBR1", "name": "SPBR1 - eborn", "addr:street": "Place Jean Moulin", "socket:type2": "2", "socket:type2:output": "22 kW", "charging_station:output": "22 kW", "capacity": "2", "authentication:none": "yes", "_source": "worldwide"}}, {"type": "node", "id": 4915401823, "lat": 45.679773, "lon": 4.911885, "tags": {"amenity": "charging_station", "operator": "Satar (corbas)", "name": "Ladestation Satar (corbas)", "addr:country": "FR", "_source": "worldwide"}}, {"type": "node", "id": 4976380821, "lat": 45.229541, "lon": 4.799797, "tags": {"amenity": "charging_station", "operator": "Savajols", "name": "Ladestation Savajols", "addr:country": "FR", "_source": "worldwide"}}, {"type": "node", "id": 5005804823, "lat": 45.085433, "lon": 4.625359, "tags": {"amenity": "charging_station", "fee": "yes", "network": "eborn", "opening_hours": "24/7", "operator": "SPBR1", "name": "SPBR1 - eborn", "addr:country": "FR", "socket:type2": "2", "socket:type2:output": "22 kW", "charging_station:output": "22 kW", "capacity": "2", "authentication:none": "yes", "_source": "worldwide"}}, {"type": "node", "id": 5009395420, "lat": 45.659602, "lon": 4.901285, "tags": {"amenity": "charging_station", "fee": "yes", "network": "Power Dot France", "opening_hours": "24/7", "operator": "Power Dot France", "name": "Ladestation Power Dot France", "addr:country": "FR", "socket:type2": "1", "socket:type2:output": "22 kW", "charging_station:output": "22 kW", "capacity": "2", "_source": "worldwide"}}, {"type": "node", "id": 5132509700, "lat": 45.620633, "lon": 4.747019, "tags": {"amenity": "charging_station", "fee": "yes", "network": "Freshmile France", "opening_hours": "24/7", "operator": "Freshmile", "name": "Mairie Montagny", "addr:country": "FR", "socket:type2": "2", "socket:type2:output": "22 kW", "socket:type2_combo": "1", "socket:type2_combo:output": "50 kW", "charging_station:output": "50 kW", "capacity": "2", "_source": "worldwide"}}, {"type": "node", "id": 5151223628, "lat": 45.122119, "lon": 4.985278, "tags": {"amenity": "charging_station", "access": "yes", "fee": "yes", "network": "Réseau eborn", "opening_hours": "24/7", "operator": "Easy Charge", "name": "Easy Charge - Réseau eborn", "addr:country": "FR", "socket:type2": "2", "socket:type2:output": "22.0 kW", "charging_station:output": "22.0 kW", "capacity": "2", "authentication:none": "yes", "_source": "worldwide"}}, {"type": "node", "id": 5187900721, "lat": 45.752814, "lon": 4.837991, "tags": {"amenity": "charging_station", "fee": "yes", "network": "GRAND LYON", "opening_hours": "24/7", "operator": "Izivia", "name": "IZIVIA Grand Lyon | Lyon 7 | Quai Claude Bernard", "addr:country": "FR", "socket:type2": "1", "socket:type2:output": "22 kW", "charging_station:output": "22 kW", "capacity": "1", "authentication:none": "yes", "_source": "worldwide"}}, {"type": "node", "id": 12840106774, "lat": 45.75674, "lon": 4.841523, "tags": {"amenity": "charging_station", "access": "yes", "fee": "yes", "network": "GRAND LYON", "opening_hours": "24/7", "operator": "Izivia", "name": "Izivia - GRAND LYON", "addr:country": "FR", "socket:type2": "1", "socket:type2:output": "22 kW", "socket:type2_combo": "1", "socket:type2_combo:output": "50 kW", "socket:chademo": "1", "socket:chademo:output": "50 kW", "charging_station:output": "50 kW", "capacity": "2", "authentication:none": "yes", "_source": "worldwide"}}, {"type": "node", "id": 5536483528, "lat": 45.682225, "lon": 4.154907, "tags": {"amenity": "charging_station", "fee": "yes", "network": "Corri-dor", "opening_hours": "24/7", "operator": "Sodetrel Mobilité", "name": "Aire de la Plaine du Forez Ouest", "addr:country": "FR", "socket:type2": "1", "socket:type2:output": "43.0 kW", "socket:type2_combo": "1", "socket:type2_combo:output": "50.0 kW", "socket:chademo": "1", "socket:chademo:output": "50.0 kW", "charging_station:output": "50.0 kW", "capacity": "1", "authentication:none": "", "_source": "worldwide"}}, {"type": "node", "id": 5536483529, "lat": 45.680003, "lon": 4.156052, "tags": {"amenity": "charging_station", "access": "yes", "fee": "yes", "network": "Fastned", "opening_hours": "24/7", "operator": "Fastned", "name": "Aire de la Plaine du Forez Est", "addr:country": "FR", "socket:type2": "2", "socket:type2:output": "22.0 kW", "socket:type2_combo": "7", "socket:type2_combo:output": "300.0 kW", "socket:chademo": "7", "socket:chademo:output": "50.0 kW", "charging_station:output": "300.0 kW", "capacity": "8", "authentication:none": "", "_source": "worldwide"}}, {"type": "node", "id": 5536483531, "lat": 45.65045, "lon": 4.834991, "tags": {"amenity": "charging_station", "access": "yes", "fee": "yes", "network": "TotalEnergies", "opening_hours": "24/7", "operator": "TotalEnergies", "name": "Aire de Solaize", "addr:country": "FR", "socket:type2": "4", "socket:type2:output": "22 kW", "socket:type2_combo": "4", "socket:type2_combo:output": "50 kW", "socket:chademo": "4", "socket:chademo:output": "50 kW", "charging_station:output": "50 kW", "_source": "worldwide"}}, {"type": "node", "id": 5537484285, "lat": 45.001802, "lon": 4.872368, "tags": {"amenity": "charging_station", "access": "yes", "fee": "yes", "network": "Réseau eborn", "opening_hours": "24/7", "operator": "Easy Charge", "name": "Easy Charge - Réseau eborn", "addr:country": "FR", "socket:type2": "2", "socket:type2:output": "22.0 kW", "charging_station:output": "22.0 kW", "capacity": "2", "authentication:none": "yes", "_source": "worldwide"}}, {"type": "node", "id": 5542703077, "lat": 45.017413, "lon": 4.874606, "tags": {"amenity": "charging_station", "fee": "yes", "network": "Corri-dor", "opening_hours": "24/7", "operator": "Sodetrel Mobilité", "name": "Aire de Pont-de-l'Isère-Les Vinays", "addr:country": "FR", "socket:type2": "1", "socket:type2:output": "43.0 kW", "socket:type2_combo": "1", "socket:type2_combo:output": "50.0 kW", "socket:chademo": "1", "socket:chademo:output": "50.0 kW", "charging_station:output": "50.0 kW", "capacity": "1", "authentication:none": "", "_source": "worldwide"}}, {"type": "node", "id": 11065154741, "lat": 45.019313, "lon": 4.876081, "tags": {"amenity": "charging_station", "access": "yes", "fee": "yes", "brand": "Electra", "network": "Electra", "opening_hours": "24/7", "operator": "Electra", "name": "Electra - A7 - Aire de Latitude 45", "addr:country": "FR", "socket:type2": "2", "socket:type2:output": "22.0 kW", "socket:type2_combo": "28", "socket:type2_combo:output": "300.0 kW", "socket:chademo": "2", "socket:chademo:output": "100.0 kW", "charging_station:output": "300.0 kW", "capacity": "32", "authentication:none": "yes", "_source": "worldwide"}}, {"type": "node", "id": 13350819017, "lat": 45.01828, "lon": 4.874284, "tags": {"amenity": "charging_station", "brand": "TotalEnergies", "network": "TotalEnergies Charge Rapide", "opening_hours": "24/7", "operator": "TotalEnergies", "name": "TotalEnergies - TotalEnergies", "addr:country": "FR", "socket:type2": "2", "socket:type2:output": "22 kW", "socket:type2_combo": "8", "socket:type2_combo:output": "50 kW", "socket:chademo": "2", "socket:chademo:output": "50 kW", "charging_station:output": "50 kW", "capacity": "8", "_source": "worldwide"}}, {"type": "node", "id": 5581191023, "lat": 45.451774, "lon": 4.38347, "tags": {"amenity": "charging_station", "addr:country": "FR", "capacity": "1", "_source": "worldwide"}}, {"type": "node", "id": 5685750469, "lat": 45.782558, "lon": 4.879128, "tags": {"amenity": "charging_station", "operator": "Izivia", "name": "Ladestation Izivia", "addr:country": "FR", "capacity": "4", "_source": "worldwide"}}, {"type": "node", "id": 9870327256, "lat": 45.783168, "lon": 4.879515, "tags": {"amenity": "charging_station", "fee": "yes", "opening_hours": "24/7", "operator": "EVBox", "name": "Ladestation EVBox", "addr:country": "FR", "socket:type2": "2", "socket:type2:output": "22 kW", "socket:schuko": "2", "socket:schuko:output": "2.3 kW", "charging_station:output": "22 kW", "capacity": "2", "_source": "worldwide"}}, {"type": "node", "id": 9870340052, "lat": 45.783698, "lon": 4.879497, "tags": {"amenity": "charging_station", "fee": "yes", "opening_hours": "24/7", "operator": "EVlink", "name": "Ladestation EVlink", "addr:country": "FR", "socket:type2": "1", "socket:type2:output": "22 kW", "charging_station:output": "22 kW", "capacity": "1", "_source": "worldwide"}}, {"type": "node", "id": 5730585834, "lat": 45.538949, "lon": 4.184694, "tags": {"amenity": "charging_station", "fee": "yes", "network": "eborn", "opening_hours": "24/7", "operator": "SPBR1", "name": "SPBR1 - eborn", "addr:country": "FR", "socket:type2": "2", "socket:type2:output": "22 kW", "charging_station:output": "22 kW", "capacity": "2", "authentication:none": "yes", "_source": "worldwide"}}, {"type": "node", "id": 5749185683, "lat": 45.744665, "lon": 4.82274, "tags": {"amenity": "charging_station", "fee": "yes", "network": "Move In Pure", "opening_hours": "24/7", "operator": "Freshmile | FR*CN1", "name": "Freshmile | FR*CN1 - Move In Pure", "addr:country": "FR", "socket:type2": "3", "socket:type2:output": "22 kW", "socket:type2_combo": "3", "socket:type2_combo:output": "50 kW", "socket:chademo": "3", "socket:chademo:output": "50 kW", "charging_station:output": "50 kW", "capacity": "5", "authentication:none": "yes", "_source": "worldwide"}}, {"type": "node", "id": 12839479985, "lat": 45.742485, "lon": 4.817804, "tags": {"amenity": "charging_station", "fee": "yes", "network": "GRAND LYON", "opening_hours": "24/7", "operator": "Izivia", "name": "Izivia - GRAND LYON", "addr:country": "FR", "socket:type2": "1", "socket:type2:output": "22 kW", "charging_station:output": "22 kW", "capacity": "2", "authentication:none": "yes", "_source": "worldwide"}}, {"type": "node", "id": 5879529016, "lat": 45.282907, "lon": 4.395017, "tags": {"amenity": "charging_station", "fee": "yes", "network": "eborn", "opening_hours": "24/7", "operator": "SPBR1", "name": "Place Marcellin Champagnat", "addr:country": "FR", "socket:type2": "2", "socket:type2:output": "22 kW", "charging_station:output": "22 kW", "capacity": "2", "authentication:none": "yes", "_source": "worldwide"}}, {"type": "node", "id": 5939312463, "lat": 45.066286, "lon": 4.69543, "tags": {"amenity": "charging_station", "fee": "yes", "network": "eborn", "opening_hours": "24/7", "operator": "SPBR1", "name": "SPBR1 - eborn", "addr:country": "FR", "socket:type2": "2", "socket:type2:output": "22 kW", "charging_station:output": "22 kW", "capacity": "2", "_source": "worldwide"}}, {"type": "node", "id": 5989498131, "lat": 45.940279, "lon": 4.78012, "tags": {"amenity": "charging_station", "fee": "no", "addr:country": "FR", "socket:type2": "2", "socket:type2:output": "22 kW", "charging_station:output": "22 kW", "capacity": "2", "_source": "worldwide"}}, {"type": "node", "id": 6052996482, "lat": 45.558899, "lon": 4.844465, "tags": {"amenity": "charging_station", "access": "yes", "fee": "yes", "network": "Réseau eborn", "opening_hours": "24/7", "operator": "Easy Charge", "name": "Easy Charge - Réseau eborn", "addr:country": "FR", "socket:type2": "2", "socket:type2:output": "22.0 kW", "charging_station:output": "22.0 kW", "capacity": "2", "authentication:none": "yes", "_source": "worldwide"}}, {"type": "node", "id": 6052999622, "lat": 45.505271, "lon": 4.911287, "tags": {"amenity": "charging_station", "access": "yes", "fee": "yes", "network": "Réseau eborn", "opening_hours": "24/7", "operator": "Easy Charge", "name": "Easy Charge - Réseau eborn", "addr:country": "FR", "socket:type2": "2", "socket:type2:output": "22.0 kW", "charging_station:output": "22.0 kW", "capacity": "2", "authentication:none": "yes", "_source": "worldwide"}}, {"type": "node", "id": 6053002488, "lat": 45.438699, "lon": 4.770696, "tags": {"amenity": "charging_station", "access": "yes", "fee": "yes", "network": "Réseau eborn", "opening_hours": "24/7", "operator": "Easy Charge", "name": "Easy Charge - Réseau eborn", "addr:country": "FR", "socket:type2": "2", "socket:type2:output": "22.0 kW", "charging_station:output": "22.0 kW", "capacity": "2", "authentication:none": "yes", "_source": "worldwide"}}, {"type": "node", "id": 6053005699, "lat": 45.396465, "lon": 4.774553, "tags": {"amenity": "charging_station", "access": "yes", "fee": "yes", "network": "Réseau eborn", "opening_hours": "24/7", "operator": "Easy Charge", "name": "Easy Charge - Réseau eborn", "addr:country": "FR", "socket:type2": "2", "socket:type2:output": "22.0 kW", "charging_station:output": "22.0 kW", "capacity": "2", "authentication:none": "yes", "_source": "worldwide"}}, {"type": "node", "id": 6053008096, "lat": 45.420643, "lon": 4.901474, "tags": {"amenity": "charging_station", "access": "yes", "fee": "yes", "network": "Réseau eborn", "opening_hours": "24/7", "operator": "Easy Charge", "name": "Easy Charge - Réseau eborn", "addr:country": "FR", "socket:type2": "2", "socket:type2:output": "22.0 kW", "charging_station:output": "22.0 kW", "capacity": "2", "authentication:none": "yes", "_source": "worldwide"}}, {"type": "node", "id": 6068849031, "lat": 45.339363, "lon": 4.856697, "tags": {"amenity": "charging_station", "access": "yes", "fee": "yes", "network": "Réseau eborn", "opening_hours": "24/7", "operator": "Easy Charge", "name": "Easy Charge - Réseau eborn", "addr:country": "FR", "socket:type2": "2", "socket:type2:output": "22.0 kW", "charging_station:output": "22.0 kW", "capacity": "2", "authentication:none": "yes", "_source": "worldwide"}}, {"type": "node", "id": 6068854612, "lat": 45.349897, "lon": 4.804087, "tags": {"amenity": "charging_station", "access": "yes", "fee": "yes", "network": "Réseau eborn", "opening_hours": "24/7", "operator": "Easy Charge", "name": "Easy Charge - Réseau eborn", "addr:country": "FR", "socket:type2": "2", "socket:type2:output": "22.0 kW", "charging_station:output": "22.0 kW", "capacity": "2", "authentication:none": "yes", "_source": "worldwide"}}, {"type": "node", "id": 6068880554, "lat": 45.362117, "lon": 4.802331, "tags": {"amenity": "charging_station", "access": "yes", "fee": "yes", "network": "Réseau eborn", "opening_hours": "24/7", "operator": "Easy Charge", "name": "Easy Charge - Réseau eborn", "addr:country": "FR", "socket:type2": "2", "socket:type2:output": "22.0 kW", "charging_station:output": "22.0 kW", "capacity": "2", "authentication:none": "yes", "_source": "worldwide"}}, {"type": "node", "id": 6127285533, "lat": 45.761952, "lon": 4.804148, "tags": {"amenity": "charging_station", "addr:country": "FR", "_source": "worldwide"}}, {"type": "node", "id": 6170634905, "lat": 45.424303, "lon": 4.065495, "tags": {"amenity": "charging_station", "fee": "yes", "network": "Mobiloire", "opening_hours": "24/7", "operator": "SIEL42", "name": "SIEL42 - Mobiloire", "addr:country": "FR", "socket:type2": "2", "socket:type2:output": "22 kW", "charging_station:output": "22 kW", "capacity": "2", "_source": "worldwide"}}, {"type": "node", "id": 6219141769, "lat": 45.467526, "lon": 4.353023, "tags": {"amenity": "charging_station", "fee": "yes", "network": "Mobiloire", "opening_hours": "24/7", "operator": "SIEL42", "name": "SIEL42 - Mobiloire", "addr:country": "FR", "socket:type2": "2", "socket:type2:output": "22 kW", "charging_station:output": "22 kW", "capacity": "2", "_source": "worldwide"}}, {"type": "node", "id": 6266889508, "lat": 45.889786, "lon": 4.439581, "tags": {"amenity": "charging_station", "fee": "no", "operator": "Communauté de l'Ouest Rhodanien", "name": "Ladestation Communauté de l'Ouest Rhodanien", "addr:country": "FR", "capacity": "4", "_source": "worldwide"}}, {"type": "node", "id": 6296300117, "lat": 45.485712, "lon": 4.540279, "tags": {"amenity": "charging_station", "fee": "yes", "network": "eborn", "opening_hours": "24/7", "operator": "SPBR1", "name": "SPBR1 - eborn", "addr:country": "FR", "socket:type2": "2", "socket:type2:output": "22 kW", "charging_station:output": "22 kW", "capacity": "2", "authentication:none": "yes", "_source": "worldwide"}}, {"type": "node", "id": 6362896767, "lat": 45.789487, "lon": 4.612046, "tags": {"amenity": "charging_station", "fee": "no", "addr:country": "FR", "_source": "worldwide"}}, {"type": "node", "id": 6370112443, "lat": 45.466004, "lon": 4.352356, "tags": {"amenity": "charging_station", "fee": "yes", "network": "eborn", "opening_hours": "24/7", "operator": "SPBR1", "name": "SPBR1 - eborn", "addr:country": "FR", "socket:type2": "2", "socket:type2:output": "22 kW", "charging_station:output": "22 kW", "capacity": "2", "authentication:none": "yes", "_source": "worldwide"}}, {"type": "node", "id": 6436740655, "lat": 45.596805, "lon": 4.071126, "tags": {"amenity": "charging_station", "fee": "yes", "network": "Mobiloire", "opening_hours": "24/7", "operator": "SIEL42", "name": "Parking avenue thermale", "addr:country": "FR", "socket:type2": "2", "socket:type2:output": "22 kW", "charging_station:output": "22 kW", "capacity": "2", "_source": "worldwide"}}, {"type": "node", "id": 6436740656, "lat": 45.607386, "lon": 4.059801, "tags": {"amenity": "charging_station", "fee": "yes", "network": "Mobiloire", "opening_hours": "24/7", "operator": "SIEL42", "name": "Place Bouvier", "addr:country": "FR", "socket:type2": "2", "socket:type2:output": "22 kW", "charging_station:output": "22 kW", "capacity": "2", "_source": "worldwide"}}, {"type": "node", "id": 6550568608, "lat": 45.440779, "lon": 4.399323, "tags": {"amenity": "charging_station", "operator": "e totem smart charging", "name": "Ladestation e totem smart charging", "addr:country": "FR", "capacity": "3", "_source": "worldwide"}}, {"type": "node", "id": 11065413223, "lat": 45.44293, "lon": 4.400735, "tags": {"amenity": "charging_station", "network": "e-Totem", "operator": "e-totem", "name": "e-totem - e-Totem", "addr:country": "FR", "capacity": "2", "_source": "worldwide"}}, {"type": "node", "id": 11109170675, "lat": 45.442679, "lon": 4.398596, "tags": {"amenity": "charging_station", "fee": "no", "network": "Freshmile", "opening_hours": "24/7", "operator": "Freshmile SAS", "name": "Freshmile SAS - Freshmile", "addr:country": "FR", "socket:type2": "1", "socket:type2:output": "22 kW", "charging_station:output": "22 kW", "authentication:none": "yes", "_source": "worldwide"}}, {"type": "node", "id": 6777561666, "lat": 45.433979, "lon": 4.394546, "tags": {"amenity": "charging_station", "fee": "yes", "network": "Réseau Saint Étienne Métropole", "opening_hours": "24/7", "operator": "e-Totem", "name": "e-Totem - Réseau Saint Étienne Métropole", "addr:country": "FR", "socket:type2": "2", "socket:type2:output": "22 kW", "charging_station:output": "22 kW", "capacity": "2", "wheelchair": "yes", "authentication:none": "yes", "_source": "worldwide"}}, {"type": "node", "id": 10905565351, "lat": 45.43944, "lon": 4.39648, "tags": {"amenity": "charging_station", "operator": "E-TOTEM", "name": "Ladestation E-TOTEM", "addr:country": "FR", "capacity": "2", "_source": "worldwide"}}, {"type": "node", "id": 6805526672, "lat": 45.448795, "lon": 4.444617, "tags": {"amenity": "charging_station", "access": "yes", "fee": "yes", "operator": "E-Totem", "name": "Ladestation E-Totem", "addr:country": "FR", "capacity": "2", "_source": "worldwide"}}, {"type": "node", "id": 6989607199, "lat": 45.170211, "lon": 4.873476, "tags": {"amenity": "charging_station", "access": "yes", "fee": "yes", "brand": "eborn", "network": "Réseau eborn", "opening_hours": "24/7", "operator": "Easy Charge", "name": "Easy Charge - eborn", "addr:country": "FR", "socket:type2": "2", "socket:type2:output": "22.0 kW", "charging_station:output": "22.0 kW", "capacity": "2", "authentication:none": "yes", "_source": "worldwide"}}, {"type": "node", "id": 7040908232, "lat": 45.00998, "lon": 4.39376, "tags": {"amenity": "charging_station", "fee": "yes", "network": "eborn", "opening_hours": "24/7", "operator": "SPBR1", "name": "SPBR1 - eborn", "addr:country": "FR", "socket:type2": "2", "socket:type2:output": "22.0 kW", "charging_station:output": "22.0 kW", "capacity": "2", "authentication:none": "yes", "_source": "worldwide"}}, {"type": "node", "id": 7109098329, "lat": 45.241713, "lon": 4.670735, "tags": {"amenity": "charging_station", "fee": "yes", "network": "E Born", "opening_hours": "24/7", "operator": "SDE07", "name": "SDE07 - E Born", "addr:street": "Rue de la Valette", "socket:type2": "2", "socket:type2:output": "22 kW", "charging_station:output": "22 kW", "_source": "worldwide"}}, {"type": "node", "id": 11783343602, "lat": 45.244751, "lon": 4.674687, "tags": {"amenity": "charging_station", "fee": "yes", "network": "eborn", "opening_hours": "24/7", "operator": "SPBR1", "name": "SPBR1 - eborn", "addr:country": "FR", "socket:type2": "2", "socket:type2:output": "22 kW", "charging_station:output": "22 kW", "capacity": "2", "authentication:none": "yes", "_source": "worldwide"}}, {"type": "node", "id": 7109098331, "lat": 45.188997, "lon": 4.638456, "tags": {"amenity": "charging_station", "fee": "yes", "network": "eborn", "opening_hours": "24/7", "operator": "SPBR1", "name": "SPBR1 - eborn", "addr:country": "FR", "socket:type2": "2", "socket:type2:output": "22 kW", "charging_station:output": "22 kW", "capacity": "2", "_source": "worldwide"}}, {"type": "node", "id": 7109098334, "lat": 45.239887, "lon": 4.798674, "tags": {"amenity": "charging_station", "fee": "yes", "network": "eborn", "opening_hours": "24/7", "operator": "SPBR1", "name": "SPBR1 - eborn", "addr:country": "FR", "socket:type2": "2", "socket:type2:output": "22 kW", "socket:type2_combo": "1", "socket:type2_combo:output": "50 kW", "charging_station:output": "50 kW", "capacity": "2", "_source": "worldwide"}}, {"type": "node", "id": 7109098336, "lat": 45.038481, "lon": 4.831526, "tags": {"amenity": "charging_station", "fee": "yes", "network": "eborn", "opening_hours": "24/7", "operator": "SPBR1", "name": "SPBR1 - eborn", "addr:street": "Chemin de Halage", "socket:type2": "2", "socket:type2:output": "22 kW", "charging_station:output": "22 kW", "capacity": "2", "authentication:none": "yes", "_source": "worldwide"}}, {"type": "node", "id": 7155200998, "lat": 45.936024, "lon": 4.7172, "tags": {"amenity": "charging_station", "fee": "yes", "opening_hours": "24/7", "operator": "Territoire d’énergie Rhône - Syder", "name": "Ladestation Territoire d’énergie Rhône - Syder", "addr:country": "FR", "socket:type2": "1", "socket:type2:output": "22 kW", "socket:cee_blue": "1", "socket:cee_blue:output": "3.7 kW", "charging_station:output": "22 kW", "capacity": "2", "_source": "worldwide"}}, {"type": "node", "id": 7234848574, "lat": 45.403487, "lon": 4.181144, "tags": {"amenity": "charging_station", "fee": "yes", "network": "eborn", "opening_hours": "24/7", "operator": "SPBR1", "name": "SPBR1 - eborn", "addr:country": "FR", "socket:type2": "2", "socket:type2:output": "22 kW", "charging_station:output": "22 kW", "capacity": "2", "authentication:none": "yes", "_source": "worldwide"}}, {"type": "node", "id": 7278644971, "lat": 45.461942, "lon": 4.494366, "tags": {"amenity": "charging_station", "operator": "E. Leclerc", "name": "Ladestation E. Leclerc", "addr:country": "FR", "capacity": "2", "_source": "worldwide"}}, {"type": "node", "id": 7285202165, "lat": 45.494858, "lon": 4.526042, "tags": {"amenity": "charging_station", "access": "yes", "operator": "e-Totem", "name": "Ladestation e-Totem", "addr:country": "FR", "capacity": "2", "_source": "worldwide"}}, {"type": "node", "id": 11889531048, "lat": 45.495397, "lon": 4.526097, "tags": {"amenity": "charging_station", "operator": "TotalEnergies", "name": "Ladestation TotalEnergies", "addr:country": "FR", "capacity": "4", "_source": "worldwide"}}, {"type": "node", "id": 7285204126, "lat": 45.46866, "lon": 4.368095, "tags": {"amenity": "charging_station", "access": "yes", "network": "e-Totem", "operator": "e-Totem", "name": "Ladestation e-Totem", "addr:country": "FR", "capacity": "2", "_source": "worldwide"}}, {"type": "node", "id": 7335459342, "lat": 45.433059, "lon": 4.322276, "tags": {"amenity": "charging_station", "fee": "yes", "network": "eborn", "opening_hours": "24/7", "operator": "SPBR1", "name": "SPBR1 - eborn", "addr:country": "FR", "socket:type2": "2", "socket:type2:output": "22 kW", "charging_station:output": "22 kW", "capacity": "2", "authentication:none": "yes", "_source": "worldwide"}}, {"type": "node", "id": 7435232517, "lat": 45.98891, "lon": 4.742897, "tags": {"amenity": "charging_station", "operator": "L’Eau Vive", "name": "Ladestation L’Eau Vive", "addr:country": "FR", "capacity": "2", "_source": "worldwide"}}, {"type": "node", "id": 7472380027, "lat": 45.889939, "lon": 4.893953, "tags": {"amenity": "charging_station", "fee": "yes", "brand": "Ionity", "network": "Ionity", "opening_hours": "24/7", "operator": "IONITY", "name": "Ionity Mionnay Chatanay", "addr:country": "FR", "socket:type2": "1", "socket:type2:output": "22 kW", "socket:type2_combo": "4", "socket:type2_combo:output": "350.0 kW", "socket:chademo": "1", "socket:chademo:output": "50 kW", "charging_station:output": "350.0 kW", "capacity": "5", "_source": "worldwide"}}, {"type": "node", "id": 7472380028, "lat": 45.884542, "lon": 4.894022, "tags": {"amenity": "charging_station", "fee": "yes", "brand": "Ionity", "network": "Ionity", "opening_hours": "24/7", "operator": "IONITY", "name": "IONITY Mionnay Saint-Galmier", "addr:country": "FR", "socket:type2": "1", "socket:type2:output": "22 kW", "socket:type2_combo": "4", "socket:type2_combo:output": "350.0 kW", "socket:chademo": "1", "socket:chademo:output": "50.0 kW", "charging_station:output": "350.0 kW", "capacity": "5", "_source": "worldwide"}}, {"type": "node", "id": 7472380029, "lat": 45.8192, "lon": 4.90853, "tags": {"amenity": "charging_station", "fee": "yes", "network": "move in pure", "opening_hours": "24/7", "operator": "Freshmile", "name": "Freshmile - move in pure", "addr:country": "FR", "socket:type2": "2", "socket:type2:output": "22 kW", "socket:type2_combo": "2", "socket:type2_combo:output": "50 kW", "socket:chademo": "2", "socket:chademo:output": "50 kW", "charging_station:output": "50 kW", "capacity": "2", "_source": "worldwide"}}, {"type": "node", "id": 7472380030, "lat": 45.725435, "lon": 4.836925, "tags": {"amenity": "charging_station", "fee": "yes", "network": "move in pure", "operator": "Freshmile", "name": "Freshmile - move in pure", "addr:country": "FR", "socket:type2": "1", "socket:type2:output": "22 kW", "socket:chademo": "1", "socket:chademo:output": "50 kW", "charging_station:output": "50 kW", "capacity": "1", "_source": "worldwide"}}, {"type": "node", "id": 8479327762, "lat": 45.725691, "lon": 4.838972, "tags": {"amenity": "charging_station", "operator": "CNR;Engie", "name": "Quai des énergies", "addr:country": "FR", "_source": "worldwide"}}, {"type": "node", "id": 7473189180, "lat": 45.257324, "lon": 4.70591, "tags": {"amenity": "charging_station", "fee": "yes", "network": "eborn", "opening_hours": "24/7", "operator": "SPBR1", "name": "SPBR1 - eborn", "addr:country": "FR", "socket:type2": "2", "socket:type2:output": "22 kW", "charging_station:output": "22 kW", "capacity": "2", "_source": "worldwide"}}, {"type": "node", "id": 7473189182, "lat": 45.261778, "lon": 4.706042, "tags": {"amenity": "charging_station", "fee": "yes", "network": "eborn", "opening_hours": "24/7", "operator": "SPBR1", "name": "SPBR1 - eborn", "addr:country": "FR", "socket:type2": "1", "socket:type2:output": "22 kW", "socket:type2_combo": "1", "socket:type2_combo:output": "50 kW", "socket:chademo": "1", "socket:chademo:output": "50 kW", "charging_station:output": "50 kW", "capacity": "2", "authentication:none": "yes", "_source": "worldwide"}}, {"type": "node", "id": 7473189183, "lat": 45.286182, "lon": 4.726805, "tags": {"amenity": "charging_station", "fee": "yes", "network": "eborn", "opening_hours": "24/7", "operator": "SPBR1", "name": "SPBR1 - eborn", "addr:country": "FR", "socket:type2": "2", "socket:type2:output": "22 kW", "charging_station:output": "22 kW", "capacity": "2", "authentication:none": "yes", "_source": "worldwide"}}, {"type": "node", "id": 7473189184, "lat": 45.271109, "lon": 4.801112, "tags": {"amenity": "charging_station", "fee": "yes", "network": "eborn", "opening_hours": "24/7", "operator": "SPBR1", "name": "SPBR1 - eborn", "addr:country": "FR", "socket:type2": "2", "socket:type2:output": "22 kW", "charging_station:output": "22 kW", "capacity": "2", "authentication:none": "yes", "_source": "worldwide"}}, {"type": "node", "id": 7473225885, "lat": 45.295067, "lon": 4.813137, "tags": {"amenity": "charging_station", "access": "yes", "fee": "yes", "network": "Réseau eborn", "opening_hours": "24/7", "operator": "Easy Charge", "name": "Easy Charge - Réseau eborn", "addr:country": "FR", "socket:type2": "2", "socket:type2:output": "22.0 kW", "charging_station:output": "22.0 kW", "capacity": "2", "authentication:none": "yes", "_source": "worldwide"}}, {"type": "node", "id": 7473225886, "lat": 45.317047, "lon": 4.766763, "tags": {"amenity": "charging_station", "fee": "yes", "network": "eborn", "opening_hours": "24/7", "operator": "SPBR1", "name": "SPBR1 - eborn", "addr:country": "FR", "socket:type2": "1", "socket:type2:output": "22 kW", "socket:type2_combo": "1", "socket:type2_combo:output": "50 kW", "socket:chademo": "1", "socket:chademo:output": "50 kW", "charging_station:output": "50 kW", "capacity": "2", "authentication:none": "yes", "_source": "worldwide"}}, {"type": "node", "id": 7473225887, "lat": 45.319062, "lon": 4.769844, "tags": {"amenity": "charging_station", "access": "yes", "fee": "yes", "network": "Réseau eborn", "opening_hours": "24/7", "operator": "Easy Charge", "name": "Easy Charge - Réseau eborn", "addr:country": "FR", "socket:type2": "2", "socket:type2:output": "22.0 kW", "charging_station:output": "22.0 kW", "capacity": "2", "authentication:none": "yes", "_source": "worldwide"}}, {"type": "node", "id": 7473225888, "lat": 45.369906, "lon": 4.799017, "tags": {"amenity": "charging_station", "access": "yes", "fee": "yes", "network": "Réseau eborn", "opening_hours": "24/7", "operator": "Easy Charge", "name": "Easy Charge - Réseau eborn", "addr:country": "FR", "socket:type2": "2", "socket:type2:output": "22.0 kW", "charging_station:output": "22.0 kW", "capacity": "2", "authentication:none": "yes", "_source": "worldwide"}}, {"type": "node", "id": 7473225890, "lat": 45.472966, "lon": 4.834689, "tags": {"amenity": "charging_station", "access": "yes", "fee": "yes", "network": "Réseau eborn", "opening_hours": "24/7", "operator": "Easy Charge", "name": "Easy Charge - Réseau eborn", "addr:country": "FR", "socket:type2": "1", "socket:type2:output": "43.0 kW", "socket:type2_combo": "1", "socket:type2_combo:output": "50.0 kW", "socket:chademo": "1", "socket:chademo:output": "50.0 kW", "charging_station:output": "50.0 kW", "capacity": "1", "authentication:none": "yes", "_source": "worldwide"}}, {"type": "node", "id": 7473353368, "lat": 45.549523, "lon": 4.584251, "tags": {"amenity": "charging_station", "fee": "yes", "network": "Mobiloire", "opening_hours": "24/7", "operator": "SIEL42", "name": "SIEL42 - Mobiloire", "addr:country": "FR", "socket:type2": "2", "socket:type2:output": "22.0 kW", "charging_station:output": "22.0 kW", "capacity": "2", "_source": "worldwide"}}, {"type": "node", "id": 7473353369, "lat": 45.544693, "lon": 4.595128, "tags": {"amenity": "charging_station", "fee": "yes", "network": "eborn", "opening_hours": "24/7", "operator": "SPBR1", "name": "SPBR1 - eborn", "addr:country": "FR", "socket:type2": "2", "socket:type2:output": "22 kW", "charging_station:output": "22 kW", "capacity": "2", "authentication:none": "yes", "_source": "worldwide"}}, {"type": "node", "id": 7473353371, "lat": 45.479246, "lon": 4.647249, "tags": {"amenity": "charging_station", "fee": "yes", "network": "Mobiloire", "opening_hours": "24/7", "operator": "SIEL42", "name": "SIEL42 - Mobiloire", "addr:country": "FR", "socket:type2": "2", "socket:type2:output": "22 kW", "charging_station:output": "22 kW", "capacity": "2", "_source": "worldwide"}}, {"type": "node", "id": 7488752176, "lat": 45.932583, "lon": 4.725241, "tags": {"amenity": "charging_station", "operator": "Fresh", "name": "Ladestation Fresh", "addr:country": "FR", "socket:type2": "2", "socket:type2:output": "22 kW", "charging_station:output": "22 kW", "capacity": "5", "_source": "worldwide"}}, {"type": "node", "id": 12735317010, "lat": 45.931467, "lon": 4.727701, "tags": {"amenity": "charging_station", "fee": "yes", "opening_hours": "24/7", "operator": "SYDER", "name": "Ladestation SYDER", "addr:country": "FR", "socket:type2_combo": "2", "socket:type2_combo:output": "50 kW", "charging_station:output": "50 kW", "capacity": "2", "authentication:none": "yes", "_source": "worldwide"}}, {"type": "node", "id": 7517102441, "lat": 45.73406, "lon": 4.998194, "tags": {"amenity": "charging_station", "access": "yes", "fee": "yes", "operator": "territoire d'énergie", "name": "Ladestation territoire d'énergie", "addr:country": "FR", "capacity": "2", "_source": "worldwide"}}, {"type": "node", "id": 7573342351, "lat": 45.928134, "lon": 4.954047, "tags": {"amenity": "charging_station", "fee": "no", "opening_hours": "24/7", "operator": "RSE", "name": "Ladestation RSE", "addr:country": "FR", "socket:type2": "1", "socket:type2:output": "22 kW", "socket:type2_combo": "1", "socket:type2_combo:output": "50 kW", "socket:chademo": "1", "socket:chademo:output": "50 kW", "charging_station:output": "50 kW", "capacity": "2", "_source": "worldwide"}}, {"type": "node", "id": 7573378891, "lat": 45.998776, "lon": 4.898355, "tags": {"amenity": "charging_station", "fee": "no", "opening_hours": "24/7", "operator": "RSE", "name": "Ladestation RSE", "addr:country": "FR", "socket:type2": "2", "socket:type2:output": "22 kW", "charging_station:output": "22 kW", "capacity": "2", "authentication:none": "yes", "_source": "worldwide"}}, {"type": "node", "id": 7573378898, "lat": 45.993319, "lon": 4.821579, "tags": {"amenity": "charging_station", "fee": "no", "opening_hours": "24/7", "operator": "RSE", "name": "Ladestation RSE", "addr:country": "FR", "socket:type2": "2", "socket:type2:output": "22 kW", "charging_station:output": "22 kW", "capacity": "2", "authentication:none": "yes", "_source": "worldwide"}}, {"type": "node", "id": 7573378899, "lat": 45.972435, "lon": 4.795953, "tags": {"amenity": "charging_station", "fee": "no", "opening_hours": "24/7", "operator": "RSE", "name": "Ladestation RSE", "addr:country": "FR", "socket:type2": "2", "socket:type2:output": "22 kW", "charging_station:output": "22 kW", "capacity": "2", "authentication:none": "yes", "_source": "worldwide"}}, {"type": "node", "id": 7573378901, "lat": 45.960191, "lon": 4.821913, "tags": {"amenity": "charging_station", "fee": "no", "opening_hours": "24/7", "operator": "RSE", "name": "Ladestation RSE", "addr:country": "FR", "socket:type2": "2", "socket:type2:output": "22 kW", "charging_station:output": "22 kW", "capacity": "2", "authentication:none": "yes", "_source": "worldwide"}}, {"type": "node", "id": 7573378902, "lat": 45.967335, "lon": 4.867061, "tags": {"amenity": "charging_station", "fee": "no", "opening_hours": "24/7", "operator": "RSE", "name": "Ladestation RSE", "addr:country": "FR", "socket:type2": "2", "socket:type2:output": "22 kW", "charging_station:output": "22 kW", "capacity": "2", "authentication:none": "yes", "_source": "worldwide"}}, {"type": "node", "id": 7573378909, "lat": 45.951279, "lon": 4.882514, "tags": {"amenity": "charging_station", "access": "yes", "fee": "yes", "opening_hours": "24/7", "operator": "RSE", "name": "Ladestation RSE", "addr:country": "FR", "socket:type2": "2", "socket:type2:output": "22.0 kW", "charging_station:output": "22.0 kW", "capacity": "2", "_source": "worldwide"}}, {"type": "node", "id": 7573378910, "lat": 45.957514, "lon": 4.940821, "tags": {"amenity": "charging_station", "fee": "no", "opening_hours": "24/7", "operator": "RSE", "name": "Ladestation RSE", "addr:country": "FR", "socket:type2": "2", "socket:type2:output": "22 kW", "charging_station:output": "22 kW", "capacity": "2", "authentication:none": "yes", "_source": "worldwide"}}, {"type": "node", "id": 7577379752, "lat": 45.822353, "lon": 4.872518, "tags": {"amenity": "charging_station", "fee": "yes", "network": "IZIVIA Grand Lyon", "opening_hours": "24/7", "operator": "Izivia", "name": "Izivia - IZIVIA Grand Lyon", "addr:country": "FR", "socket:type2": "4", "socket:type2:output": "22 kW", "charging_station:output": "22 kW", "capacity": "4", "_source": "worldwide"}}, {"type": "node", "id": 7604627587, "lat": 45.85523, "lon": 4.680022, "tags": {"amenity": "charging_station", "access": "customers", "operator": "Izivia", "name": "Lozanne", "addr:country": "FR", "_source": "worldwide"}}, {"type": "node", "id": 7604775087, "lat": 45.871825, "lon": 4.728852, "tags": {"amenity": "charging_station", "access": "customers", "name": "EV", "addr:country": "FR", "capacity": "2", "_source": "worldwide"}}, {"type": "node", "id": 7611601318, "lat": 45.96913, "lon": 4.665177, "tags": {"amenity": "charging_station", "addr:country": "FR", "capacity": "2", "_source": "worldwide"}}, {"type": "node", "id": 7611601319, "lat": 45.806897, "lon": 4.780247, "tags": {"amenity": "charging_station", "fee": "no", "network": "Darty Limonest", "opening_hours": "24/7", "operator": "DRIVECO", "name": "DRIVECO - Darty Limonest", "addr:country": "FR", "socket:type2": "4", "socket:type2:output": "22 kW", "charging_station:output": "22 kW", "capacity": "4", "_source": "worldwide"}}, {"type": "node", "id": 11076056700, "lat": 45.804499, "lon": 4.781983, "tags": {"amenity": "charging_station", "network": "Power Dot", "operator": "Power Dot", "name": "Ladestation Power Dot", "addr:country": "FR", "socket:type2": "1", "socket:type2:output": "22 kW", "charging_station:output": "22 kW", "capacity": "6", "_source": "worldwide"}}, {"type": "node", "id": 11109168765, "lat": 45.802458, "lon": 4.784704, "tags": {"amenity": "charging_station", "fee": "no", "network": "Réseau de recharge Virta Public", "opening_hours": "24/7", "operator": "Virta", "name": "Virta - Réseau de recharge Virta Public", "addr:country": "FR", "socket:type2": "1", "socket:type2:output": "22 kW", "charging_station:output": "22 kW", "capacity": "2", "authentication:none": "yes", "_source": "worldwide"}}, {"type": "node", "id": 7714094624, "lat": 45.820337, "lon": 4.767696, "tags": {"amenity": "charging_station", "fee": "no", "operator": "Auchan - Izivia", "name": "Ladestation Auchan - Izivia", "addr:country": "FR", "socket:type2": "1", "socket:type2:output": "43.0 kW", "socket:chademo": "1", "socket:chademo:output": "50.0 kW", "charging_station:output": "50.0 kW", "capacity": "4", "_source": "worldwide"}}, {"type": "node", "id": 8628587198, "lat": 45.820348, "lon": 4.760195, "tags": {"amenity": "charging_station", "access": "customers", "fee": "yes", "brand": "Tesla Supercharger", "opening_hours": "24/7", "operator": "Tesla", "name": "Dardilly Supercharger", "addr:country": "FR", "socket:type2_combo": "16", "socket:type2_combo:output": "250.0 kW", "charging_station:output": "250.0 kW", "capacity": "16", "_source": "worldwide"}}, {"type": "node", "id": 9520584090, "lat": 45.82177, "lon": 4.762379, "tags": {"amenity": "charging_station", "fee": "yes", "operator": "Mea Energies", "name": "Ladestation Mea Energies", "addr:country": "FR", "socket:type2": "4", "socket:type2:output": "22.0 kW", "charging_station:output": "22.0 kW", "capacity": "4", "_source": "worldwide"}}, {"type": "node", "id": 7777434918, "lat": 45.664881, "lon": 4.894662, "tags": {"amenity": "charging_station", "access": "yes", "fee": "yes", "operator": "Izivia", "name": "Borne de recharge", "addr:country": "FR", "_source": "worldwide"}}, {"type": "node", "id": 7890343012, "lat": 45.921995, "lon": 4.810054, "tags": {"amenity": "charging_station", "access": "yes", "fee": "no", "operator": "Dombes Saône Vallée Communauté de communes", "name": "Ladestation Dombes Saône Vallée Communauté de communes", "addr:country": "FR", "capacity": "2", "_source": "worldwide"}}, {"type": "node", "id": 7942691785, "lat": 45.391256, "lon": 4.285744, "tags": {"amenity": "charging_station", "network": "e-Totem", "operator": "Saint-Étienne Métropole", "name": "Saint-Étienne Métropole - e-Totem", "addr:country": "FR", "capacity": "2", "_source": "worldwide"}}, {"type": "node", "id": 8136328088, "lat": 45.716524, "lon": 4.876206, "tags": {"amenity": "charging_station", "access": "yes", "fee": "no", "operator": "Carrefour", "name": "Ladestation Carrefour", "addr:country": "FR", "capacity": "4", "_source": "worldwide"}}, {"type": "node", "id": 8164409928, "lat": 45.633001, "lon": 4.456088, "tags": {"amenity": "charging_station", "operator": "Rhône Syder", "name": "Ladestation Rhône Syder", "addr:country": "FR", "capacity": "2", "_source": "worldwide"}}, {"type": "node", "id": 8316131974, "lat": 45.739615, "lon": 4.905256, "tags": {"amenity": "charging_station", "access": "yes", "fee": "yes", "brand": "TotalEnergies", "operator": "TotalEnergies", "name": "TotalEnergies - TotalEnergies", "addr:country": "FR", "socket:type2_combo": "1", "socket:type2_combo:output": "43.0 kW", "socket:chademo": "1", "socket:chademo:output": "50.0 kW", "charging_station:output": "50.0 kW", "capacity": "1", "wheelchair": "yes", "_source": "worldwide"}}, {"type": "node", "id": 8402755029, "lat": 45.719951, "lon": 4.88819, "tags": {"amenity": "charging_station", "opening_hours": "24/7", "operator": "Izivia", "name": "Izivia", "addr:country": "FR", "capacity": "4", "_source": "worldwide"}}, {"type": "node", "id": 8529134204, "lat": 45.889587, "lon": 4.743036, "tags": {"amenity": "charging_station", "access": "yes", "operator": "RHÔNE - SYDER", "name": "Territoire d'énergie", "addr:country": "FR", "_source": "worldwide"}}, {"type": "node", "id": 8648372256, "lat": 45.5561, "lon": 4.535325, "tags": {"amenity": "charging_station", "fee": "yes", "network": "eborn", "opening_hours": "24/7", "operator": "SPBR1", "name": "SPBR1 - eborn", "addr:country": "FR", "socket:type2": "2", "socket:type2:output": "22 kW", "charging_station:output": "22 kW", "capacity": "2", "authentication:none": "yes", "_source": "worldwide"}}, {"type": "node", "id": 8672239978, "lat": 45.483832, "lon": 4.789922, "tags": {"amenity": "charging_station", "fee": "yes", "operator": "SYDER", "name": "Ladestation SYDER", "addr:country": "FR", "socket:type2": "2", "socket:type2:output": "22.0 kW", "charging_station:output": "22.0 kW", "capacity": "2", "_source": "worldwide"}}, {"type": "node", "id": 8681871607, "lat": 45.409839, "lon": 4.447115, "tags": {"amenity": "charging_station", "fee": "yes", "network": "eborn", "opening_hours": "24/7", "operator": "SPBR1", "name": "SPBR1 - eborn", "addr:country": "FR", "socket:type2": "2", "socket:type2:output": "22 kW", "charging_station:output": "22 kW", "capacity": "2", "authentication:none": "yes", "_source": "worldwide"}}, {"type": "node", "id": 8682642036, "lat": 45.440291, "lon": 4.423858, "tags": {"amenity": "charging_station", "addr:country": "FR", "_source": "worldwide"}}, {"type": "node", "id": 11109170684, "lat": 45.444738, "lon": 4.422419, "tags": {"amenity": "charging_station", "fee": "no", "network": "Réseau Saint Étienne Métropole", "opening_hours": "24/7", "operator": "e-Totem", "name": "e-Totem - Réseau Saint Étienne Métropole", "addr:country": "FR", "socket:type2": "1", "socket:type2:output": "22 kW", "socket:type2_combo": "1", "socket:type2_combo:output": "50 kW", "socket:chademo": "1", "socket:chademo:output": "50 kW", "charging_station:output": "50 kW", "authentication:none": "yes", "_source": "worldwide"}}, {"type": "node", "id": 8682651166, "lat": 45.450833, "lon": 4.416827, "tags": {"amenity": "charging_station", "addr:country": "FR", "_source": "worldwide"}}, {"type": "node", "id": 8682660922, "lat": 45.446196, "lon": 4.420075, "tags": {"amenity": "charging_station", "fee": "yes", "network": "bp pulse", "opening_hours": "Mo-Su 06:00-01:00", "operator": "bp France", "name": "bp France - bp pulse", "addr:country": "FR", "socket:type2": "1", "socket:type2:output": "22 kW", "socket:type2_combo": "94", "socket:type2_combo:output": "50 kW", "socket:chademo": "3", "socket:chademo:output": "50 kW", "charging_station:output": "50 kW", "capacity": "98", "_source": "worldwide"}}, {"type": "node", "id": 8690526036, "lat": 45.743474, "lon": 4.840622, "tags": {"amenity": "charging_station", "access": "customers", "operator": "Leasys", "name": "Ladestation Leasys", "addr:country": "FR", "capacity": "6", "_source": "worldwide"}}, {"type": "node", "id": 8721852208, "lat": 45.744625, "lon": 4.220639, "tags": {"amenity": "charging_station", "fee": "yes", "network": "eborn", "opening_hours": "24/7", "operator": "SPBR1", "name": "SPBR1 - eborn", "addr:country": "FR", "socket:type2": "2", "socket:type2:output": "22 kW", "charging_station:output": "22 kW", "capacity": "2", "authentication:none": "yes", "_source": "worldwide"}}, {"type": "node", "id": 8836396829, "lat": 45.442685, "lon": 4.768323, "tags": {"amenity": "charging_station", "operator": "E.Leclerc", "name": "Ladestation E.Leclerc", "addr:country": "FR", "_source": "worldwide"}}, {"type": "node", "id": 8847854450, "lat": 45.63571, "lon": 4.462367, "tags": {"amenity": "charging_station", "addr:country": "FR", "capacity": "2", "_source": "worldwide"}}, {"type": "node", "id": 8910404301, "lat": 45.015678, "lon": 4.93694, "tags": {"amenity": "charging_station", "access": "yes", "fee": "yes", "network": "Réseau eborn", "opening_hours": "24/7", "operator": "Easy Charge", "name": "Easy Charge - Réseau eborn", "addr:country": "FR", "socket:type2": "2", "socket:type2:output": "22.0 kW", "charging_station:output": "22.0 kW", "capacity": "2", "authentication:none": "yes", "_source": "worldwide"}}, {"type": "node", "id": 8915719725, "lat": 45.726641, "lon": 4.863197, "tags": {"amenity": "charging_station", "fee": "yes", "network": "GRAND LYON", "opening_hours": "24/7", "operator": "Izivia", "name": "Izivia - GRAND LYON", "addr:country": "FR", "socket:type2": "1", "socket:type2:output": "22 kW", "charging_station:output": "22 kW", "capacity": "4", "authentication:none": "yes", "_source": "worldwide"}}, {"type": "node", "id": 11109171919, "lat": 45.725857, "lon": 4.863168, "tags": {"amenity": "charging_station", "fee": "yes", "network": "GRAND LYON", "opening_hours": "24/7", "operator": "Izivia", "name": "Izivia - GRAND LYON", "addr:country": "FR", "socket:type2": "1", "socket:type2:output": "22 kW", "charging_station:output": "22 kW", "capacity": "2", "authentication:none": "yes", "_source": "worldwide"}}, {"type": "node", "id": 9014641996, "lat": 45.708855, "lon": 4.583526, "tags": {"amenity": "charging_station", "fee": "yes", "network": "IZIVIA", "operator": "Communauté de Commune des Vallons du Lyonnais", "name": "CCVL - Yzeron - Lac du Ronzey", "addr:country": "FR", "socket:type2": "2", "socket:type2:output": "22 kW", "charging_station:output": "22 kW", "capacity": "2", "_source": "worldwide"}}, {"type": "node", "id": 9016654112, "lat": 45.748426, "lon": 4.693158, "tags": {"amenity": "charging_station", "fee": "yes", "network": "IZIVIA", "operator": "Communauté de Commune des Vallons du Lyonnais", "name": "CCVL - Grézieu-La-Varenne - Mairie", "addr:country": "FR", "socket:type2": "2", "socket:type2:output": "22 kW", "charging_station:output": "22 kW", "capacity": "2", "_source": "worldwide"}}, {"type": "node", "id": 9016820182, "lat": 45.739501, "lon": 4.682829, "tags": {"amenity": "charging_station", "operator": "Communauté de Commune des Vallons du Lyonnais", "name": "Parking CCVL", "addr:country": "FR", "socket:type2": "1", "socket:type2:output": "22 kW", "charging_station:output": "22 kW", "capacity": "1", "_source": "worldwide"}}, {"type": "node", "id": 9022646691, "lat": 45.844632, "lon": 4.854278, "tags": {"amenity": "charging_station", "access": "yes", "fee": "yes", "operator": "Grand Lyon", "name": "IZIVIA", "addr:country": "FR", "capacity": "2", "_source": "worldwide"}}, {"type": "node", "id": 9038065730, "lat": 45.69124, "lon": 4.949168, "tags": {"amenity": "charging_station", "access": "yes", "operator": "Izivia", "name": "Bel Air", "addr:street": "Rue du 8 Mai 1945", "capacity": "4", "_source": "worldwide"}}, {"type": "node", "id": 9038065731, "lat": 45.695554, "lon": 4.954361, "tags": {"amenity": "charging_station", "access": "yes", "operator": "Izivia", "name": "Rue Louis Braille Ménival", "addr:country": "FR", "_source": "worldwide"}}, {"type": "node", "id": 11109172025, "lat": 45.69574, "lon": 4.952119, "tags": {"amenity": "charging_station", "fee": "no", "network": "GRAND LYON", "opening_hours": "24/7", "operator": "Izivia", "name": "Izivia - GRAND LYON", "addr:country": "FR", "socket:type2": "1", "socket:type2:output": "22 kW", "charging_station:output": "22 kW", "authentication:none": "yes", "_source": "worldwide"}}, {"type": "node", "id": 9050938178, "lat": 45.679833, "lon": 4.957446, "tags": {"amenity": "charging_station", "operator": "Izivia", "name": "IZIVIA - 983 Rue des Albatros", "addr:country": "FR", "capacity": "2", "_source": "worldwide"}}, {"type": "node", "id": 9053930969, "lat": 45.717454, "lon": 4.927523, "tags": {"amenity": "charging_station", "operator": "Izivia", "name": "Cours du Professeur Jean Bernard", "addr:country": "FR", "capacity": "2", "_source": "worldwide"}}, {"type": "node", "id": 9055468203, "lat": 45.716482, "lon": 4.958152, "tags": {"amenity": "charging_station", "access": "customers", "fee": "yes", "operator": "Lidl", "name": "Lidl Charging Station", "addr:country": "FR", "capacity": "2", "_source": "worldwide"}}, {"type": "node", "id": 9062379929, "lat": 45.832184, "lon": 4.878305, "tags": {"amenity": "charging_station", "fee": "yes", "operator": "Izivia", "name": "Izivia", "addr:country": "FR", "capacity": "2", "_source": "worldwide"}}, {"type": "node", "id": 9073346618, "lat": 45.652137, "lon": 4.795339, "tags": {"amenity": "charging_station", "network": "Izivia", "operator": "Grand Lyon", "name": "Grand Lyon - Izivia", "addr:country": "FR", "capacity": "2", "_source": "worldwide"}}, {"type": "node", "id": 9093908936, "lat": 45.851066, "lon": 4.225585, "tags": {"amenity": "charging_station", "network": "Izivia", "operator": "Avia", "name": "Avia - Izivia", "addr:country": "FR", "socket:type2": "1", "socket:type2:output": "24.0 kW", "socket:chademo": "1", "socket:chademo:output": "50.0 kW", "charging_station:output": "50.0 kW", "capacity": "2", "_source": "worldwide"}}, {"type": "node", "id": 10555243728, "lat": 45.850579, "lon": 4.226124, "tags": {"amenity": "charging_station", "access": "yes", "fee": "yes", "brand": "Ionity", "opening_hours": "24/7", "operator": "IONITY", "name": "IONITY Loire", "addr:country": "FR", "socket:type2_combo": "4", "socket:type2_combo:output": "350.0 kW", "charging_station:output": "350.0 kW", "capacity": "4", "_source": "worldwide"}}, {"type": "node", "id": 9124424906, "lat": 45.809862, "lon": 4.798077, "tags": {"amenity": "charging_station", "addr:country": "FR", "capacity": "2", "_source": "worldwide"}}, {"type": "node", "id": 9140381897, "lat": 45.524737, "lon": 4.873886, "tags": {"amenity": "charging_station", "access": "yes", "fee": "yes", "network": "Réseau eborn", "opening_hours": "24/7", "operator": "Easy Charge", "name": "Easy Charge - Réseau eborn", "addr:country": "FR", "socket:type2": "1", "socket:type2:output": "22.0 kW", "socket:type2_combo": "1", "socket:type2_combo:output": "24.0 kW", "socket:chademo": "1", "socket:chademo:output": "24.0 kW", "charging_station:output": "24.0 kW", "capacity": "2", "authentication:none": "yes", "_source": "worldwide"}}, {"type": "node", "id": 9233046951, "lat": 45.527226, "lon": 4.876652, "tags": {"amenity": "charging_station", "access": "yes", "fee": "yes", "network": "Réseau eborn", "opening_hours": "24/7", "operator": "Easy Charge", "name": "Easy Charge - Réseau eborn", "addr:country": "FR", "socket:type2": "1", "socket:type2:output": "22.0 kW", "socket:type2_combo": "1", "socket:type2_combo:output": "24.0 kW", "socket:chademo": "1", "socket:chademo:output": "24.0 kW", "charging_station:output": "24.0 kW", "capacity": "2", "authentication:none": "yes", "_source": "worldwide"}}, {"type": "node", "id": 9270585313, "lat": 45.525755, "lon": 4.875308, "tags": {"amenity": "charging_station", "access": "yes", "fee": "yes", "network": "Réseau eborn", "opening_hours": "24/7", "operator": "Easy Charge", "name": "Easy Charge - Réseau eborn", "addr:country": "FR", "socket:type2": "1", "socket:type2:output": "22.0 kW", "socket:type2_combo": "1", "socket:type2_combo:output": "24.0 kW", "socket:chademo": "1", "socket:chademo:output": "24.0 kW", "charging_station:output": "24.0 kW", "capacity": "2", "authentication:none": "yes", "_source": "worldwide"}}, {"type": "node", "id": 9438911932, "lat": 45.524641, "lon": 4.875622, "tags": {"amenity": "charging_station", "access": "yes", "fee": "yes", "network": "Réseau eborn", "opening_hours": "24/7", "operator": "Easy Charge", "name": "Easy Charge - Réseau eborn", "addr:country": "FR", "socket:type2": "1", "socket:type2:output": "22.0 kW", "socket:type2_combo": "1", "socket:type2_combo:output": "24.0 kW", "socket:chademo": "1", "socket:chademo:output": "24.0 kW", "charging_station:output": "24.0 kW", "capacity": "2", "authentication:none": "yes", "_source": "worldwide"}}, {"type": "node", "id": 9482844607, "lat": 45.524416, "lon": 4.871612, "tags": {"amenity": "charging_station", "access": "yes", "fee": "yes", "network": "Réseau eborn", "opening_hours": "24/7", "operator": "Easy Charge", "name": "Easy Charge - Réseau eborn", "addr:country": "FR", "socket:type2": "1", "socket:type2:output": "22.0 kW", "socket:type2_combo": "1", "socket:type2_combo:output": "24.0 kW", "socket:chademo": "1", "socket:chademo:output": "24.0 kW", "charging_station:output": "24.0 kW", "capacity": "2", "authentication:none": "yes", "_source": "worldwide"}}, {"type": "node", "id": 12812415055, "lat": 45.523469, "lon": 4.871079, "tags": {"amenity": "charging_station", "access": "yes", "fee": "yes", "network": "Réseau eborn", "opening_hours": "24/7", "operator": "Easy Charge", "name": "Easy Charge - Réseau eborn", "addr:country": "FR", "socket:type2": "1", "socket:type2:output": "22.0 kW", "socket:type2_combo": "1", "socket:type2_combo:output": "24.0 kW", "socket:chademo": "1", "socket:chademo:output": "24.0 kW", "charging_station:output": "24.0 kW", "capacity": "2", "authentication:none": "yes", "_source": "worldwide"}}, {"type": "node", "id": 9140381898, "lat": 45.521011, "lon": 4.872687, "tags": {"amenity": "charging_station", "access": "yes", "fee": "yes", "network": "Réseau eborn", "opening_hours": "24/7", "operator": "Easy Charge", "name": "Easy Charge - Réseau eborn", "addr:country": "FR", "socket:type2": "1", "socket:type2:output": "22.0 kW", "socket:type2_combo": "2", "socket:type2_combo:output": "24.0 kW", "socket:chademo": "1", "socket:chademo:output": "100.0 kW", "charging_station:output": "100.0 kW", "capacity": "2", "_source": "worldwide"}}, {"type": "node", "id": 13648061418, "lat": 45.520756, "lon": 4.868019, "tags": {"amenity": "charging_station", "access": "yes", "fee": "yes", "network": "Réseau eborn", "opening_hours": "24/7", "operator": "Easy Charge", "name": "Easy Charge - Réseau eborn", "addr:country": "FR", "socket:type2": "1", "socket:type2:output": "43.0 kW", "socket:type2_combo": "2", "socket:type2_combo:output": "50.0 kW", "socket:chademo": "1", "socket:chademo:output": "50.0 kW", "charging_station:output": "50.0 kW", "authentication:none": "yes", "_source": "worldwide"}}, {"type": "node", "id": 9169122774, "lat": 45.167649, "lon": 4.293864, "tags": {"amenity": "charging_station", "fee": "yes", "network": "Réseau eborn", "opening_hours": "24/7", "operator": "SPBR1", "name": "SPBR1 - Réseau eborn", "addr:country": "FR", "socket:type2": "2", "socket:type2:output": "22 kW", "charging_station:output": "22 kW", "capacity": "2", "_source": "worldwide"}}, {"type": "node", "id": 9205692157, "lat": 45.852637, "lon": 4.872547, "tags": {"amenity": "charging_station", "fee": "yes", "network": "IZIVIA Grand Lyon", "opening_hours": "24/7", "operator": "IZIVIA Grand Lyon", "name": "Ladestation IZIVIA Grand Lyon", "addr:country": "FR", "socket:type2": "2", "socket:type2:output": "7.0 kW", "charging_station:output": "7.0 kW", "capacity": "2", "_source": "worldwide"}}, {"type": "node", "id": 9207841492, "lat": 45.54383, "lon": 4.264979, "tags": {"amenity": "charging_station", "network": "e-Totem", "operator": "e-Totem", "name": "Ladestation e-Totem", "addr:country": "FR", "capacity": "2", "_source": "worldwide"}}, {"type": "node", "id": 9216678518, "lat": 45.948142, "lon": 4.985247, "tags": {"amenity": "charging_station", "operator": "RSE Régie Services Energie", "name": "Ladestation RSE Régie Services Energie", "addr:country": "FR", "capacity": "2", "_source": "worldwide"}}, {"type": "node", "id": 9270012532, "lat": 45.842428, "lon": 4.834574, "tags": {"amenity": "charging_station", "fee": "no", "operator": "Intermarché - Rochetaillée", "name": "Ladestation Intermarché - Rochetaillée", "addr:country": "FR", "socket:type2": "2", "socket:type2:output": "22 kW", "socket:schuko": "2", "socket:schuko:output": "2.3 kW", "charging_station:output": "22 kW", "capacity": "2", "_source": "worldwide"}}, {"type": "node", "id": 9299887043, "lat": 45.840672, "lon": 4.834609, "tags": {"amenity": "charging_station", "access": "yes", "fee": "yes", "network": "Izivia Grand Lyon", "opening_hours": "24/7", "operator": "Izivia", "name": "Izivia - Izivia Grand Lyon", "addr:country": "FR", "socket:type2": "2", "socket:type2:output": "7.0 kW", "charging_station:output": "7.0 kW", "capacity": "2", "_source": "worldwide"}}, {"type": "node", "id": 9274423742, "lat": 45.32713, "lon": 4.805332, "tags": {"amenity": "charging_station", "access": "yes", "fee": "yes", "brand": "Tesla Supercharger", "network": "Tesla Supercharger", "opening_hours": "24/7", "operator": "Tesla", "name": "Salaise-sur-Sanne Supercharger", "addr:country": "FR", "socket:type2_combo": "28", "socket:type2_combo:output": "250.0 kW", "charging_station:output": "250.0 kW", "capacity": "28", "wheelchair": "yes", "_source": "worldwide"}}, {"type": "node", "id": 9393131760, "lat": 45.32957, "lon": 4.805605, "tags": {"amenity": "charging_station", "fee": "no", "network": "Inconnu", "operator": "Inconnu", "name": "Green 7 Charging Station", "addr:postcode": "38150", "addr:city": "Salaise-sur-Sanne", "addr:country": "FR", "capacity": "5", "_source": "worldwide"}}, {"type": "node", "id": 9303176302, "lat": 45.848027, "lon": 4.831573, "tags": {"amenity": "charging_station", "addr:country": "FR", "_source": "worldwide"}}, {"type": "node", "id": 9330663655, "lat": 45.852404, "lon": 4.357824, "tags": {"amenity": "charging_station", "addr:country": "FR", "_source": "worldwide"}}, {"type": "node", "id": 9346149802, "lat": 45.791288, "lon": 4.466636, "tags": {"amenity": "charging_station", "access": "yes", "addr:country": "FR", "capacity": "2", "_source": "worldwide"}}, {"type": "node", "id": 9352364016, "lat": 45.696628, "lon": 4.884587, "tags": {"amenity": "charging_station", "fee": "yes", "operator": "Izivia", "name": "Ladestation Izivia", "addr:country": "FR", "capacity": "2", "_source": "worldwide"}}, {"type": "node", "id": 9376786776, "lat": 45.061273, "lon": 4.304101, "tags": {"amenity": "charging_station", "fee": "yes", "network": "Réseau eborn", "opening_hours": "24/7", "operator": "SPBR1", "name": "SPBR1 - Réseau eborn", "addr:country": "FR", "socket:type2": "2", "socket:type2:output": "22 kW", "socket:type2_combo": "2", "socket:type2_combo:output": "50 kW", "socket:chademo": "2", "socket:chademo:output": "50 kW", "charging_station:output": "50 kW", "capacity": "2", "_source": "worldwide"}}, {"type": "node", "id": 9393026644, "lat": 45.32288, "lon": 4.995034, "tags": {"amenity": "charging_station", "access": "yes", "fee": "yes", "network": "Réseau eborn", "opening_hours": "24/7", "operator": "Easy Charge", "name": "Easy Charge - Réseau eborn", "addr:country": "FR", "socket:type2": "2", "socket:type2:output": "22.0 kW", "charging_station:output": "22.0 kW", "capacity": "2", "authentication:none": "yes", "_source": "worldwide"}}, {"type": "node", "id": 9393070857, "lat": 45.290297, "lon": 4.953623, "tags": {"amenity": "charging_station", "fee": "no", "brand": "Grolleau", "network": "Grolleau", "opening_hours": "Mo-Sa 08:45-19:45", "operator": "Super U", "name": "Super U - St Sorlin - Grolleau", "addr:country": "FR", "capacity": "2", "_source": "worldwide"}}, {"type": "node", "id": 10689142341, "lat": 45.290898, "lon": 4.952403, "tags": {"amenity": "charging_station", "fee": "yes", "network": "Eborn", "opening_hours": "24/7", "operator": "SPBR1", "name": "SPBR1 - Eborn", "addr:country": "FR", "socket:type2": "2", "socket:type2:output": "22.0 kW", "charging_station:output": "22.0 kW", "capacity": "2", "_source": "worldwide"}}, {"type": "node", "id": 9393087440, "lat": 45.27995, "lon": 4.820437, "tags": {"amenity": "charging_station", "fee": "yes", "opening_hours": "24/7", "operator": "Lidl", "name": "Lidl Charging Station Saint-Rambert d'Albon", "addr:country": "FR", "socket:type2": "2", "socket:type2:output": "22.0 kW", "charging_station:output": "22.0 kW", "capacity": "2", "authentication:none": "yes", "_source": "worldwide"}}, {"type": "node", "id": 13508375579, "lat": 45.279449, "lon": 4.82127, "tags": {"amenity": "charging_station", "fee": "yes", "opening_hours": "24/7", "operator": "Lidl", "name": "Lidl Charging Station Saint-Rambert d'Albon", "addr:country": "FR", "socket:type2_combo": "2", "socket:type2_combo:output": "50 kW", "charging_station:output": "50 kW", "capacity": "2", "authentication:none": "yes", "_source": "worldwide"}}, {"type": "node", "id": 9393090693, "lat": 45.271997, "lon": 4.886559, "tags": {"amenity": "charging_station", "access": "yes", "fee": "yes", "network": "Réseau eborn", "opening_hours": "24/7", "operator": "Easy Charge", "name": "Easy Charge - Réseau eborn", "addr:country": "FR", "socket:type2": "2", "socket:type2:output": "22.0 kW", "charging_station:output": "22.0 kW", "capacity": "2", "authentication:none": "yes", "_source": "worldwide"}}, {"type": "node", "id": 10154877205, "lat": 45.271888, "lon": 4.877976, "tags": {"amenity": "charging_station", "access": "customers", "network": "LAFUMA MOBILIER", "operator": "Izivia", "name": "Izivia - LAFUMA MOBILIER", "addr:country": "FR", "socket:type2": "2", "socket:type2:output": "7.0 kW", "charging_station:output": "7.0 kW", "capacity": "2", "authentication:none": "yes", "_source": "worldwide"}}, {"type": "node", "id": 9393131759, "lat": 45.343884, "lon": 4.805771, "tags": {"amenity": "charging_station", "fee": "yes", "name": "Carrefour Salaise Charging Station", "addr:postcode": "38150", "addr:city": "Salaise-sur-Sanne", "addr:country": "FR", "capacity": "4", "_source": "worldwide"}}, {"type": "node", "id": 11771065494, "lat": 45.341903, "lon": 4.8051, "tags": {"amenity": "charging_station", "fee": "yes", "network": "Allego - Carrefour Salaise", "operator": "Carrefour", "name": "Carrefour - Allego - Carrefour Salaise", "addr:country": "FR", "socket:type2": "4", "socket:type2:output": "22.0 kW", "socket:type2_combo": "4", "socket:type2_combo:output": "300.0 kW", "socket:chademo": "1", "socket:chademo:output": "50.0 kW", "charging_station:output": "300.0 kW", "capacity": "10", "authentication:none": "yes", "_source": "worldwide"}}, {"type": "node", "id": 9425175331, "lat": 45.143395, "lon": 4.116134, "tags": {"amenity": "charging_station", "fee": "yes", "network": "Réseau eborn", "opening_hours": "24/7", "operator": "SPBR1", "name": "SPBR1 - Réseau eborn", "addr:country": "FR", "socket:type2": "2", "socket:type2:output": "22 kW", "charging_station:output": "22 kW", "capacity": "2", "_source": "worldwide"}}, {"type": "node", "id": 9431803812, "lat": 45.434374, "lon": 4.417675, "tags": {"amenity": "charging_station", "fee": "yes", "network": "Réseau Saint Étienne Métropole", "opening_hours": "24/7", "operator": "E-TOTEM", "name": "E-TOTEM - Réseau Saint Étienne Métropole", "addr:country": "FR", "socket:type2": "4", "socket:type2:output": "22 kW", "charging_station:output": "22 kW", "authentication:none": "yes", "_source": "worldwide"}}, {"type": "node", "id": 9434192093, "lat": 45.529127, "lon": 4.620032, "tags": {"amenity": "charging_station", "operator": "e-totem; saint Étienne métropole", "name": "Ladestation e-totem; saint Étienne métropole", "addr:country": "FR", "capacity": "2", "_source": "worldwide"}}, {"type": "node", "id": 11109169151, "lat": 45.53135, "lon": 4.623377, "tags": {"amenity": "charging_station", "fee": "no", "network": "Réseau Saint Étienne Métropole", "opening_hours": "24/7", "operator": "E-TOTEM", "name": "E-TOTEM - Réseau Saint Étienne Métropole", "addr:country": "FR", "socket:type2": "1", "socket:type2:output": "22 kW", "charging_station:output": "22 kW", "authentication:none": "yes", "_source": "worldwide"}}, {"type": "node", "id": 9472286921, "lat": 45.213725, "lon": 4.344056, "tags": {"amenity": "charging_station", "fee": "yes", "network": "Réseau eborn", "opening_hours": "24/7", "operator": "SPBR1", "name": "SPBR1 - Réseau eborn", "addr:country": "FR", "socket:type2": "2", "socket:type2:output": "22 kW", "charging_station:output": "22 kW", "capacity": "2", "_source": "worldwide"}}, {"type": "node", "id": 12998931320, "lat": 45.213632, "lon": 4.346866, "tags": {"amenity": "charging_station", "addr:country": "FR", "_source": "worldwide"}}, {"type": "node", "id": 9482016457, "lat": 45.940336, "lon": 4.770065, "tags": {"amenity": "charging_station", "fee": "no", "addr:country": "FR", "socket:type2": "2", "socket:type2:output": "11.0 kW", "charging_station:output": "11.0 kW", "capacity": "2", "_source": "worldwide"}}, {"type": "node", "id": 9512443388, "lat": 45.769466, "lon": 4.837571, "tags": {"amenity": "charging_station", "access": "yes", "fee": "yes", "brand": "Izivia", "network": "GRAND LYON", "opening_hours": "24/7", "operator": "Izivia", "name": "Tolozan", "addr:country": "FR", "socket:type2": "1", "socket:type2:output": "22 kW", "charging_station:output": "22 kW", "capacity": "1", "authentication:none": "yes", "_source": "worldwide"}}, {"type": "node", "id": 9512443392, "lat": 45.769006, "lon": 4.842888, "tags": {"amenity": "charging_station", "access": "yes", "fee": "yes", "network": "GRAND LYON", "opening_hours": "24/7", "operator": "Izivia", "name": "IZIVIA Grand Lyon | Lyon 6 | Foch - Lyautey", "addr:country": "FR", "socket:type2": "1", "socket:type2:output": "22 kW", "charging_station:output": "22 kW", "capacity": "1", "authentication:none": "yes", "_source": "worldwide"}}, {"type": "node", "id": 9551347330, "lat": 45.766003, "lon": 4.844556, "tags": {"amenity": "charging_station", "access": "yes", "fee": "yes", "network": "GRAND LYON", "opening_hours": "24/7", "operator": "Izivia", "name": "IZIVIA Grand Lyon | Lyon 6 | Edgar Quinet", "addr:country": "FR", "socket:type2": "1", "socket:type2:output": "22 kW", "charging_station:output": "22 kW", "capacity": "4", "authentication:none": "yes", "_source": "worldwide"}}, {"type": "node", "id": 9562453562, "lat": 45.785309, "lon": 4.734407, "tags": {"amenity": "charging_station", "network": "Izivia", "operator": "Grand Lyon", "name": "Grand Lyon - Izivia", "addr:country": "FR", "_source": "worldwide"}}, {"type": "node", "id": 9588696327, "lat": 45.503719, "lon": 4.857867, "tags": {"amenity": "charging_station", "fee": "yes", "network": "DRIVECO", "opening_hours": "24/7", "operator": "DRIVECO", "name": "Ladestation DRIVECO", "addr:country": "FR", "socket:type2": "2", "socket:type2:output": "22 kW", "socket:type2_combo": "2", "socket:type2_combo:output": "50 kW", "socket:chademo": "2", "socket:chademo:output": "50 kW", "charging_station:output": "50 kW", "capacity": "4", "authentication:none": "yes", "_source": "worldwide"}}, {"type": "node", "id": 9590868238, "lat": 45.835382, "lon": 4.845031, "tags": {"amenity": "charging_station", "brand": "Izivia Grand Lyon", "network": "Izivia Grand Lyon", "operator": "Izivia Grand Lyon", "name": "Izivia Grand Lyon - Izivia Grand Lyon", "addr:country": "FR", "socket:type2": "1", "socket:type2:output": "22.0 kW", "socket:type2_combo": "1", "socket:type2_combo:output": "50 kW", "socket:chademo": "1", "socket:chademo:output": "24.0 kW", "charging_station:output": "50 kW", "capacity": "2", "_source": "worldwide"}}, {"type": "node", "id": 9590868239, "lat": 45.835413, "lon": 4.844928, "tags": {"amenity": "charging_station", "brand": "Izivia Grand Lyon", "network": "Izivia Grand Lyon", "operator": "Izivia Grand Lyon", "name": "Izivia Grand Lyon - Izivia Grand Lyon", "addr:country": "FR", "socket:type2": "1", "socket:type2:output": "22.0 kW", "socket:type2_combo": "1", "socket:type2_combo:output": "24.0 kW", "socket:chademo": "1", "socket:chademo:output": "24.0 kW", "charging_station:output": "24.0 kW", "capacity": "2", "_source": "worldwide"}}, {"type": "node", "id": 9641389457, "lat": 45.678955, "lon": 4.776192, "tags": {"amenity": "charging_station", "addr:country": "FR", "capacity": "2", "_source": "worldwide"}}, {"type": "node", "id": 11109168823, "lat": 45.675954, "lon": 4.768718, "tags": {"amenity": "charging_station", "fee": "no", "network": "CGED CGED BRIGNAIS", "opening_hours": "Mo 06:30-19:00,Tu 06:30-19:00,We 06:30-19:00,Th 06:30-19:00,Fr 06:30-19:00", "operator": "CGED CGED BRIGNAIS", "name": "Ladestation CGED CGED BRIGNAIS", "addr:country": "FR", "socket:type2": "1", "socket:type2:output": "22 kW", "charging_station:output": "22 kW", "authentication:none": "yes", "_source": "worldwide"}}, {"type": "node", "id": 12312585923, "lat": 45.678156, "lon": 4.77509, "tags": {"amenity": "charging_station", "addr:country": "FR", "_source": "worldwide"}}, {"type": "node", "id": 9661468657, "lat": 45.668212, "lon": 4.755689, "tags": {"amenity": "charging_station", "access": "customers", "addr:country": "FR", "capacity": "6", "_source": "worldwide"}}, {"type": "node", "id": 9665007223, "lat": 45.202233, "lon": 4.553561, "tags": {"amenity": "charging_station", "fee": "yes", "network": "eborn", "opening_hours": "24/7", "operator": "SPBR1", "name": "SPBR1 - eborn", "addr:country": "FR", "socket:type2": "2", "socket:type2:output": "22 kW", "charging_station:output": "22 kW", "capacity": "2", "authentication:none": "yes", "_source": "worldwide"}}, {"type": "node", "id": 9671558620, "lat": 45.760094, "lon": 4.908035, "tags": {"amenity": "charging_station", "addr:country": "FR", "socket:type2": "4", "socket:type2:output": "22 kW", "charging_station:output": "22 kW", "capacity": "4", "_source": "worldwide"}}, {"type": "node", "id": 9689237998, "lat": 45.920804, "lon": 4.882356, "tags": {"amenity": "charging_station", "access": "yes", "fee": "yes", "opening_hours": "24/7", "operator": "RSE", "name": "Ladestation RSE", "addr:country": "FR", "socket:type2": "2", "socket:type2:output": "22.0 kW", "charging_station:output": "22.0 kW", "capacity": "2", "_source": "worldwide"}},