{"id": "51-36", "latMin": 51, "lonMin": 36, "latMax": 52, "lonMax": 37, "generated": "2026-04-16T18:39:08.542Z", "count": 6, "pois": [{"type": "node", "id": 9280352512, "lat": 51.710133, "lon": 36.074908, "tags": {"amenity": "charging_station", "name": "EV Charging Station", "_source": "worldwide"}}, {"type": "node", "id": 13105336887, "lat": 51.733432, "lon": 36.192498, "tags": {"amenity": "charging_station", "brand": "Бери заряд!", "name": "Бери заряд!", "_source": "worldwide"}}, {"type": "node", "id": 13123505858, "lat": 51.742074, "lon": 36.189585, "tags": {"amenity": "charging_station", "brand": "Бери Заряд!", "name": "Бери Заряд!", "_source": "worldwide"}}, {"type": "node", "id": 13140467963, "lat": 51.750816, "lon": 36.227217, "tags": {"amenity": "charging_station", "brand": "Бери заряд!", "name": "Бери заряд!", "_source": "worldwide"}}, {"type": "node", "id": 13422317911, "lat": 51.819202, "lon": 36.161078, "tags": {"amenity": "charging_station", "opening_hours": "Mo-Su 10:00-22:00", "brand": "Бери заряд", "name": "Бери заряд", "_source": "worldwide"}}, {"type": "node", "id": 13459518072, "lat": 51.698786, "lon": 36.161775, "tags": {"amenity": "charging_station", "opening_hours": "Mo-Fr 07:00-20:00", "name": "Зарядная станция", "_source": "worldwide"}}]}