{"id": "62-8", "latMin": 62, "lonMin": 8, "latMax": 63, "lonMax": 9, "generated": "2026-04-16T18:39:08.799Z", "count": 12, "pois": [{"type": "node", "id": 6025956786, "lat": 62.193236, "lon": 8.536518, "tags": {"amenity": "charging_station", "access": "yes", "brand": "Mer", "opening_hours": "24/7", "name": "Mer Coop Marked Lesjaverk", "addr:country": "NO", "socket:type2": "2", "socket:type2:output": "22.0 kW", "socket:type2_combo": "2", "socket:type2_combo:output": "50.0 kW", "socket:chademo": "2", "socket:chademo:output": "50.0 kW", "charging_station:output": "50.0 kW", "capacity": "4", "_source": "worldwide"}}, {"type": "node", "id": 6025956830, "lat": 62.258947, "lon": 8.208046, "tags": {"amenity": "charging_station", "access": "yes", "brand": "Eviny", "name": "Eviny Bunnpris Bjorli", "addr:country": "NO", "socket:type2_combo": "8", "socket:type2_combo:output": "350.0 kW", "socket:chademo": "3", "socket:chademo:output": "50.0 kW", "charging_station:output": "350.0 kW", "capacity": "8", "_source": "worldwide"}}, {"type": "node", "id": 13168097079, "lat": 62.258465, "lon": 8.208009, "tags": {"amenity": "charging_station", "access": "yes", "fee": "yes", "brand": "Tesla Supercharger", "opening_hours": "24/7", "operator": "Tesla", "name": "Bjorli Supercharger", "addr:country": "NO", "socket:type2_combo": "12", "socket:type2_combo:output": "250.0 kW", "charging_station:output": "250.0 kW", "capacity": "12", "_source": "worldwide"}}, {"type": "node", "id": 6068802281, "lat": 62.90934, "lon": 8.20767, "tags": {"amenity": "charging_station", "access": "yes", "brand": "Mer", "opening_hours": "24/7", "name": "Mer Extra Tingvoll", "addr:country": "NO", "socket:type2": "2", "socket:type2:output": "22.0 kW", "socket:type2_combo": "2", "socket:type2_combo:output": "50.0 kW", "socket:chademo": "2", "socket:chademo:output": "50.0 kW", "charging_station:output": "50.0 kW", "capacity": "4", "_source": "worldwide"}}, {"type": "node", "id": 6068812220, "lat": 62.673698, "lon": 8.568378, "tags": {"amenity": "charging_station", "access": "yes", "brand": "Mer", "opening_hours": "24/7", "name": "Mer Extra Sunndalsøra", "addr:country": "NO", "socket:type2": "2", "socket:type2:output": "22.0 kW", "socket:type2_combo": "2", "socket:type2_combo:output": "50.0 kW", "socket:chademo": "2", "socket:chademo:output": "50.0 kW", "charging_station:output": "50.0 kW", "capacity": "4", "_source": "worldwide"}}, {"type": "node", "id": 11169096730, "lat": 62.672076, "lon": 8.569267, "tags": {"amenity": "charging_station", "access": "yes", "brand": "Eviny", "name": "Eviny Alti Sunndal", "addr:country": "NO", "socket:type2": "1", "socket:type2:output": "22.0 kW", "socket:type2_combo": "4", "socket:type2_combo:output": "200.0 kW", "socket:chademo": "2", "socket:chademo:output": "62.0 kW", "charging_station:output": "200.0 kW", "capacity": "5", "_source": "worldwide"}}, {"type": "node", "id": 11174981467, "lat": 62.673721, "lon": 8.559928, "tags": {"amenity": "charging_station", "brand": "Mer", "operator": "Sunndal Energi Nett", "name": "Sunndal Energi Nett - Mer", "addr:country": "NO", "_source": "worldwide"}}, {"type": "node", "id": 12776821013, "lat": 62.674027, "lon": 8.56511, "tags": {"amenity": "charging_station", "access": "yes", "brand": "Circle K", "name": "Circle K Sunndalsøra", "addr:country": "NO", "socket:type2_combo": "6", "socket:type2_combo:output": "300.0 kW", "socket:chademo": "1", "socket:chademo:output": "62.0 kW", "charging_station:output": "300.0 kW", "capacity": "6", "_source": "worldwide"}}, {"type": "node", "id": 1395498061, "lat": 62.673129, "lon": 8.563951, "tags": {"amenity": "charging_station", "access": "yes", "fee": "yes", "brand": "Tesla Supercharger", "opening_hours": "24/7", "operator": "Tesla", "name": "Tesla Sunndalsøra Supercharger", "addr:country": "NO", "socket:type2_combo": "12", "socket:type2_combo:output": "250.0 kW", "charging_station:output": "250.0 kW", "capacity": "12", "_source": "worldwide"}}, {"type": "node", "id": 8373357970, "lat": 62.775704, "lon": 8.064398, "tags": {"amenity": "charging_station", "access": "yes", "brand": "Mer", "name": "Mer Eidsvåg", "addr:country": "NO", "socket:type2": "1", "socket:type2:output": "22.0 kW", "socket:type2_combo": "1", "socket:type2_combo:output": "50.0 kW", "socket:chademo": "1", "socket:chademo:output": "50.0 kW", "charging_station:output": "50.0 kW", "capacity": "2", "_source": "worldwide"}}, {"type": "node", "id": 11169096762, "lat": 62.969163, "lon": 8.711918, "tags": {"amenity": "charging_station", "access": "yes", "brand": "Eviny", "name": "Eviny Alti Surnadal", "addr:country": "NO", "socket:type2": "3", "socket:type2:output": "22.0 kW", "socket:type2_combo": "5", "socket:type2_combo:output": "200.0 kW", "socket:chademo": "3", "socket:chademo:output": "62.0 kW", "charging_station:output": "200.0 kW", "capacity": "8", "_source": "worldwide"}}, {"type": "node", "id": 11203981031, "lat": 62.973833, "lon": 8.723244, "tags": {"amenity": "charging_station", "access": "yes", "operator": "EMES Charge", "name": "Svorkabygget", "addr:country": "NO", "socket:type2": "6", "socket:type2:output": "22.0 kW", "charging_station:output": "22.0 kW", "capacity": "6", "_source": "worldwide"}}]}