{"id": "65--18", "latMin": 65, "lonMin": -18, "latMax": 66, "lonMax": -17, "generated": "2026-04-16T18:39:08.807Z", "count": 9, "pois": [{"type": "node", "id": 4346238381, "lat": 65.684087, "lon": -18.086858, "tags": {"amenity": "charging_station", "access": "permissive", "fee": "yes", "brand": "ON", "operator": "Orka náttúrunnar", "name": "Akureyri (Hof)", "socket:type2_combo": "2", "socket:type2_combo:output": "150.0 kW", "socket:chademo": "1", "socket:chademo:output": "63.0 kW", "charging_station:output": "150.0 kW", "capacity": "2", "_source": "worldwide"}}, {"type": "node", "id": 6721193275, "lat": 65.687645, "lon": -18.099526, "tags": {"amenity": "charging_station", "access": "permissive", "fee": "yes", "brand": "ON", "operator": "Orka náttúrunnar", "name": "Akureyri Glerártorg", "socket:type2_combo": "1", "socket:type2_combo:output": "50.0 kW", "socket:chademo": "1", "socket:chademo:output": "50.0 kW", "charging_station:output": "50.0 kW", "capacity": "1", "_source": "worldwide"}}, {"type": "node", "id": 6723103509, "lat": 65.970021, "lon": -18.5284, "tags": {"amenity": "charging_station", "access": "customers", "fee": "yes", "operator": "Orka náttúrunnar", "name": "ON", "capacity": "2", "_source": "worldwide"}}, {"type": "node", "id": 9891067419, "lat": 65.697416, "lon": -18.139232, "tags": {"amenity": "charging_station", "access": "yes", "fee": "yes", "brand": "Tesla Supercharger", "opening_hours": "24/7", "operator": "Tesla", "name": "Akureyri Supercharger", "addr:street": "Austursíða 2", "addr:postcode": "603", "addr:city": "Akureyri", "addr:country": "IS", "socket:type2_combo": "4", "socket:type2_combo:output": "250.0 kW", "charging_station:output": "250.0 kW", "capacity": "4", "_source": "worldwide"}}, {"type": "node", "id": 11051584876, "lat": 65.699919, "lon": -18.138711, "tags": {"amenity": "charging_station", "access": "permissive", "fee": "yes", "brand": "ON", "operator": "Orka náttúrunnar", "name": "Byko Akureyri", "socket:type2": "2", "socket:type2:output": "22.0 kW", "charging_station:output": "22.0 kW", "capacity": "2", "_source": "worldwide"}}, {"type": "node", "id": 11537281661, "lat": 65.695562, "lon": -18.121287, "tags": {"amenity": "charging_station", "access": "permissive", "fee": "yes", "brand": "Orkan", "operator": "Orkan", "name": "Orkan - Hörgárbraut", "socket:type2_combo": "8", "socket:type2_combo:output": "400.0 kW", "socket:chademo": "1", "socket:chademo:output": "50.0 kW", "charging_station:output": "400.0 kW", "capacity": "8", "_source": "worldwide"}}, {"type": "node", "id": 12066059869, "lat": 65.670899, "lon": -18.095102, "tags": {"amenity": "charging_station", "opening_hours": "24/7", "operator": "Saeluhus Apartments & Houses\nSæluhús Akureyri", "name": "Hleðslustöð fyrir rafbíla", "addr:street": "Sunnutröð 2", "addr:postcode": "600", "_source": "worldwide"}}, {"type": "node", "id": 12692769467, "lat": 65.686586, "lon": -18.079397, "tags": {"amenity": "charging_station", "socket:type2": "6", "socket:type2:output": "22 kW", "charging_station:output": "22 kW", "capacity": "6", "_source": "worldwide"}}, {"type": "node", "id": 12695479966, "lat": 65.966891, "lon": -18.529824, "tags": {"amenity": "charging_station", "brand": "Hypercharger", "operator": "Ísorka", "name": "Ísorka - Hypercharger", "socket:type2_combo": "2", "socket:type2_combo:output": "50 kW", "socket:chademo": "1", "socket:chademo:output": "50 kW", "charging_station:output": "50 kW", "capacity": "2", "_source": "worldwide"}}]}