{"id": "48--65", "latMin": 48, "lonMin": -65, "latMax": 49, "lonMax": -64, "generated": "2026-04-16T18:39:08.162Z", "count": 12, "pois": [{"type": "node", "id": 4425549328, "lat": 48.827216, "lon": -64.478262, "tags": {"amenity": "charging_station", "operator": "Le Circuit Électrique", "name": "BRCC - CDSMML - Gaspé", "_source": "worldwide"}}, {"type": "node", "id": 4952811282, "lat": 48.349232, "lon": -64.68338, "tags": {"amenity": "charging_station", "brand": "Circuit électrique", "operator": "Circuit électrique", "name": "Circuit électrique", "_source": "worldwide"}}, {"type": "node", "id": 4952826618, "lat": 48.524088, "lon": -64.21054, "tags": {"amenity": "charging_station", "operator": "Le Circuit Électrique", "name": "BRCC - CDSMML - Percé", "_source": "worldwide"}}, {"type": "node", "id": 5370548231, "lat": 48.521165, "lon": -64.217445, "tags": {"amenity": "charging_station", "operator": "Géoparc de Percé", "name": "Borne de recharge", "_source": "worldwide"}}, {"type": "node", "id": 5745481107, "lat": 48.471371, "lon": -64.308444, "tags": {"amenity": "charging_station", "name": "Borne de recharge électrique", "_source": "worldwide"}}, {"type": "node", "id": 5818054512, "lat": 48.352122, "lon": -64.672641, "tags": {"amenity": "charging_station", "name": "EV Charging Station", "_source": "worldwide"}}, {"type": "node", "id": 6721886997, "lat": 48.521884, "lon": -64.21457, "tags": {"amenity": "charging_station", "name": "Borne de recharge", "_source": "worldwide"}}, {"type": "node", "id": 6973273679, "lat": 48.828477, "lon": -64.486822, "tags": {"amenity": "charging_station", "name": "Borne de recharge", "_source": "worldwide"}}, {"type": "node", "id": 6984062581, "lat": 48.350513, "lon": -64.675019, "tags": {"amenity": "charging_station", "name": "Borne de recharge", "_source": "worldwide"}}, {"type": "node", "id": 9870327291, "lat": 48.427159, "lon": -64.328181, "tags": {"amenity": "charging_station", "operator": "Marché Nicolas", "name": "Borne de recharge électrique", "_source": "worldwide"}}, {"type": "node", "id": 10117294418, "lat": 48.824104, "lon": -64.472607, "tags": {"amenity": "charging_station", "operator": "RechargÉco", "name": "RechargÉco", "_source": "worldwide"}}, {"type": "node", "id": 11208964230, "lat": 48.51939, "lon": -64.215925, "tags": {"amenity": "charging_station", "name": "EV Charging Station", "_source": "worldwide"}}]}