{"id": "43--72", "latMin": 43, "lonMin": -72, "latMax": 44, "lonMax": -71, "generated": "2026-04-16T18:39:07.905Z", "count": 8, "pois": [{"type": "node", "id": 9196263341, "lat": 43.205159, "lon": -71.539898, "tags": {"amenity": "charging_station", "brand": "ChargePoint", "operator": "ChargePoint", "name": "ChargePoint", "_source": "worldwide"}}, {"type": "node", "id": 11170133740, "lat": 43.28909, "lon": -71.57901, "tags": {"amenity": "charging_station", "fee": "yes", "access": "yes", "opening_hours": "24/7", "brand": "Tesla Supercharger", "network": "Supercharger", "operator": "Tesla, Inc.", "name": "Concord Supercharger", "addr:street": "Merchants Way", "addr:housenumber": "11", "addr:postcode": "03303", "addr:city": "Concord", "addr:country": "US", "capacity": "12", "_source": "worldwide"}}, {"type": "node", "id": 11483160490, "lat": 43.227026, "lon": -71.359807, "tags": {"amenity": "charging_station", "fee": "yes", "access": "yes", "opening_hours": "24/7", "brand": "Tesla Supercharger", "network": "Supercharger", "operator": "Tesla", "name": "Tesla Supercharger", "addr:street": "Suncook Highway", "addr:housenumber": "1910", "addr:postcode": "03234", "addr:city": "Epsom", "addr:country": "US", "capacity": "8", "_source": "worldwide"}}, {"type": "node", "id": 12882571987, "lat": 43.04619, "lon": -71.45973, "tags": {"amenity": "charging_station", "fee": "yes", "access": "yes", "opening_hours": "24/7", "brand": "Tesla Supercharger", "network": "Supercharger", "operator": "Tesla", "name": "Hooksett Supercharger", "addr:street": "Quality Drive", "addr:housenumber": "100", "addr:postcode": "03106", "addr:city": "Hooksett", "addr:country": "US", "capacity": "12", "_source": "worldwide"}}, {"type": "node", "id": 12944743318, "lat": 43.87073, "lon": -71.65251, "tags": {"amenity": "charging_station", "fee": "yes", "access": "yes", "opening_hours": "24/7", "brand": "Tesla Supercharger", "network": "Supercharger", "operator": "Tesla, Inc.", "name": "Tesla Supercharger", "addr:street": "Clubhouse Lane", "addr:housenumber": "40", "addr:postcode": "03285", "addr:city": "Thornton", "addr:country": "US", "capacity": "8", "_source": "worldwide"}}, {"type": "node", "id": 12944743417, "lat": 43.66114, "lon": -71.49394, "tags": {"amenity": "charging_station", "fee": "yes", "access": "customers", "opening_hours": "24/7", "brand": "Tesla Supercharger", "network": "Supercharger", "operator": "Tesla, Inc.", "name": "Meredith Supercharger", "addr:street": "NH-25", "addr:housenumber": "81", "addr:postcode": "03253", "addr:city": "Meredith", "addr:country": "US", "capacity": "6", "_source": "worldwide"}}, {"type": "node", "id": 12944743444, "lat": 43.45526, "lon": -71.56461, "tags": {"amenity": "charging_station", "fee": "yes", "access": "yes", "opening_hours": "24/7", "brand": "Tesla Supercharger", "network": "Supercharger", "operator": "Tesla, Inc.", "name": "Tilton Supercharger", "addr:street": "Laconia Road", "addr:housenumber": "65", "addr:postcode": "03276", "addr:city": "Tilton", "addr:country": "US", "capacity": "8", "_source": "worldwide"}}, {"type": "node", "id": 12944744279, "lat": 43.6981, "lon": -71.64012, "tags": {"amenity": "charging_station", "fee": "yes", "access": "yes", "opening_hours": "24/7", "brand": "Tesla Supercharger", "network": "Supercharger", "operator": "Tesla, Inc.", "name": "Tesla Supercharger", "addr:street": "Main Street", "addr:housenumber": "158", "addr:postcode": "03217", "addr:city": "Ashland", "addr:country": "US", "capacity": "8", "_source": "worldwide"}}]}