{"id": "34-127", "latMin": 34, "lonMin": 127, "latMax": 35, "lonMax": 128, "generated": "2026-04-16T18:39:07.309Z", "count": 6, "pois": [{"type": "node", "id": 4637418209, "lat": 34.970369, "lon": 127.525583, "tags": {"amenity": "charging_station", "name": "전기차 충전소", "_source": "worldwide"}}, {"type": "node", "id": 4639731675, "lat": 34.771952, "lon": 127.093595, "tags": {"amenity": "charging_station", "name": "가스 충전소", "_source": "worldwide"}}, {"type": "node", "id": 4788232213, "lat": 34.984414, "lon": 127.514208, "tags": {"amenity": "charging_station", "name": "동순천충전소", "_source": "worldwide"}}, {"type": "node", "id": 9119075215, "lat": 34.963071, "lon": 127.525519, "tags": {"amenity": "charging_station", "fee": "yes", "access": "yes", "opening_hours": "24/7", "brand": "Tesla Supercharger", "operator": "Tesla", "name": "순천 테슬라 슈퍼차저", "capacity": "8", "_source": "worldwide"}}, {"type": "node", "id": 13688625603, "lat": 34.961693, "lon": 127.56504, "tags": {"amenity": "charging_station", "fee": "yes", "access": "yes", "opening_hours": "24/7", "name": "EV Charging Station", "_source": "worldwide"}}, {"type": "node", "id": 13688627004, "lat": 34.722156, "lon": 127.70012, "tags": {"amenity": "charging_station", "fee": "yes", "access": "yes", "opening_hours": "24/7", "name": "EV Charging Station", "_source": "worldwide"}}]}