{"id": "43-22", "latMin": 43, "lonMin": 22, "latMax": 44, "lonMax": 23, "generated": "2026-04-16T18:39:07.986Z", "count": 18, "pois": [{"type": "node", "id": 5793659152, "lat": 43.022341, "lon": 22.735101, "tags": {"amenity": "charging_station", "fee": "no", "opening_hours": "24/7", "operator": "putevi srbije", "name": "Ladestation putevi srbije", "socket:type2": "1", "socket:type2:output": "22 kW", "socket:type2_combo": "1", "socket:type2_combo:output": "50 kW", "socket:chademo": "1", "socket:chademo:output": "50 kW", "charging_station:output": "50 kW", "capacity": "1", "_source": "worldwide"}}, {"type": "node", "id": 9249259411, "lat": 43.133663, "lon": 22.607317, "tags": {"amenity": "charging_station", "fee": "no", "socket:type2": "1", "socket:type2:output": "22 kW", "charging_station:output": "22 kW", "authentication:none": "yes", "_source": "worldwide"}}, {"type": "node", "id": 9683482215, "lat": 43.012408, "lon": 22.777123, "tags": {"amenity": "charging_station", "fee": "no", "socket:type2": "1", "socket:type2:output": "22 kW", "charging_station:output": "22 kW", "authentication:none": "yes", "_source": "worldwide"}}, {"type": "node", "id": 11159497626, "lat": 43.903143, "lon": 22.268316, "tags": {"amenity": "charging_station", "access": "yes", "brand": "Charge&Go", "operator": "Charge&Go", "name": "Charge&GO - Stop Shop Zaječar", "capacity": "2", "_source": "worldwide"}}, {"type": "node", "id": 12141883774, "lat": 43.985713, "lon": 22.829275, "tags": {"amenity": "charging_station", "fee": "yes", "brand": "Fines Charging", "network": "FINES Charging", "opening_hours": "24/7", "operator": "Финес Енерджи ООД", "name": "Fines - Elit Vidin", "addr:postcode": "3725", "addr:city": "Видин", "addr:country": "BG", "socket:type2_combo": "4", "socket:type2_combo:output": "480.0 kW", "charging_station:output": "480.0 kW", "capacity": "4", "authentication:none": "", "_source": "worldwide"}}, {"type": "node", "id": 12744335444, "lat": 43.157956, "lon": 22.580963, "tags": {"amenity": "charging_station", "fee": "no", "socket:type2": "1", "socket:type2:output": "22 kW", "charging_station:output": "22 kW", "authentication:none": "yes", "_source": "worldwide"}}, {"type": "node", "id": 13097814927, "lat": 43.983926, "lon": 22.869925, "tags": {"amenity": "charging_station", "access": "yes", "fee": "yes", "brand": "Fines Charging", "network": "FINES Charging", "opening_hours": "24/7", "operator": "Финес Енерджи ООД", "name": "Fines - Vidin Impulse Hotel & Spa", "addr:postcode": "3700", "addr:city": "Видин", "addr:country": "BG", "socket:type2_combo": "1", "socket:type2_combo:output": "50.0 kW", "socket:chademo": "1", "socket:chademo:output": "50.0 kW", "charging_station:output": "50.0 kW", "capacity": "2", "authentication:none": "", "_source": "worldwide"}}, {"type": "node", "id": 13586931036, "lat": 43.98428, "lon": 22.872724, "tags": {"amenity": "charging_station", "access": "yes", "fee": "yes", "brand": "Fines Charging", "network": "Fines Charging", "opening_hours": "24/7", "operator": "Fines Charging", "name": "Fines - T Market Vidin", "addr:street": "Железничарска 20", "addr:postcode": "3700", "addr:city": "Видин", "socket:type2_combo": "2", "socket:type2_combo:output": "150.0 kW", "charging_station:output": "150.0 kW", "capacity": "2", "authentication:none": "", "_source": "worldwide"}}, {"type": "node", "id": 13097830400, "lat": 43.975676, "lon": 22.869736, "tags": {"amenity": "charging_station", "fee": "yes", "brand": "Fines Charging", "network": "FINES Charging", "opening_hours": "24/7", "operator": "FINES Charging", "name": "Fines - Vidin", "addr:street": "Бул. Панония", "addr:postcode": "3704", "addr:city": "Видин", "addr:country": "BG", "socket:type2_combo": "2", "socket:type2_combo:output": "50.0 kW", "charging_station:output": "50.0 kW", "capacity": "2", "authentication:none": "", "_source": "worldwide"}}, {"type": "node", "id": 13313453050, "lat": 43.220108, "lon": 22.306116, "tags": {"amenity": "charging_station", "fee": "yes", "brand": "Charge&GO", "opening_hours": "24/7", "name": "Ladestation Charge&GO", "capacity": "2", "_source": "worldwide"}}, {"type": "node", "id": 13317235499, "lat": 43.000276, "lon": 22.819403, "tags": {"amenity": "charging_station", "fee": "yes", "brand": "Charge&Go", "name": "Ladestation Charge&Go", "_source": "worldwide"}}, {"type": "node", "id": 13320386075, "lat": 43.910349, "lon": 22.260259, "tags": {"amenity": "charging_station", "fee": "yes", "brand": "Charge&Go", "name": "Ladestation Charge&Go", "socket:type2_combo": "2", "socket:type2_combo:output": "45.0 kW", "charging_station:output": "45.0 kW", "_source": "worldwide"}}, {"type": "node", "id": 13330262401, "lat": 43.623841, "lon": 22.676841, "tags": {"amenity": "charging_station", "brand": "Electrocharge", "name": "Ladestation Electrocharge", "_source": "worldwide"}}, {"type": "node", "id": 13362764397, "lat": 43.597627, "lon": 22.779848, "tags": {"amenity": "charging_station", "fee": "yes", "brand": "Fines Charging", "network": "FINES Charging", "opening_hours": "24/7", "operator": "FINES Charging", "name": "Fines - Han Madonna", "addr:postcode": "3949", "addr:city": "Яньовец", "addr:country": "BG", "socket:type2_combo": "2", "socket:type2_combo:output": "50.0 kW", "charging_station:output": "50.0 kW", "capacity": "2", "authentication:none": "", "_source": "worldwide"}}, {"type": "node", "id": 13391772695, "lat": 43.989586, "lon": 22.877744, "tags": {"amenity": "charging_station", "access": "yes", "fee": "yes", "brand": "Eldrive", "name": "Eldrive - Billa SM Vidin", "socket:type2_combo": "1", "socket:type2_combo:output": "50.0 kW", "socket:chademo": "1", "socket:chademo:output": "50.0 kW", "charging_station:output": "50.0 kW", "capacity": "2", "authentication:none": "", "_source": "worldwide"}}, {"type": "node", "id": 13622746585, "lat": 43.251531, "lon": 22.169475, "tags": {"amenity": "charging_station", "access": "yes", "fee": "no", "brand": "Orion", "opening_hours": "24/7", "operator": "Putevi Srbije", "name": "Orion - JP Putevi Srbije", "socket:type2": "1", "socket:type2:output": "22.0 kW", "socket:type2_combo": "1", "socket:type2_combo:output": "75.0 kW", "charging_station:output": "75.0 kW", "capacity": "2", "authentication:none": "", "_source": "worldwide"}}, {"type": "node", "id": 13622746586, "lat": 43.253653, "lon": 22.166381, "tags": {"amenity": "charging_station", "access": "yes", "fee": "no", "brand": "Orion", "opening_hours": "24/7", "operator": "Putevi Srbije", "name": "Orion - JP Putevi Srbije", "socket:type2": "1", "socket:type2:output": "22.0 kW", "socket:type2_combo": "1", "socket:type2_combo:output": "75.0 kW", "charging_station:output": "75.0 kW", "capacity": "2", "authentication:none": "", "_source": "worldwide"}}, {"type": "node", "id": 1460161720, "lat": 43.994221, "lon": 22.94777, "tags": {"amenity": "charging_station", "access": "yes", "fee": "yes", "brand": "Eldrive", "network": "Eldrive", "opening_hours": "24/7", "operator": "Eldrive", "name": "Eldrive - JOY Retail Park Calafat", "socket:type2_combo": "2", "socket:type2_combo:output": "50.0 kW", "charging_station:output": "50.0 kW", "capacity": "4", "authentication:none": "", "_source": "worldwide"}}]}