{"id": "3-101", "latMin": 3, "lonMin": 101, "latMax": 4, "lonMax": 102, "generated": "2026-04-16T18:39:07.220Z", "count": 61, "pois": [{"type": "node", "id": 4631705470, "lat": 3.127789, "lon": 101.678843, "tags": {"amenity": "charging_station", "access": "private", "operator": "COSMOS Bangsar", "name": "Cosmos", "_source": "worldwide"}}, {"type": "node", "id": 5426265125, "lat": 3.152598, "lon": 101.69839, "tags": {"amenity": "charging_station", "operator": "COSMOS Munshi Abdullah", "name": "COSMOS Munshi Abdullah", "_source": "worldwide"}}, {"type": "node", "id": 8323408889, "lat": 3.06501, "lon": 101.597058, "tags": {"amenity": "charging_station", "fee": "no", "access": "yes", "brand": "ABB Terra 53 CJG", "operator": "ABB Malaysia Sunway", "name": "EV Charger", "socket:chademo": "1", "capacity": "3", "_source": "worldwide"}}, {"type": "node", "id": 8323408892, "lat": 3.081942, "lon": 101.584183, "tags": {"amenity": "charging_station", "fee": "yes", "access": "yes", "brand": "chargEV", "operator": "chargEV", "name": "EV Charger", "addr:street": "Persiaran Kemajuan", "addr:city": "Subang Jaya", "addr:country": "MY", "capacity": "3", "_source": "worldwide"}}, {"type": "node", "id": 8326566629, "lat": 3.081441, "lon": 101.582428, "tags": {"amenity": "charging_station", "fee": "yes", "operator": "chargEV", "name": "chargEV", "_source": "worldwide"}}, {"type": "node", "id": 8326566630, "lat": 3.0845, "lon": 101.583538, "tags": {"amenity": "charging_station", "fee": "yes", "access": "yes", "brand": "chargEV", "operator": "chargEV", "name": "EV Charger", "addr:street": "Federal Highway", "addr:city": "Glenmarie", "addr:country": "MY", "capacity": "1", "_source": "worldwide"}}, {"type": "node", "id": 8326566631, "lat": 3.080612, "lon": 101.572346, "tags": {"amenity": "charging_station", "fee": "yes", "access": "yes", "brand": "chargEV", "operator": "chargEV", "name": "EV Charger", "addr:street": "Federal Highway", "addr:city": "Shah Alam", "addr:country": "MY", "capacity": "1", "_source": "worldwide"}}, {"type": "node", "id": 8366097714, "lat": 3.133777, "lon": 101.609696, "tags": {"amenity": "charging_station", "fee": "no", "access": "customers", "operator": "Vision Motorsports", "name": "EV Charger", "addr:city": "Kampung Sungai Kayu Ara", "socket:chademo": "1", "capacity": "3", "_source": "worldwide"}}, {"type": "node", "id": 8559980141, "lat": 3.035305, "lon": 101.557057, "tags": {"amenity": "charging_station", "fee": "no", "access": "yes", "brand": "Exicom Harmony", "operator": "Pekema Malaysia", "name": "EV Charger", "addr:city": "Shah Alam", "addr:country": "MY", "socket:chademo": "1", "capacity": "3", "_source": "worldwide"}}, {"type": "node", "id": 9119751721, "lat": 3.160606, "lon": 101.741542, "tags": {"amenity": "charging_station", "fee": "no", "access": "yes", "brand": "Exicom Harmony", "operator": "Utama Motors", "name": "EV Charger", "addr:city": "Kuala Lumpur", "addr:country": "MY", "capacity": "2", "_source": "worldwide"}}, {"type": "node", "id": 9173640665, "lat": 3.161663, "lon": 101.623275, "tags": {"amenity": "charging_station", "fee": "no", "access": "yes", "brand": "Exicom Harmony", "operator": "Hamza Motors", "name": "EV Charger", "addr:city": "Kuala Lumpur", "addr:country": "MY", "socket:chademo": "1", "capacity": "2", "_source": "worldwide"}}, {"type": "node", "id": 9296913495, "lat": 3.121215, "lon": 101.655104, "tags": {"amenity": "charging_station", "access": "private", "name": "EV Charge", "_source": "worldwide"}}, {"type": "node", "id": 9963470059, "lat": 3.044482, "lon": 101.706462, "tags": {"amenity": "charging_station", "fee": "yes", "access": "yes", "operator": "Kuro EV Malaysia", "name": "Kuro EV (M) Sdn Bhd", "_source": "worldwide"}}, {"type": "node", "id": 10919668792, "lat": 3.065655, "lon": 101.663049, "tags": {"amenity": "charging_station", "fee": "yes", "access": "yes", "brand": "ABB Terra", "operator": "Gentari / EV Connection", "name": "ABB Terra", "_source": "worldwide"}}, {"type": "node", "id": 10919805096, "lat": 3.142938, "lon": 101.710673, "tags": {"amenity": "charging_station", "fee": "yes", "access": "yes", "brand": "Kempower", "operator": "ChargEV Yinson Green Tech", "name": "Kempower", "_source": "worldwide"}}, {"type": "node", "id": 10919836503, "lat": 3.049138, "lon": 101.705703, "tags": {"amenity": "charging_station", "fee": "yes", "access": "yes", "brand": "BMW i", "operator": "Shell Recharge / ParkEasy", "name": "BMW i", "_source": "worldwide"}}, {"type": "node", "id": 11027104974, "lat": 3.130125, "lon": 101.642069, "tags": {"amenity": "charging_station", "brand": "ChargEV", "name": "ChargEV", "_source": "worldwide"}}, {"type": "node", "id": 11382845488, "lat": 3.073554, "lon": 101.607209, "tags": {"amenity": "charging_station", "fee": "yes", "access": "customers", "opening_hours": "24/7", "brand": "Tesla Supercharger", "network": "Tesla Supercharger", "operator": "Tesla, Inc.", "name": "Tesla Supercharger", "capacity": "4", "_source": "worldwide"}}, {"type": "node", "id": 11396044526, "lat": 3.171556, "lon": 101.664985, "tags": {"amenity": "charging_station", "fee": "yes", "access": "yes", "name": "EV Charging Station", "_source": "worldwide"}}, {"type": "node", "id": 11500046001, "lat": 3.662885, "lon": 101.520619, "tags": {"amenity": "charging_station", "fee": "no", "access": "yes", "brand": "Gentari", "network": "JomCharge", "operator": "Gentari", "name": "JomCharge", "_source": "worldwide"}}, {"type": "node", "id": 11585795011, "lat": 3.128162, "lon": 101.724166, "tags": {"amenity": "charging_station", "fee": "no", "access": "yes", "brand": "Tesla", "name": "Tesla Destination Charger", "_source": "worldwide"}}, {"type": "node", "id": 11585801904, "lat": 3.166414, "lon": 101.691717, "tags": {"amenity": "charging_station", "fee": "yes", "access": "yes", "brand": "Tesla, Inc.", "name": "Tesla Destination Charger", "capacity": "6", "_source": "worldwide"}}, {"type": "node", "id": 11596719321, "lat": 3.033279, "lon": 101.765219, "tags": {"amenity": "charging_station", "fee": "yes", "access": "yes", "brand": "chargEV", "operator": "chargEV", "name": "chargEV", "_source": "worldwide"}}, {"type": "node", "id": 11596766851, "lat": 3.027161, "lon": 101.754186, "tags": {"amenity": "charging_station", "fee": "yes", "access": "yes", "brand": "JomCharge", "operator": "JomCharge", "name": "JomCharge", "_source": "worldwide"}}, {"type": "node", "id": 11602330395, "lat": 3.049374, "lon": 101.672104, "tags": {"amenity": "charging_station", "fee": "yes", "access": "yes", "opening_hours": "24/7", "brand": "Tesla Supercharger", "operator": "Tesla, Inc.", "name": "Tesla Supercharger", "_source": "worldwide"}}, {"type": "node", "id": 11662266719, "lat": 3.0058, "lon": 101.72509, "tags": {"amenity": "charging_station", "fee": "yes", "access": "yes", "brand": "Gentari", "operator": "Gentari", "name": "Gentari", "_source": "worldwide"}}, {"type": "node", "id": 11934605603, "lat": 3.16723, "lon": 101.691916, "tags": {"amenity": "charging_station", "fee": "yes", "access": "yes", "brand": "EVGuru", "operator": "EVGuru", "name": "EVGuru", "_source": "worldwide"}}, {"type": "node", "id": 11934857366, "lat": 3.02602, "lon": 101.750966, "tags": {"amenity": "charging_station", "fee": "yes", "access": "yes", "brand": "EVGuru", "operator": "EVGuru", "name": "EVGuru", "_source": "worldwide"}}, {"type": "node", "id": 11951127590, "lat": 3.127752, "lon": 101.724618, "tags": {"amenity": "charging_station", "fee": "yes", "access": "yes", "brand": "Shell Recharge", "operator": "Shell Recharge Solutions", "name": "Shell Recharge", "_source": "worldwide"}}, {"type": "node", "id": 11951127591, "lat": 3.128113, "lon": 101.722033, "tags": {"amenity": "charging_station", "fee": "yes", "access": "yes", "brand": "Gentari", "operator": "Gentari", "name": "Gentari", "_source": "worldwide"}}, {"type": "node", "id": 12075111082, "lat": 3.027497, "lon": 101.752822, "tags": {"amenity": "charging_station", "fee": "yes", "access": "yes", "brand": "Gentari", "operator": "Gentari", "name": "Gentari", "_source": "worldwide"}}, {"type": "node", "id": 12150039409, "lat": 3.15772, "lon": 101.649867, "tags": {"amenity": "charging_station", "fee": "yes", "access": "yes", "brand": "rydeEV", "operator": "Oyika", "name": "Oyika Battery Swapping Station", "_source": "worldwide"}}, {"type": "node", "id": 12181443002, "lat": 3.226164, "lon": 101.650344, "tags": {"amenity": "charging_station", "fee": "yes", "operator": "Gentari", "name": "Gentari", "_source": "worldwide"}}, {"type": "node", "id": 12202866911, "lat": 3.035641, "lon": 101.709085, "tags": {"amenity": "charging_station", "fee": "yes", "access": "yes", "brand": "Carput Zap", "operator": "Carput Zap", "name": "Carput Zap", "_source": "worldwide"}}, {"type": "node", "id": 12270317495, "lat": 3.024888, "lon": 101.751175, "tags": {"amenity": "charging_station", "brand": "ChargeSini", "operator": "ChargeSini", "name": "ChargeSini", "_source": "worldwide"}}, {"type": "node", "id": 12279220588, "lat": 3.139838, "lon": 101.696067, "tags": {"amenity": "charging_station", "name": "EV Charging Station", "_source": "worldwide"}}, {"type": "node", "id": 12348097689, "lat": 3.141167, "lon": 101.64275, "tags": {"amenity": "charging_station", "fee": "yes", "brand": "chargEV", "name": "chargEV", "_source": "worldwide"}}, {"type": "node", "id": 12533954008, "lat": 3.134782, "lon": 101.687376, "tags": {"amenity": "charging_station", "access": "private", "name": "GoEV", "_source": "worldwide"}}, {"type": "node", "id": 12704408649, "lat": 3.144592, "lon": 101.72218, "tags": {"amenity": "charging_station", "fee": "yes", "access": "private", "brand": "ChargeSINI", "name": "ChargeSINI", "_source": "worldwide"}}, {"type": "node", "id": 12725133452, "lat": 3.044409, "lon": 101.560239, "tags": {"amenity": "charging_station", "fee": "yes", "access": "permissive", "brand": "Virta Global", "operator": "Virta", "name": "Virta Global", "_source": "worldwide"}}, {"type": "node", "id": 13043130532, "lat": 3.151518, "lon": 101.666374, "tags": {"amenity": "charging_station", "fee": "yes", "access": "yes", "brand": "DC Handal", "name": "DC Handal", "_source": "worldwide"}}, {"type": "node", "id": 13070146759, "lat": 3.149486, "lon": 101.716371, "tags": {"amenity": "charging_station", "fee": "yes", "name": "EV Charging Station", "_source": "worldwide"}}, {"type": "node", "id": 13070146760, "lat": 3.150226, "lon": 101.714378, "tags": {"amenity": "charging_station", "fee": "yes", "operator": "Auto Bavaria", "name": "Auto Bavaria", "_source": "worldwide"}}, {"type": "node", "id": 13159370651, "lat": 3.139005, "lon": 101.696065, "tags": {"amenity": "charging_station", "name": "Charge sini", "_source": "worldwide"}}, {"type": "node", "id": 13198096887, "lat": 3.316819, "lon": 101.535995, "tags": {"amenity": "charging_station", "fee": "yes", "network": "chargEV", "operator": "Yinson GreenTech Business", "name": "AEON Mall Rawang Rear Entrance", "capacity": "4", "_source": "worldwide"}}, {"type": "node", "id": 13208932339, "lat": 3.163117, "lon": 101.652283, "tags": {"amenity": "charging_station", "fee": "yes", "network": "JomCharge", "name": "Sri Hartamas Nasi Lemak Burung Hantu (DBKL)", "capacity": "4", "_source": "worldwide"}}, {"type": "node", "id": 13235215563, "lat": 3.142104, "lon": 101.69715, "tags": {"amenity": "charging_station", "fee": "yes", "network": "JomChargeDiKL", "operator": "JomCharge", "name": "Petaling Street Hello Planet & Sasha", "capacity": "1", "_source": "worldwide"}}, {"type": "node", "id": 13249986064, "lat": 3.068595, "lon": 101.691782, "tags": {"amenity": "charging_station", "name": "EV Charging Station", "_source": "worldwide"}}, {"type": "node", "id": 13249992806, "lat": 3.071027, "lon": 101.693319, "tags": {"amenity": "charging_station", "name": "EV Charging Station", "_source": "worldwide"}}, {"type": "node", "id": 13251506205, "lat": 3.102611, "lon": 101.682583, "tags": {"amenity": "charging_station", "fee": "yes", "network": "JomChargeDiKL", "operator": "JomCharge", "name": "Taman Desa Public Bank (DBKL)", "capacity": "1", "_source": "worldwide"}}, {"type": "node", "id": 13300963121, "lat": 3.194325, "lon": 101.67291, "tags": {"amenity": "charging_station", "operator": "BMW", "name": "BMW", "_source": "worldwide"}}, {"type": "node", "id": 13323947052, "lat": 3.16235, "lon": 101.650315, "tags": {"amenity": "charging_station", "fee": "yes", "network": "JomCharge", "operator": "JomChargeDiKL", "name": "Sri Hartamas Watsons (DBKL)", "capacity": "3", "_source": "worldwide"}}, {"type": "node", "id": 13395163914, "lat": 3.130847, "lon": 101.671032, "tags": {"amenity": "charging_station", "fee": "yes", "network": "JomCharge", "operator": "JomCharge x DBKL", "name": "Bangsar Coffee Stain (DBKL)", "capacity": "3", "_source": "worldwide"}}, {"type": "node", "id": 13481037846, "lat": 3.209141, "lon": 101.667805, "tags": {"amenity": "charging_station", "fee": "yes", "access": "private", "brand": "Quick Charge", "operator": "Quick Charge", "name": "Quick Charge 22kW", "capacity": "2", "_source": "worldwide"}}, {"type": "node", "id": 13526053182, "lat": 3.141349, "lon": 101.697143, "tags": {"amenity": "charging_station", "name": "EV Charging Station", "_source": "worldwide"}}, {"type": "node", "id": 13629925065, "lat": 3.06793, "lon": 101.693934, "tags": {"amenity": "charging_station", "name": "Charge Sini", "_source": "worldwide"}}, {"type": "node", "id": 13688409304, "lat": 3.145395, "lon": 101.663181, "tags": {"amenity": "charging_station", "fee": "yes", "access": "yes", "opening_hours": "24/7", "name": "EV Charging Station", "_source": "worldwide"}}, {"type": "node", "id": 13688409305, "lat": 3.148825, "lon": 101.713249, "tags": {"amenity": "charging_station", "fee": "yes", "access": "yes", "opening_hours": "24/7", "name": "EV Charging Station", "_source": "worldwide"}}, {"type": "node", "id": 13688409705, "lat": 3.063818, "lon": 101.483768, "tags": {"amenity": "charging_station", "fee": "yes", "access": "yes", "opening_hours": "24/7", "name": "EV Charging Station", "_source": "worldwide"}}, {"type": "node", "id": 13688410502, "lat": 3.109585, "lon": 101.665045, "tags": {"amenity": "charging_station", "fee": "yes", "access": "yes", "opening_hours": "24/7", "name": "EV Charging Station", "_source": "worldwide"}}, {"type": "node", "id": 13688411202, "lat": 3.119762, "lon": 101.676401, "tags": {"amenity": "charging_station", "fee": "yes", "access": "yes", "opening_hours": "24/7", "name": "EV Charging Station", "_source": "worldwide"}}]}