{"id": "35--86", "latMin": 35, "lonMin": -86, "latMax": 36, "lonMax": -85, "generated": "2026-04-16T18:39:07.314Z", "count": 28, "pois": [{"type": "node", "id": 4283743070, "lat": 35.037033, "lon": -85.307096, "tags": {"amenity": "charging_station", "opening_hours": "24/7", "brand": "EVgo", "operator": "EVgo", "name": "eVgo", "socket:chademo": "1", "socket:type1_combo": "1", "capacity": "2", "_source": "worldwide"}}, {"type": "node", "id": 6006175292, "lat": 35.037977, "lon": -85.195781, "tags": {"amenity": "charging_station", "brand": "ChargePoint", "name": "ChargePoint", "_source": "worldwide"}}, {"type": "node", "id": 6006175296, "lat": 35.03864, "lon": -85.19593, "tags": {"amenity": "charging_station", "fee": "yes", "access": "customers", "opening_hours": "24/7", "brand": "Tesla Supercharger", "network": "Supercharger", "operator": "Tesla, Inc.", "name": "Tesla Supercharger", "addr:street": "Airport Road", "addr:housenumber": "1001", "addr:postcode": "37421", "addr:city": "Chattanooga", "addr:country": "US", "capacity": "6", "_source": "worldwide"}}, {"type": "node", "id": 6591901917, "lat": 35.044006, "lon": -85.310075, "tags": {"amenity": "charging_station", "fee": "no", "brand": "ChargePoint", "operator": "ChargePoint", "name": "ChargePoint", "_source": "worldwide"}}, {"type": "node", "id": 10017169431, "lat": 35.035704, "lon": -85.15807, "tags": {"amenity": "charging_station", "network": "ChargePoint", "name": "EV Charging Station", "capacity": "2", "_source": "worldwide"}}, {"type": "node", "id": 10040148816, "lat": 35.101987, "lon": -85.235296, "tags": {"amenity": "charging_station", "network": "ChargePoint", "name": "EV Charging Station", "capacity": "2", "_source": "worldwide"}}, {"type": "node", "id": 10091199734, "lat": 35.043873, "lon": -85.280435, "tags": {"amenity": "charging_station", "network": "ChargePoint", "name": "EV Charging Station", "capacity": "2", "_source": "worldwide"}}, {"type": "node", "id": 11172175469, "lat": 35.985073, "lon": -85.037128, "tags": {"amenity": "charging_station", "access": "yes", "name": "EV Charging Station", "socket:type1": "1", "capacity": "1", "_source": "worldwide"}}, {"type": "node", "id": 11200432470, "lat": 35.985329, "lon": -85.010388, "tags": {"amenity": "charging_station", "fee": "no", "name": "EV Charging Station", "socket:tesla_destination": "1", "socket:type1": "1", "capacity": "2", "_source": "worldwide"}}, {"type": "node", "id": 11203399294, "lat": 35.985886, "lon": -85.037547, "tags": {"amenity": "charging_station", "brand": "Mopar", "name": "Mopar", "socket:type1": "1", "capacity": "1", "_source": "worldwide"}}, {"type": "node", "id": 11247877595, "lat": 35.998227, "lon": -85.046126, "tags": {"amenity": "charging_station", "brand": "7-Eleven", "operator": "7-Eleven", "name": "7-Eleven", "_source": "worldwide"}}, {"type": "node", "id": 11369541154, "lat": 35.061239, "lon": -85.305988, "tags": {"amenity": "charging_station", "fee": "yes", "access": "yes", "brand": "ChargePoint", "operator": "ChargePoint", "name": "ChargePoint", "_source": "worldwide"}}, {"type": "node", "id": 11660033007, "lat": 35.036408, "lon": -85.159861, "tags": {"amenity": "charging_station", "fee": "yes", "access": "yes", "opening_hours": "24/7", "brand": "Tesla Supercharger", "network": "Supercharger", "operator": "Tesla, Inc.", "name": "Chattanooga Supercharger", "addr:street": "Hamilton Place Boulevard 1", "addr:housenumber": "2100", "addr:postcode": "37421", "addr:city": "Chattanooga", "addr:country": "US", "capacity": "12", "_source": "worldwide"}}, {"type": "node", "id": 11810514579, "lat": 35.055524, "lon": -85.315338, "tags": {"amenity": "charging_station", "name": "Electrify America", "_source": "worldwide"}}, {"type": "node", "id": 11810518200, "lat": 35.036726, "lon": -85.31819, "tags": {"amenity": "charging_station", "name": "Electrify America", "_source": "worldwide"}}, {"type": "node", "id": 11846297852, "lat": 35.048111, "lon": -85.300892, "tags": {"amenity": "charging_station", "fee": "yes", "operator": "ChargePoint", "name": "CARTA/548 VINE ST #1", "socket:type1": "2", "capacity": "2", "_source": "worldwide"}}, {"type": "node", "id": 11970933005, "lat": 35.005766, "lon": -85.311921, "tags": {"amenity": "charging_station", "fee": "yes", "brand": "ChargePoint", "network": "ChargePoint", "operator": "CARTA", "name": "ChargePoint", "socket:type1": "2", "capacity": "2", "_source": "worldwide"}}, {"type": "node", "id": 12048690158, "lat": 35.0825, "lon": -85.063517, "tags": {"amenity": "charging_station", "opening_hours": "24/7", "operator": "Electrify America", "name": "Electrify America", "socket:chademo": "1", "socket:type1_combo": "6", "capacity": "7", "_source": "worldwide"}}, {"type": "node", "id": 12182773536, "lat": 35.063295, "lon": -85.314937, "tags": {"amenity": "charging_station", "name": "EV Charging Station", "_source": "worldwide"}}, {"type": "node", "id": 12186502444, "lat": 35.111276, "lon": -85.17857, "tags": {"amenity": "charging_station", "access": "yes", "brand": "Rivian", "name": "Rivian", "_source": "worldwide"}}, {"type": "node", "id": 12944743891, "lat": 35.97952, "lon": -85.01531, "tags": {"amenity": "charging_station", "fee": "yes", "access": "yes", "opening_hours": "24/7", "brand": "Tesla Supercharger", "network": "Supercharger", "operator": "Tesla, Inc.", "name": "Tesla Supercharger", "addr:street": "Genesis Road", "addr:housenumber": "2045", "addr:postcode": "38555", "addr:city": "Crossville", "addr:country": "US", "capacity": "16", "_source": "worldwide"}}, {"type": "node", "id": 12944744030, "lat": 35.03982, "lon": -85.68507, "tags": {"amenity": "charging_station", "fee": "yes", "access": "yes", "opening_hours": "24/7", "brand": "Tesla Supercharger", "network": "Supercharger", "operator": "Tesla, Inc.", "name": "Kimball Supercharger", "addr:street": "Kimball Crossing Drive", "addr:housenumber": "300", "addr:postcode": "37347", "addr:city": "Kimball", "addr:country": "US", "capacity": "12", "_source": "worldwide"}}, {"type": "node", "id": 12944744063, "lat": 35.23748, "lon": -85.85073, "tags": {"amenity": "charging_station", "fee": "yes", "access": "yes", "opening_hours": "24/7", "brand": "Tesla Supercharger", "network": "Supercharger", "operator": "Tesla, Inc.", "name": "Tesla Supercharger", "addr:street": "West Main Street", "addr:housenumber": "754", "addr:postcode": "37356", "addr:city": "Monteagle", "addr:country": "US", "capacity": "12", "_source": "worldwide"}}, {"type": "node", "id": 12944744078, "lat": 35.98537, "lon": -85.01096, "tags": {"amenity": "charging_station", "fee": "yes", "access": "yes", "opening_hours": "24/7", "brand": "Tesla Supercharger", "network": "Supercharger", "operator": "Tesla, Inc.", "name": "Tesla Supercharger", "addr:street": "Genesis Road", "addr:housenumber": "2444", "addr:postcode": "38571", "addr:city": "Crossville", "addr:country": "US", "capacity": "8", "_source": "worldwide"}}, {"type": "node", "id": 12946590379, "lat": 35.05755, "lon": -85.26919, "tags": {"amenity": "charging_station", "access": "yes", "opening_hours": "24/7", "network": "ChargePoint", "name": "EV Charging Station", "addr:street": "Wilcox Boulevard", "addr:housenumber": "1617", "addr:postcode": "37406", "addr:city": "Chattanooga", "addr:country": "US", "_source": "worldwide"}}, {"type": "node", "id": 12946590384, "lat": 35.05889, "lon": -85.27849, "tags": {"amenity": "charging_station", "access": "yes", "opening_hours": "24/7", "network": "ChargePoint", "name": "EV Charging Station", "addr:street": "Riverside Drive", "addr:housenumber": "2001", "addr:postcode": "37406", "addr:city": "Chattanooga", "addr:country": "US", "_source": "worldwide"}}, {"type": "node", "id": 13507621307, "lat": 35.046771, "lon": -85.312625, "tags": {"amenity": "charging_station", "brand": "Blink", "operator": "Blink", "name": "Blink", "_source": "worldwide"}}, {"type": "node", "id": 13620944979, "lat": 35.032172, "lon": -85.159911, "tags": {"amenity": "charging_station", "brand": "Mercedes-Benz", "operator": "Mercedes-Benz", "name": "Mercedes-Benz", "_source": "worldwide"}}]}