{"id": "35-115", "latMin": 35, "lonMin": 115, "latMax": 36, "lonMax": 116, "generated": "2026-04-16T18:39:07.371Z", "count": 21, "pois": [{"type": "node", "id": 9387204539, "lat": 35.747304, "lon": 115.065871, "tags": {"amenity": "charging_station", "name": "鑫鑫充电站", "_source": "worldwide"}}, {"type": "node", "id": 9457106248, "lat": 35.784721, "lon": 115.05471, "tags": {"amenity": "charging_station", "fee": "yes", "name": "EV Charging Station", "_source": "worldwide"}}, {"type": "node", "id": 9460206926, "lat": 35.800854, "lon": 115.057836, "tags": {"amenity": "charging_station", "name": "EV Charging Station", "_source": "worldwide"}}, {"type": "node", "id": 11704659574, "lat": 35.794643, "lon": 115.051684, "tags": {"amenity": "charging_station", "name": "EV Charging Station", "_source": "worldwide"}}, {"type": "node", "id": 11774892179, "lat": 35.780599, "lon": 115.025906, "tags": {"amenity": "charging_station", "name": "EV Charging Station", "_source": "worldwide"}}, {"type": "node", "id": 11774892181, "lat": 35.777017, "lon": 115.025937, "tags": {"amenity": "charging_station", "brand": "佳车汇", "name": "佳车汇", "_source": "worldwide"}}, {"type": "node", "id": 11774892182, "lat": 35.772553, "lon": 115.030541, "tags": {"amenity": "charging_station", "fee": "yes", "name": "濮汇充电站", "_source": "worldwide"}}, {"type": "node", "id": 11804802881, "lat": 35.754621, "lon": 115.032147, "tags": {"amenity": "charging_station", "name": "EV Charging Station", "_source": "worldwide"}}, {"type": "node", "id": 11816357475, "lat": 35.772429, "lon": 115.013874, "tags": {"amenity": "charging_station", "brand": "佳车汇", "name": "佳车汇", "_source": "worldwide"}}, {"type": "node", "id": 11850452373, "lat": 35.78694, "lon": 115.118651, "tags": {"amenity": "charging_station", "name": "EV Charging Station", "_source": "worldwide"}}, {"type": "node", "id": 11865649916, "lat": 35.775146, "lon": 115.058012, "tags": {"amenity": "charging_station", "name": "EV Charging Station", "_source": "worldwide"}}, {"type": "node", "id": 11911505432, "lat": 35.794721, "lon": 115.054259, "tags": {"amenity": "charging_station", "brand": "中国铁塔", "name": "保养厂充电站", "_source": "worldwide"}}, {"type": "node", "id": 11911505433, "lat": 35.765103, "lon": 115.034806, "tags": {"amenity": "charging_station", "fee": "yes", "name": "EV Charging Station", "_source": "worldwide"}}, {"type": "node", "id": 11911505434, "lat": 35.790041, "lon": 115.062212, "tags": {"amenity": "charging_station", "brand": "石化易电", "name": "石化易电", "_source": "worldwide"}}, {"type": "node", "id": 13096654167, "lat": 35.455438, "lon": 115.921173, "tags": {"amenity": "charging_station", "brand": "国家电网", "operator": "国家电网有限公司", "name": "国家电网", "_source": "worldwide"}}, {"type": "node", "id": 13096654176, "lat": 35.415355, "lon": 115.830183, "tags": {"amenity": "charging_station", "name": "山东郓州电力有限公司唐庙充电站", "_source": "worldwide"}}, {"type": "node", "id": 13096654177, "lat": 35.247821, "lon": 115.461553, "tags": {"amenity": "charging_station", "name": "菏泽交通集团有限公司菏泽汽车总站充电站", "_source": "worldwide"}}, {"type": "node", "id": 13098561677, "lat": 35.237266, "lon": 115.458742, "tags": {"amenity": "charging_station", "brand": "石化易电", "name": "石化易电", "_source": "worldwide"}}, {"type": "node", "id": 13272632738, "lat": 35.764165, "lon": 115.10569, "tags": {"amenity": "charging_station", "brand": "特来电", "name": "特来电", "_source": "worldwide"}}, {"type": "node", "id": 13277805447, "lat": 35.723499, "lon": 115.056425, "tags": {"amenity": "charging_station", "name": "濮阳市开发区及时送达蔬菜店（个体工商户）充电站", "_source": "worldwide"}}, {"type": "node", "id": 13619261092, "lat": 35.24422, "lon": 115.452299, "tags": {"amenity": "charging_station", "name": "山东通盛新能源产业有限公司充电站", "_source": "worldwide"}}]}