{"id": "10--85", "latMin": 10, "lonMin": -85, "latMax": 11, "lonMax": -84, "generated": "2026-04-16T18:39:07.225Z", "count": 40, "pois": [{"type": "node", "id": 9508024989, "lat": 10.000197, "lon": -84.134604, "tags": {"amenity": "charging_station", "operator": "Estación de Recarga", "name": "Estación de Recarga", "addr:street": "Calle 38", "addr:city": "Mercedes", "_source": "worldwide"}}, {"type": "node", "id": 9647552905, "lat": 10.158173, "lon": -84.155737, "tags": {"amenity": "charging_station", "operator": "ICE", "name": "Estación de carga Vara Blanca", "_source": "worldwide"}}, {"type": "node", "id": 9647552906, "lat": 10.012952, "lon": -84.20639, "tags": {"amenity": "charging_station", "access": "customers", "name": "EV Charging Station", "_source": "worldwide"}}, {"type": "node", "id": 9647552934, "lat": 10.000795, "lon": -84.195591, "tags": {"amenity": "charging_station", "name": "Estación de Carga Holiday Inn Alajuela", "_source": "worldwide"}}, {"type": "node", "id": 9647552935, "lat": 10.005835, "lon": -84.153372, "tags": {"amenity": "charging_station", "name": "Estación de Carga San Joaquín", "_source": "worldwide"}}, {"type": "node", "id": 9647552944, "lat": 10.001554, "lon": -84.114045, "tags": {"amenity": "charging_station", "name": "Estación de Carga INA Heredia", "_source": "worldwide"}}, {"type": "node", "id": 9687358965, "lat": 10.098701, "lon": -84.468726, "tags": {"amenity": "charging_station", "operator": "ICE", "name": "Estación de carga Vehículos eléctricos", "_source": "worldwide"}}, {"type": "node", "id": 9687358966, "lat": 10.087397, "lon": -84.469799, "tags": {"amenity": "charging_station", "name": "Estación de carga Parque Central San Ramón", "_source": "worldwide"}}, {"type": "node", "id": 9687358967, "lat": 10.072143, "lon": -84.313251, "tags": {"amenity": "charging_station", "name": "Estación de carga Grecia", "_source": "worldwide"}}, {"type": "node", "id": 9687358968, "lat": 10.452299, "lon": -84.011731, "tags": {"amenity": "charging_station", "name": "Estación de carga Sarapiquí", "_source": "worldwide"}}, {"type": "node", "id": 9687358992, "lat": 10.157115, "lon": -84.196036, "tags": {"amenity": "charging_station", "operator": "ICE", "name": "ICE", "_source": "worldwide"}}, {"type": "node", "id": 9687358993, "lat": 10.123709, "lon": -84.247702, "tags": {"amenity": "charging_station", "operator": "Enerza", "name": "Estación de carga San Isidro", "_source": "worldwide"}}, {"type": "node", "id": 9687358994, "lat": 10.051054, "lon": -84.361829, "tags": {"amenity": "charging_station", "name": "Estación de carga Naranjo", "_source": "worldwide"}}, {"type": "node", "id": 9687359012, "lat": 10.085729, "lon": -84.469851, "tags": {"amenity": "charging_station", "name": "Estación de carga Banco Nacional de San Ramón", "_source": "worldwide"}}, {"type": "node", "id": 9687359013, "lat": 10.013154, "lon": -84.208657, "tags": {"amenity": "charging_station", "name": "Estación de Carga Plaza Tropicana", "_source": "worldwide"}}, {"type": "node", "id": 9687359014, "lat": 10.013039, "lon": -84.210498, "tags": {"amenity": "charging_station", "name": "Estación de carga Banco Nacional Alajuela", "_source": "worldwide"}}, {"type": "node", "id": 9687359021, "lat": 10.012816, "lon": -84.222964, "tags": {"amenity": "charging_station", "name": "Estación de carga Maxi Palí de Alajuela", "_source": "worldwide"}}, {"type": "node", "id": 9687359022, "lat": 10.004819, "lon": -84.211419, "tags": {"amenity": "charging_station", "operator": "ICE", "name": "Estación de carga City Mall Área 1F", "_source": "worldwide"}}, {"type": "node", "id": 9687359023, "lat": 10.545122, "lon": -84.892812, "tags": {"amenity": "charging_station", "operator": "ICE", "name": "Estación de carga Arenal", "_source": "worldwide"}}, {"type": "node", "id": 9687359031, "lat": 10.491512, "lon": -84.711556, "tags": {"amenity": "charging_station", "name": "Estación de carga Kioro", "_source": "worldwide"}}, {"type": "node", "id": 9687359032, "lat": 10.491495, "lon": -84.722131, "tags": {"amenity": "charging_station", "name": "Estación de carga Tabacón", "_source": "worldwide"}}, {"type": "node", "id": 9687359231, "lat": 10.485167, "lon": -84.681584, "tags": {"amenity": "charging_station", "name": "Estación de carga El Silencio", "_source": "worldwide"}}, {"type": "node", "id": 9687359235, "lat": 10.469624, "lon": -84.654073, "tags": {"amenity": "charging_station", "name": "Estación de carga Vista Arenal", "_source": "worldwide"}}, {"type": "node", "id": 9687359236, "lat": 10.47244, "lon": -84.644068, "tags": {"amenity": "charging_station", "name": "Estación de carga La Fortuna", "_source": "worldwide"}}, {"type": "node", "id": 9687359239, "lat": 10.427635, "lon": -84.750027, "tags": {"amenity": "charging_station", "name": "Estación de carga Peñas Blancas", "_source": "worldwide"}}, {"type": "node", "id": 9687359348, "lat": 10.374998, "lon": -84.342873, "tags": {"amenity": "charging_station", "name": "Estación de carga Aguas Zarcas", "_source": "worldwide"}}, {"type": "node", "id": 9687359349, "lat": 10.397185, "lon": -84.220961, "tags": {"amenity": "charging_station", "name": "Estación de carga Santa Rita", "_source": "worldwide"}}, {"type": "node", "id": 9689060130, "lat": 10.202447, "lon": -84.484982, "tags": {"amenity": "charging_station", "name": "Estación de carga Los Ángeles", "_source": "worldwide"}}, {"type": "node", "id": 10069132719, "lat": 10.012389, "lon": -84.21015, "tags": {"amenity": "charging_station", "name": "McDonald's Tomás Guardia", "_source": "worldwide"}}, {"type": "node", "id": 10112216151, "lat": 10.498624, "lon": -84.686169, "tags": {"amenity": "charging_station", "name": "EV Charging Station", "_source": "worldwide"}}, {"type": "node", "id": 10286620717, "lat": 10.021566, "lon": -84.204422, "tags": {"amenity": "charging_station", "name": "Estación de carga Los Higuerones", "_source": "worldwide"}}, {"type": "node", "id": 10294315214, "lat": 10.013485, "lon": -84.210948, "tags": {"amenity": "charging_station", "name": "Estación de carga Bac Alajuela", "_source": "worldwide"}}, {"type": "node", "id": 11052101825, "lat": 10.01022, "lon": -84.225682, "tags": {"amenity": "charging_station", "name": "EV Charging Station", "_source": "worldwide"}}, {"type": "node", "id": 11380439690, "lat": 10.502563, "lon": -84.678258, "tags": {"amenity": "charging_station", "fee": "no", "access": "customers", "opening_hours": "24/7", "operator": "Hotel Arenal Manoa", "name": "Hotel Arenal Manoa", "_source": "worldwide"}}, {"type": "node", "id": 11384425691, "lat": 10.471554, "lon": -84.644757, "tags": {"amenity": "charging_station", "fee": "no", "access": "yes", "name": "EV Charging Station", "capacity": "8", "_source": "worldwide"}}, {"type": "node", "id": 11811965335, "lat": 10.017713, "lon": -84.056021, "tags": {"amenity": "charging_station", "fee": "yes", "access": "yes", "operator": "ESPH", "name": "Estación de Carga VE San Isidro", "_source": "worldwide"}}, {"type": "node", "id": 11847894772, "lat": 10.624364, "lon": -84.526221, "tags": {"amenity": "charging_station", "fee": "yes", "access": "yes", "operator": "Coopelesca", "name": "Estación de carga VE", "_source": "worldwide"}}, {"type": "node", "id": 11874890369, "lat": 10.313459, "lon": -84.815987, "tags": {"amenity": "charging_station", "name": "EV Charging Station", "_source": "worldwide"}}, {"type": "node", "id": 11879443855, "lat": 10.315498, "lon": -84.822874, "tags": {"amenity": "charging_station", "name": "EV Charging Station", "_source": "worldwide"}}, {"type": "node", "id": 12749169975, "lat": 10.321789, "lon": -84.243815, "tags": {"amenity": "charging_station", "access": "customers", "name": "EV Charging Station", "_source": "worldwide"}}]}