{"id": "47--92", "latMin": 47, "lonMin": -92, "latMax": 48, "lonMax": -91, "generated": "2026-04-16T18:39:08.137Z", "count": 11, "pois": [{"type": "node", "id": 5869913540, "lat": 47.903338, "lon": -91.848846, "tags": {"amenity": "charging_station", "operator": "Adventure Inn", "name": "Adventure Inn", "_source": "worldwide"}}, {"type": "node", "id": 7742170316, "lat": 47.120094, "lon": -91.503849, "tags": {"amenity": "charging_station", "name": "EV Charging Station", "_source": "worldwide"}}, {"type": "node", "id": 9906741524, "lat": 47.019178, "lon": -91.67049, "tags": {"amenity": "charging_station", "fee": "no", "access": "yes", "name": "LV 2 Siemens", "_source": "worldwide"}}, {"type": "node", "id": 9906741525, "lat": 47.019181, "lon": -91.669888, "tags": {"amenity": "charging_station", "fee": "no", "access": "yes", "name": "LV 2 Siemens", "_source": "worldwide"}}, {"type": "node", "id": 10968010056, "lat": 47.139782, "lon": -91.470291, "tags": {"amenity": "charging_station", "fee": "no", "access": "yes", "operator": "Minnesota Department of Natural Resources", "name": "Gooseberry Falls State Park", "socket:type1": "2", "capacity": "2", "_source": "worldwide"}}, {"type": "node", "id": 10981776699, "lat": 47.0283, "lon": -91.6808, "tags": {"amenity": "charging_station", "fee": "yes", "access": "yes", "opening_hours": "24/7", "brand": "Tesla Supercharger", "network": "Supercharger", "operator": "Tesla, Inc.", "name": "Two Harbors Supercharger", "addr:street": "11th Street", "addr:housenumber": "820", "addr:postcode": "55616", "addr:city": "Two Harbors", "addr:country": "US", "capacity": "8", "_source": "worldwide"}}, {"type": "node", "id": 11565514450, "lat": 47.338923, "lon": -91.196379, "tags": {"amenity": "charging_station", "fee": "no", "access": "yes", "operator": "Minnesota Department of Natural Resources", "name": "Tettegouche Visitors Center", "socket:type1": "2", "capacity": "2", "_source": "worldwide"}}, {"type": "node", "id": 12804180542, "lat": 47.300801, "lon": -91.248559, "tags": {"amenity": "charging_station", "fee": "yes", "opening_hours": "24/7", "brand": "ZEF Energy", "operator": "ZEF Energy", "name": "ZEF Energy", "socket:type1": "2", "capacity": "5", "_source": "worldwide"}}, {"type": "node", "id": 12804184770, "lat": 47.247881, "lon": -91.312753, "tags": {"amenity": "charging_station", "fee": "yes", "access": "customers", "brand": "ZEF Energy", "operator": "ZEF Energy", "name": "Cove Point Lodge & Restaurant", "socket:type1": "4", "capacity": "4", "_source": "worldwide"}}, {"type": "node", "id": 12804221784, "lat": 47.035935, "lon": -91.64523, "tags": {"amenity": "charging_station", "fee": "yes", "access": "customers", "brand": "Blink", "operator": "Blink", "name": "Superior Shores Resort", "socket:type1": "2", "capacity": "2", "_source": "worldwide"}}, {"type": "node", "id": 12804232707, "lat": 47.044289, "lon": -91.665992, "tags": {"amenity": "charging_station", "fee": "no", "access": "yes", "name": "Cooperative Light & Power", "socket:type1": "2", "capacity": "2", "_source": "worldwide"}}]}