{"id": "49-22", "latMin": 49, "lonMin": 22, "latMax": 50, "lonMax": 23, "generated": "2026-04-16T18:39:08.320Z", "count": 19, "pois": [{"type": "node", "id": 9306231276, "lat": 49.591965, "lon": 22.629305, "tags": {"amenity": "charging_station", "operator": "PGE Nowa Energia", "name": "PGE Nowa Energia", "_source": "worldwide"}}, {"type": "node", "id": 9376664603, "lat": 49.471528, "lon": 22.413234, "tags": {"amenity": "charging_station", "operator": "Ursa Maior", "name": "Ursa Maior", "_source": "worldwide"}}, {"type": "node", "id": 11085219272, "lat": 49.649468, "lon": 22.677073, "tags": {"amenity": "charging_station", "name": "EV Charging Station", "_source": "worldwide"}}, {"type": "node", "id": 11134777450, "lat": 49.939614, "lon": 22.667299, "tags": {"amenity": "charging_station", "access": "customers", "brand": "Noxo Energy", "name": "Noxo Energy", "_source": "worldwide"}}, {"type": "node", "id": 11134801173, "lat": 49.792379, "lon": 22.72246, "tags": {"amenity": "charging_station", "name": "EV Charging Station", "_source": "worldwide"}}, {"type": "node", "id": 11134839555, "lat": 49.435871, "lon": 22.569942, "tags": {"amenity": "charging_station", "access": "yes", "name": "EV Charging Station", "_source": "worldwide"}}, {"type": "node", "id": 11134849731, "lat": 49.426071, "lon": 22.236982, "tags": {"amenity": "charging_station", "access": "customers", "brand": "Noxo Energy", "name": "Noxo Energy", "_source": "worldwide"}}, {"type": "node", "id": 11181999184, "lat": 49.109005, "lon": 22.655101, "tags": {"amenity": "charging_station", "access": "yes", "operator": "Hotel Górski PTTK", "name": "Hotel Górski PTTK", "_source": "worldwide"}}, {"type": "node", "id": 11331300809, "lat": 49.787919, "lon": 22.765057, "tags": {"amenity": "charging_station", "name": "Eko Energetyka", "socket:chademo": "1", "capacity": "3", "_source": "worldwide"}}, {"type": "node", "id": 11937230639, "lat": 49.171711, "lon": 22.207672, "tags": {"amenity": "charging_station", "fee": "no", "access": "permit", "operator": "Antik", "name": "Antik", "_source": "worldwide"}}, {"type": "node", "id": 12141710580, "lat": 49.948951, "lon": 22.822748, "tags": {"amenity": "charging_station", "name": "EV Charging Station", "_source": "worldwide"}}, {"type": "node", "id": 12402802765, "lat": 49.699474, "lon": 22.018292, "tags": {"amenity": "charging_station", "access": "yes", "brand": "Powerdot", "operator": "Powerdot", "name": "Powerdot", "_source": "worldwide"}}, {"type": "node", "id": 12402802768, "lat": 49.693218, "lon": 22.029169, "tags": {"amenity": "charging_station", "fee": "yes", "access": "yes", "brand": "Elocity", "operator": "Elocity", "name": "Elocity", "_source": "worldwide"}}, {"type": "node", "id": 12744281861, "lat": 49.536302, "lon": 22.224427, "tags": {"amenity": "charging_station", "name": "EV Charging Station", "_source": "worldwide"}}, {"type": "node", "id": 13009975134, "lat": 49.175613, "lon": 22.431701, "tags": {"amenity": "charging_station", "operator": "NOXO.", "name": "NOXO. Carpatia Bieszczadzki", "_source": "worldwide"}}, {"type": "node", "id": 13543726407, "lat": 49.798682, "lon": 22.958048, "tags": {"amenity": "charging_station", "fee": "yes", "operator": "Готельно-ресторанний комплекс \"Світлиця\"", "name": "Готельно-ресторанний комплекс \"Світлиця\"", "_source": "worldwide"}}, {"type": "node", "id": 13543838461, "lat": 49.799222, "lon": 22.952822, "tags": {"amenity": "charging_station", "fee": "yes", "brand": "GO TO-U Charging Station", "name": "GO TO-U Charging Station", "_source": "worldwide"}}, {"type": "node", "id": 13670992898, "lat": 49.191611, "lon": 22.006331, "tags": {"amenity": "charging_station", "fee": "yes", "access": "yes", "brand": "ejoin", "operator": "ejoin", "name": "ejoin", "capacity": "2", "_source": "worldwide"}}, {"type": "node", "id": 13681780781, "lat": 49.438023, "lon": 22.572796, "tags": {"amenity": "charging_station", "name": "EV Charging Station", "_source": "worldwide"}}]}