{"id": "-2-31", "latMin": -2, "lonMin": 31, "latMax": -1, "lonMax": 32, "generated": "2026-04-16T18:39:07.216Z", "count": 5, "pois": [{"type": "node", "id": 5298885522, "lat": -1.645546, "lon": 31.589329, "tags": {"amenity": "charging_station", "operator": "scarion power bust", "name": "Rutenge to Scarion", "_source": "worldwide"}}, {"type": "node", "id": 5545349322, "lat": -1.444527, "lon": 31.438279, "tags": {"amenity": "charging_station", "operator": "JR station", "name": "Huruma clinic", "_source": "worldwide"}}, {"type": "node", "id": 9559151618, "lat": -1.84148, "lon": 31.655962, "tags": {"amenity": "charging_station", "name": "Bushoko", "_source": "worldwide"}}, {"type": "node", "id": 9727979517, "lat": -1.842818, "lon": 31.651845, "tags": {"amenity": "charging_station", "name": "Bugandika", "_source": "worldwide"}}, {"type": "node", "id": 9735248918, "lat": -1.747406, "lon": 31.701237, "tags": {"amenity": "charging_station", "operator": "community", "name": "Manyora- Kagoma Village", "addr:street": "Katwerere hamlet", "addr:housenumber": "100", "_source": "worldwide"}}]}