{"id": "47-26", "latMin": 47, "lonMin": 26, "latMax": 48, "lonMax": 27, "generated": "2026-04-16T18:39:08.158Z", "count": 6, "pois": [{"type": "node", "id": 7488650936, "lat": 47.733991, "lon": 26.671221, "tags": {"amenity": "charging_station", "brand": "ChargePoint", "name": "ChargePoint", "_source": "worldwide"}}, {"type": "node", "id": 7488650937, "lat": 47.656912, "lon": 26.2634, "tags": {"amenity": "charging_station", "brand": "ChargePoint", "operator": "ChargePoint", "name": "ChargePoint", "_source": "worldwide"}}, {"type": "node", "id": 8039639386, "lat": 47.728079, "lon": 26.671665, "tags": {"amenity": "charging_station", "access": "yes", "operator": "Kaufland", "name": "Kaufland", "_source": "worldwide"}}, {"type": "node", "id": 8620240617, "lat": 47.20159, "lon": 26.360144, "tags": {"amenity": "charging_station", "name": "EV Charging Station", "_source": "worldwide"}}, {"type": "node", "id": 9180186633, "lat": 47.209826, "lon": 26.396459, "tags": {"amenity": "charging_station", "name": "EV Charging Station", "_source": "worldwide"}}, {"type": "node", "id": 13184456797, "lat": 47.65817, "lon": 26.272102, "tags": {"amenity": "charging_station", "fee": "yes", "brand": "EV SPOTS", "name": "EV SPOTS", "addr:street": "Calea Unirii", "addr:housenumber": "22", "addr:city": "Suceava", "_source": "worldwide"}}]}