{"id": "44--77", "latMin": 44, "lonMin": -77, "latMax": 45, "lonMax": -76, "generated": "2026-04-16T18:39:08.031Z", "count": 28, "pois": [{"type": "node", "id": 3657047592, "lat": 44.267257, "lon": -76.503277, "tags": {"amenity": "charging_station", "fee": "yes", "access": "yes", "opening_hours": "24/7", "brand": "Tesla Supercharger", "network": "Supercharger", "operator": "Tesla, Inc.", "name": "Kingston Supercharger", "addr:street": "Dalton Avenue", "addr:housenumber": "95", "addr:city": "Kingston", "socket:tesla_supercharger": "1", "capacity": "2", "_source": "worldwide"}}, {"type": "node", "id": 5955831659, "lat": 44.259029, "lon": -76.603005, "tags": {"amenity": "charging_station", "brand": "FLO", "operator": "FLO", "name": "Kingston - Woodbine Park", "socket:type1": "2", "socket:type1:output": "7.2 kW", "charging_station:output": "7.2 kW", "capacity": "2", "_source": "worldwide"}}, {"type": "node", "id": 6001683398, "lat": 44.259739, "lon": -76.508582, "tags": {"amenity": "charging_station", "fee": "yes", "brand": "FLO", "operator": "FLO", "name": "Kingston - Planning and Building Department", "socket:type1": "2", "socket:type1:output": "7.2 kW", "charging_station:output": "7.2 kW", "capacity": "2", "_source": "worldwide"}}, {"type": "node", "id": 6001685083, "lat": 44.220426, "lon": -76.516726, "tags": {"amenity": "charging_station", "brand": "FLO", "operator": "FLO", "name": "Kingston - Portsmouth Harbour", "socket:type1": "2", "socket:type1:output": "7.2 kW", "charging_station:output": "7.2 kW", "capacity": "2", "_source": "worldwide"}}, {"type": "node", "id": 6001700062, "lat": 44.217277, "lon": -76.530591, "tags": {"amenity": "charging_station", "brand": "FLO", "operator": "FLO", "name": "Kingston - Lake Ontario Park", "socket:type1": "2", "socket:type1:output": "7.2 kW", "charging_station:output": "7.2 kW", "capacity": "2", "_source": "worldwide"}}, {"type": "node", "id": 6001705562, "lat": 44.234027, "lon": -76.484399, "tags": {"amenity": "charging_station", "fee": "yes", "brand": "FLO", "operator": "FLO", "name": "Kingston - Artillery Park Aquatic Center", "socket:type1": "2", "socket:type1:output": "7.2 kW", "charging_station:output": "7.2 kW", "capacity": "2", "_source": "worldwide"}}, {"type": "node", "id": 8680600726, "lat": 44.222784, "lon": -76.488862, "tags": {"amenity": "charging_station", "brand": "FLO", "operator": "FLO", "name": "Emily Street - Flo", "_source": "worldwide"}}, {"type": "node", "id": 9163952400, "lat": 44.280221, "lon": -76.569869, "tags": {"amenity": "charging_station", "fee": "yes", "access": "yes", "operator": "Petro-Canada", "name": "Petro-Canada - DC Fast Electric Car Charger", "_source": "worldwide"}}, {"type": "node", "id": 9311571379, "lat": 44.251238, "lon": -76.48493, "tags": {"amenity": "charging_station", "brand": "FLO", "operator": "FLO", "name": "FLO", "_source": "worldwide"}}, {"type": "node", "id": 9328541408, "lat": 44.23245, "lon": -76.479465, "tags": {"amenity": "charging_station", "brand": "FLO", "operator": "FLO", "name": "FLO", "_source": "worldwide"}}, {"type": "node", "id": 9337999441, "lat": 44.257395, "lon": -76.536162, "tags": {"amenity": "charging_station", "fee": "yes", "brand": "FLO", "operator": "FLO", "name": "FLO", "_source": "worldwide"}}, {"type": "node", "id": 9344218634, "lat": 44.219256, "lon": -76.567929, "tags": {"amenity": "charging_station", "brand": "FLO", "operator": "FLO", "name": "FLO", "_source": "worldwide"}}, {"type": "node", "id": 9356055307, "lat": 44.245407, "lon": -76.567082, "tags": {"amenity": "charging_station", "fee": "yes", "access": "customers", "name": "EVC Canada", "_source": "worldwide"}}, {"type": "node", "id": 9412777038, "lat": 44.260649, "lon": -76.964926, "tags": {"amenity": "charging_station", "fee": "yes", "access": "yes", "opening_hours": "24/7", "operator": "Canadian Tire Napanee", "name": "Canadian Tire Napanee", "_source": "worldwide"}}, {"type": "node", "id": 9412852124, "lat": 44.268227, "lon": -76.96731, "tags": {"amenity": "charging_station", "fee": "yes", "access": "yes", "opening_hours": "24/7", "operator": "Petro-Canada", "name": "Petro-Canada", "_source": "worldwide"}}, {"type": "node", "id": 9604207814, "lat": 44.223728, "lon": -76.499831, "tags": {"amenity": "charging_station", "brand": "Tesla, Inc.", "name": "Tesla", "_source": "worldwide"}}, {"type": "node", "id": 9871139711, "lat": 44.223451, "lon": -76.505035, "tags": {"amenity": "charging_station", "name": "EV Charging Station", "_source": "worldwide"}}, {"type": "node", "id": 9875515181, "lat": 44.340803, "lon": -76.139899, "tags": {"amenity": "charging_station", "brand": "ChargePoint", "operator": "ChargePoint", "name": "ChargePoint", "_source": "worldwide"}}, {"type": "node", "id": 10565355986, "lat": 44.22844, "lon": -76.493494, "tags": {"amenity": "charging_station", "fee": "no", "access": "yes", "operator": "Queen's University", "name": "Queen's University", "_source": "worldwide"}}, {"type": "node", "id": 11457219886, "lat": 44.265145, "lon": -76.501887, "tags": {"amenity": "charging_station", "fee": "yes", "access": "yes", "opening_hours": "24/7", "brand": "Tesla Supercharger", "network": "Supercharger", "operator": "Tesla, Inc.", "name": "Tesla Supercharger", "addr:street": "Dalton Avenue", "addr:housenumber": "88A", "capacity": "12", "_source": "worldwide"}}, {"type": "node", "id": 11504048524, "lat": 44.270335, "lon": -76.448503, "tags": {"amenity": "charging_station", "fee": "yes", "access": "customers", "brand": "FLO", "operator": "FLO", "name": "FLO", "_source": "worldwide"}}, {"type": "node", "id": 12453719233, "lat": 44.229785, "lon": -76.483274, "tags": {"amenity": "charging_station", "brand": "ChargePoint", "operator": "ChargePoint", "name": "ChargePoint", "_source": "worldwide"}}, {"type": "node", "id": 12964746601, "lat": 44.260155, "lon": -76.569163, "tags": {"amenity": "charging_station", "brand": "Tesla Supercharger", "operator": "Tesla", "name": "Tesla Supercharger", "_source": "worldwide"}}, {"type": "node", "id": 13009883367, "lat": 44.251686, "lon": -76.459717, "tags": {"amenity": "charging_station", "access": "permit", "operator": "Sparkle Solutions", "name": "Sparkle Solutions", "_source": "worldwide"}}, {"type": "node", "id": 13061771412, "lat": 44.679495, "lon": -76.397464, "tags": {"amenity": "charging_station", "fee": "no", "brand": "FLO", "name": "FLO", "socket:type1": "2", "capacity": "2", "_source": "worldwide"}}, {"type": "node", "id": 13667939707, "lat": 44.908423, "lon": -76.266191, "tags": {"amenity": "charging_station", "fee": "yes", "access": "yes", "opening_hours": "24/7", "brand": "Tesla Supercharger", "network": "Supercharger", "operator": "Tesla", "name": "Tesla Supercharger", "_source": "worldwide"}}, {"type": "node", "id": 13667939804, "lat": 44.262148, "lon": -76.963159, "tags": {"amenity": "charging_station", "fee": "yes", "access": "yes", "opening_hours": "24/7", "brand": "Tesla Supercharger", "network": "Supercharger", "operator": "Tesla", "name": "Napanee Supercharger", "_source": "worldwide"}}, {"type": "node", "id": 13667940305, "lat": 44.337085, "lon": -76.150141, "tags": {"amenity": "charging_station", "fee": "yes", "access": "yes", "opening_hours": "24/7", "brand": "Tesla Supercharger", "network": "Supercharger", "operator": "Tesla", "name": "Gananoque Supercharger", "_source": "worldwide"}}]}