{"id": "64--20", "latMin": 64, "lonMin": -20, "latMax": 65, "lonMax": -19, "generated": "2026-04-16T18:39:08.805Z", "count": 7, "pois": [{"type": "node", "id": 6723103510, "lat": 64.075314, "lon": -20.769162, "tags": {"amenity": "charging_station", "access": "customers", "fee": "yes", "brand": "ON", "operator": "Orka náttúrunnar", "name": "Borg í Grímsnesi", "socket:type2_combo": "2", "socket:type2_combo:output": "100.0 kW", "socket:chademo": "1", "socket:chademo:output": "50.0 kW", "charging_station:output": "100.0 kW", "capacity": "3", "_source": "worldwide"}}, {"type": "node", "id": 6723103511, "lat": 64.131294, "lon": -20.322547, "tags": {"amenity": "charging_station", "access": "permissive", "fee": "yes", "brand": "ON", "operator": "Orka náttúrunnar", "name": "Flúðir (Icelandair Hótel)", "socket:type2_combo": "2", "socket:type2_combo:output": "100.0 kW", "socket:chademo": "1", "socket:chademo:output": "63.0 kW", "charging_station:output": "100.0 kW", "capacity": "3", "_source": "worldwide"}}, {"type": "node", "id": 6723103512, "lat": 64.309175, "lon": -20.303917, "tags": {"amenity": "charging_station", "access": "permissive", "fee": "yes", "brand": "ON", "operator": "Orka náttúrunnar", "name": "Geysir", "socket:type2": "1", "socket:type2:output": "22.0 kW", "socket:type2_combo": "2", "socket:type2_combo:output": "100.0 kW", "socket:chademo": "1", "socket:chademo:output": "63.0 kW", "charging_station:output": "100.0 kW", "capacity": "4", "_source": "worldwide"}}, {"type": "node", "id": 11051162075, "lat": 64.006097, "lon": -20.973246, "tags": {"amenity": "charging_station", "access": "permissive", "fee": "yes", "brand": "ON", "operator": "Orka náttúrunnar", "name": "Þrastalundur - Hverfahleðsla", "socket:type2": "2", "socket:type2:output": "22.0 kW", "charging_station:output": "22.0 kW", "capacity": "2", "_source": "worldwide"}}, {"type": "node", "id": 12127393889, "lat": 64.700276, "lon": -20.869301, "tags": {"amenity": "charging_station", "brand": "Circontrol", "network": "ísorku", "opening_hours": "24/7", "operator": "ísorku", "name": "ísorku - Circontrol", "capacity": "2", "_source": "worldwide"}}, {"type": "node", "id": 12127464002, "lat": 64.278908, "lon": -20.4445, "tags": {"amenity": "charging_station", "network": "orkusalan", "opening_hours": "24/7", "operator": "orkusalan", "name": "Ladestation orkusalan", "socket:type2_combo": "2", "socket:type2_combo:output": "150.0 kW", "charging_station:output": "150.0 kW", "capacity": "2", "authentication:none": "", "_source": "worldwide"}}, {"type": "node", "id": 12956374057, "lat": 64.242688, "lon": -20.550958, "tags": {"amenity": "charging_station", "access": "yes", "fee": "yes", "brand": "Tesla Supercharger", "operator": "Tesla", "name": "Laugarvatn Supercharger", "capacity": "12", "_source": "worldwide"}}]}