{"id": "39-22", "latMin": 39, "lonMin": 22, "latMax": 40, "lonMax": 23, "generated": "2026-04-16T18:39:07.762Z", "count": 126, "pois": [{"type": "node", "id": 8922209632, "lat": 39.365665, "lon": 22.939735, "tags": {"amenity": "charging_station", "access": "yes", "fee": "yes", "brand": "DEI Blue", "opening_hours": "Mo-Fr 08:00-21:00; Sa 08:00-20:00", "operator": "ΑΒ Βασιλόπουλος", "name": "DEI blue - ΑΒ Βασιλόπουλος", "addr:street": "2ας Νοεμβρίου 107", "addr:postcode": "38333", "addr:city": "Βόλος", "socket:type2": "4", "socket:type2:output": "22.0 kW", "charging_station:output": "22.0 kW", "capacity": "4", "authentication:none": "", "_source": "worldwide"}}, {"type": "node", "id": 12563851970, "lat": 39.364291, "lon": 22.939546, "tags": {"amenity": "charging_station", "access": "yes", "fee": "yes", "brand": "DEI Blue", "opening_hours": "Mo-Fr 08:00-21:00; Sa 08:00-20:00", "operator": "Σκλαβενίτης", "name": "DΕΙ blue - Σκλαβενίτης", "addr:street": "2ας Νοεμβρίου & Βασσάνη", "addr:postcode": "38333", "addr:city": "Βόλος", "addr:country": "GR", "socket:type2": "4", "socket:type2:output": "22.0 kW", "charging_station:output": "22.0 kW", "capacity": "4", "authentication:none": "", "_source": "worldwide"}}, {"type": "node", "id": 8922528106, "lat": 39.365704, "lon": 22.921425, "tags": {"amenity": "charging_station", "fee": "no", "operator": "Autogas Πελαγιάδης", "name": "Ladestation Autogas Πελαγιάδης", "socket:type2": "1", "socket:type2:output": "22 kW", "charging_station:output": "22 kW", "_source": "worldwide"}}, {"type": "node", "id": 12557743107, "lat": 39.368263, "lon": 22.921041, "tags": {"amenity": "charging_station", "access": "yes", "fee": "yes", "brand": "DEI Blue", "opening_hours": "24/7", "operator": "Σκλαβενίτης", "name": "DΕΙ blue - Σκλαβενίτης", "addr:street": "Λαρίσης 206", "addr:postcode": "38334", "addr:city": "Βόλος", "addr:country": "GR", "socket:type2": "4", "socket:type2:output": "22.0 kW", "socket:type2_combo": "2", "socket:type2_combo:output": "60.0 kW", "charging_station:output": "60.0 kW", "capacity": "6", "authentication:none": "", "_source": "worldwide"}}, {"type": "node", "id": 8922549821, "lat": 39.371853, "lon": 22.905395, "tags": {"amenity": "charging_station", "fee": "no", "opening_hours": "Mo-Fr 09:00-19:00", "operator": "Peugeot", "name": "Ladestation Peugeot", "socket:type2": "1", "socket:type2:output": "22 kW", "charging_station:output": "22 kW", "_source": "worldwide"}}, {"type": "node", "id": 9209757938, "lat": 39.293747, "lon": 22.079015, "tags": {"amenity": "charging_station", "access": "yes", "fee": "yes", "brand": "nrg incharge", "opening_hours": "24/7", "operator": "ΚΕΝΤΡΙΚΗ ΟΔΟΣ Α.Ε.", "name": "nrg - ΣΕΑ Σοφάδων", "socket:type2_combo": "1", "socket:type2_combo:output": "50.0 kW", "socket:chademo": "1", "socket:chademo:output": "50.0 kW", "charging_station:output": "50.0 kW", "capacity": "2", "authentication:none": "", "_source": "worldwide"}}, {"type": "node", "id": 9209757939, "lat": 39.291528, "lon": 22.081553, "tags": {"amenity": "charging_station", "access": "yes", "fee": "yes", "brand": "nrg incharge", "opening_hours": "24/7", "operator": "ΚΕΝΤΡΙΚΗ ΟΔΟΣ Α.Ε.", "name": "nrg - ΣΕΑ Σοφάδων", "socket:type2_combo": "1", "socket:type2_combo:output": "50.0 kW", "socket:chademo": "1", "socket:chademo:output": "50.0 kW", "charging_station:output": "50.0 kW", "capacity": "2", "authentication:none": "", "_source": "worldwide"}}, {"type": "node", "id": 9547674332, "lat": 39.366349, "lon": 22.950603, "tags": {"amenity": "charging_station", "access": "yes", "fee": "yes", "brand": "Blink", "opening_hours": "24/7", "operator": "Περιφέρεια Θεσσαλίας", "name": "Blink - Περιφέρεια Θεσσαλίας", "addr:street": "Ελ. Βενιζέλου & Αναλήψεως", "addr:city": "Βόλος", "socket:type2": "2", "socket:type2:output": "22.0 kW", "charging_station:output": "22.0 kW", "capacity": "2", "authentication:none": "", "_source": "worldwide"}}, {"type": "node", "id": 12563947262, "lat": 39.367632, "lon": 22.951275, "tags": {"amenity": "charging_station", "access": "customers", "fee": "yes", "brand": "nrg incharge", "opening_hours": "24/7", "operator": "Magnes Hotel", "name": "nrg - Magnes Hotel", "addr:street": "Ελευθερίου Βενιζέλου (Ιωλκού) 97", "addr:postcode": "38333", "addr:city": "Βόλος", "socket:type2": "2", "socket:type2:output": "22.0 kW", "charging_station:output": "22.0 kW", "capacity": "2", "authentication:none": "", "_source": "worldwide"}}, {"type": "node", "id": 9682635695, "lat": 39.630118, "lon": 22.453147, "tags": {"amenity": "charging_station", "fee": "no", "socket:type2": "1", "socket:type2:output": "22 kW", "charging_station:output": "22 kW", "_source": "worldwide"}}, {"type": "node", "id": 9683508178, "lat": 39.577666, "lon": 22.472128, "tags": {"amenity": "charging_station", "access": "customers", "fee": "no", "opening_hours": "Mo-Su 08:00-21:20", "operator": "Leroy Merlin", "name": "Ladestation Leroy Merlin", "socket:type2": "2", "socket:type2:output": "11.0 kW", "charging_station:output": "11.0 kW", "capacity": "2", "authentication:none": "yes", "_source": "worldwide"}}, {"type": "node", "id": 10062481900, "lat": 39.607346, "lon": 22.439466, "tags": {"amenity": "charging_station", "fee": "no", "opening_hours": "Mo-Fr 08:00-19:00", "operator": "Hyundai", "name": "Ladestation Hyundai", "socket:type2": "1", "socket:type2:output": "22 kW", "charging_station:output": "22 kW", "authentication:none": "yes", "_source": "worldwide"}}, {"type": "node", "id": 12556442596, "lat": 39.609552, "lon": 22.436657, "tags": {"amenity": "charging_station", "access": "yes", "fee": "yes", "brand": "Chargespot", "opening_hours": "24/7", "operator": "Istikbal Λάρισα", "name": "Chargespot - Istikbal", "addr:postcode": "41335", "addr:city": "Λάρισα", "socket:type2": "2", "socket:type2:output": "22.0 kW", "charging_station:output": "22.0 kW", "capacity": "2", "authentication:none": "", "_source": "worldwide"}}, {"type": "node", "id": 10062510510, "lat": 39.677749, "lon": 22.451382, "tags": {"amenity": "charging_station", "fee": "no", "name": "Skoda", "authentication:none": "yes", "_source": "worldwide"}}, {"type": "node", "id": 10246140230, "lat": 39.612943, "lon": 22.428349, "tags": {"amenity": "charging_station", "access": "yes", "fee": "no", "brand": "Blink", "opening_hours": "Mo-Su 06:30-23:00", "operator": "Περιφέρεια Θεσσαλίας", "name": "Blink - Νέα Περιφέρεια Θεσσαλίας", "addr:street": "Καλλισθένους", "addr:city": "Λάρισα", "socket:type2": "2", "socket:type2:output": "22 kW", "charging_station:output": "22 kW", "capacity": "2", "authentication:none": "", "_source": "worldwide"}}, {"type": "node", "id": 12966949202, "lat": 39.616064, "lon": 22.4294, "tags": {"amenity": "charging_station", "access": "customers", "fee": "no", "brand": "Lidl", "opening_hours": "Mo-Sa 07:45-21:00; Su,PH off", "operator": "Lidl", "name": "Lidl Λάρισα Φαρσάλων", "addr:street": "Κέκροπος 2", "addr:postcode": "41335", "addr:city": "Λάρισα", "socket:type2": "1", "socket:type2:output": "20.0 kW", "socket:type2_combo": "1", "socket:type2_combo:output": "20.0 kW", "charging_station:output": "20.0 kW", "capacity": "2", "authentication:none": "yes", "_source": "worldwide"}}, {"type": "node", "id": 12504164777, "lat": 39.894255, "lon": 22.192536, "tags": {"amenity": "charging_station", "access": "yes", "fee": "yes", "brand": "Chargespot", "opening_hours": "24/7", "operator": "Γαλαξίας supermarket", "name": "Chargespot - Γαλαξίας", "addr:street": "Οικονόμου 56", "addr:postcode": "40200", "addr:city": "Ελασσόνα", "socket:type2": "2", "socket:type2:output": "22.0 kW", "charging_station:output": "22.0 kW", "capacity": "2", "authentication:none": "", "_source": "worldwide"}}, {"type": "node", "id": 13026192209, "lat": 39.893541, "lon": 22.201057, "tags": {"amenity": "charging_station", "access": "yes", "fee": "yes", "brand": "EKO Charge&Go", "opening_hours": "Mo-Su 06:00-22:00", "operator": "BP Ελασσόνα 147", "name": "EKO Charge&Go - BP Ελασσόνα", "addr:postcode": "40200", "addr:city": "Ελασσόνα", "socket:type2_combo": "2", "socket:type2_combo:output": "120.0 kW", "charging_station:output": "120.0 kW", "capacity": "2", "authentication:none": "", "_source": "worldwide"}}, {"type": "node", "id": 12504164783, "lat": 39.888649, "lon": 22.19376, "tags": {"amenity": "charging_station", "access": "yes", "fee": "yes", "brand": "DEI Blue", "opening_hours": "24/7", "operator": "Σκλαβενίτης", "name": "DΕΙ blue - Σκλαβενίτης", "addr:postcode": "40200", "addr:city": "Ελασσόνα", "socket:type2": "2", "socket:type2:output": "22.0 kW", "charging_station:output": "22.0 kW", "capacity": "2", "authentication:none": "", "_source": "worldwide"}}, {"type": "node", "id": 12505188139, "lat": 39.605376, "lon": 22.441439, "tags": {"amenity": "charging_station", "access": "yes", "fee": "yes", "brand": "Tesla Supercharger", "opening_hours": "24/7", "operator": "Tesla", "name": "Larisa South Supercharger", "addr:city": "Λάρισα", "addr:country": "GR", "socket:type2_combo": "8", "socket:type2_combo:output": "250.0 kW", "charging_station:output": "250.0 kW", "capacity": "8", "_source": "worldwide"}}, {"type": "node", "id": 12506432795, "lat": 39.616881, "lon": 22.387265, "tags": {"amenity": "charging_station", "access": "yes", "fee": "yes", "brand": "DEI Blue", "opening_hours": "24/7", "operator": "ELIN Italmetano", "name": "DΕΙ blue - ELIN Italmetano", "addr:postcode": "41335", "addr:city": "Λάρισα", "socket:type2_combo": "1", "socket:type2_combo:output": "50.0 kW", "socket:chademo": "1", "socket:chademo:output": "50.0 kW", "charging_station:output": "50.0 kW", "capacity": "2", "authentication:none": "", "_source": "worldwide"}}, {"type": "node", "id": 12506432797, "lat": 39.631651, "lon": 22.345786, "tags": {"amenity": "charging_station", "access": "yes", "fee": "yes", "brand": "Electrip", "opening_hours": "Mo-Fr 08:30-18:00", "operator": "Παπαδόπουλος Α.Ε. - Αντιπροσωπεία BMW-MINI-VOLVO", "name": "Electrip - Παπαδόπουλος Λάρισα", "addr:postcode": "41500", "addr:city": "Λάρισα", "socket:type2": "3", "socket:type2:output": "22.0 kW", "socket:type2_combo": "2", "socket:type2_combo:output": "180.0 kW", "charging_station:output": "180.0 kW", "capacity": "4", "authentication:none": "", "_source": "worldwide"}}, {"type": "node", "id": 12506727791, "lat": 39.581821, "lon": 22.469655, "tags": {"amenity": "charging_station", "access": "yes", "fee": "yes", "brand": "DEI Blue", "opening_hours": "24/7", "operator": "IKEA", "name": "DΕΙ blue - IKEA Λάρισα", "addr:city": "Λάρισα", "socket:type2": "8", "socket:type2:output": "22.0 kW", "socket:type2_combo": "4", "socket:type2_combo:output": "300.0 kW", "charging_station:output": "300.0 kW", "capacity": "12", "authentication:none": "", "_source": "worldwide"}}, {"type": "node", "id": 12512999677, "lat": 39.814561, "lon": 22.50721, "tags": {"amenity": "charging_station", "access": "yes", "fee": "yes", "brand": "EKO Charge&Go", "opening_hours": "24/7", "operator": "ΣΕΑ Ευαγγελισμού", "name": "EKO Charge&Go - ΣΕΑ Ευαγγελισμού", "addr:postcode": "40006", "addr:city": "Μακρυχώρι", "socket:type2_combo": "1", "socket:type2_combo:output": "50.0 kW", "socket:chademo": "1", "socket:chademo:output": "50.0 kW", "charging_station:output": "50.0 kW", "capacity": "2", "authentication:none": "", "_source": "worldwide"}}, {"type": "node", "id": 12512999678, "lat": 39.814818, "lon": 22.508568, "tags": {"amenity": "charging_station", "access": "yes", "fee": "yes", "brand": "EKO Charge&Go", "opening_hours": "24/7", "operator": "ΣΕΑ Ευαγγελισμού", "name": "EKO Charge&Go - ΣΕΑ Ευαγγελισμού", "addr:postcode": "40006", "addr:city": "Μακρυχώρι", "socket:type2_combo": "1", "socket:type2_combo:output": "50.0 kW", "socket:chademo": "1", "socket:chademo:output": "50.0 kW", "charging_station:output": "50.0 kW", "capacity": "2", "authentication:none": "", "_source": "worldwide"}}, {"type": "node", "id": 12520390440, "lat": 39.991857, "lon": 22.573688, "tags": {"amenity": "charging_station", "access": "customers", "fee": "yes", "brand": "Blink", "opening_hours": "24/7", "operator": "Unedo All Seasons Hotel", "name": "Blink - Unedo Hotel", "addr:postcode": "60065", "addr:city": "Πλαταμώνας", "socket:type2": "1", "socket:type2:output": "22.0 kW", "charging_station:output": "22.0 kW", "capacity": "1", "authentication:none": "", "_source": "worldwide"}}, {"type": "node", "id": 12520390441, "lat": 39.992641, "lon": 22.624272, "tags": {"amenity": "charging_station", "access": "yes", "fee": "yes", "brand": "Blink", "opening_hours": "24/7", "operator": "Diverso Platamon Luxury Hotel & Spa", "name": "Blink - Diverso Platamon", "addr:street": "Καραμανλή 51", "addr:postcode": "60065", "addr:city": "Πλαταμώνας", "socket:type2": "1", "socket:type2:output": "22.0 kW", "charging_station:output": "22.0 kW", "capacity": "1", "authentication:none": "", "_source": "worldwide"}}, {"type": "node", "id": 12520390442, "lat": 39.981812, "lon": 22.620544, "tags": {"amenity": "charging_station", "access": "yes", "fee": "yes", "brand": "nrg incharge", "opening_hours": "24/7", "operator": "Shell Πλαταμόνας", "name": "nrg - Shell Πλαταμόνας", "addr:postcode": "60065", "addr:city": "Πλαταμώνας", "capacity": "2", "authentication:none": "", "_source": "worldwide"}}, {"type": "node", "id": 12520493301, "lat": 39.818632, "lon": 22.809551, "tags": {"amenity": "charging_station", "access": "yes", "fee": "yes", "brand": "TotalEnergies", "opening_hours": "24/7", "operator": "Bebis Hotel", "name": "TotalEnergies - Bebis Hotel", "socket:type2": "2", "socket:type2:output": "22.0 kW", "charging_station:output": "22.0 kW", "capacity": "2", "authentication:none": "", "_source": "worldwide"}}, {"type": "node", "id": 12550811834, "lat": 39.471078, "lon": 22.085054, "tags": {"amenity": "charging_station", "access": "yes", "fee": "yes", "brand": "nrg incharge", "opening_hours": "24/7", "operator": "My market", "name": "nrg - My market Παλαμάς", "addr:street": "Γουλιανού 15", "addr:postcode": "43200", "addr:city": "Παλαμάς", "socket:type2": "1", "socket:type2:output": "22.0 kW", "charging_station:output": "22.0 kW", "capacity": "1", "authentication:none": "", "_source": "worldwide"}}, {"type": "node", "id": 12550823414, "lat": 39.587967, "lon": 22.061591, "tags": {"amenity": "charging_station", "access": "yes", "fee": "yes", "brand": "Chargespot", "opening_hours": "24/7", "operator": "Γαλαξίας supermarket", "name": "Chargespot - Γαλαξίας", "addr:postcode": "42031", "addr:city": "Φαρκαδόνα", "socket:type2": "2", "socket:type2:output": "22.0 kW", "charging_station:output": "22.0 kW", "capacity": "2", "authentication:none": "", "_source": "worldwide"}}, {"type": "node", "id": 12550853839, "lat": 39.647796, "lon": 22.431071, "tags": {"amenity": "charging_station", "access": "yes", "fee": "yes", "brand": "Chargespot", "opening_hours": "24/7", "operator": "Γαλαξίας", "name": "Chargespot - Γαλαξίας", "addr:street": "Σωκράτους 1", "addr:postcode": "41336", "addr:city": "Λάρισα", "socket:type2": "2", "socket:type2:output": "22.0 kW", "charging_station:output": "22.0 kW", "capacity": "2", "authentication:none": "", "_source": "worldwide"}}, {"type": "node", "id": 12550860366, "lat": 39.654143, "lon": 22.437281, "tags": {"amenity": "charging_station", "access": "yes", "fee": "yes", "brand": "TotalEnergies", "opening_hours": "24/7", "operator": "Lolos auto parts & service", "name": "TotalEnergies - Lolos", "addr:postcode": "41336", "addr:city": "Λάρισα", "socket:type2": "1", "socket:type2:output": "22.0 kW", "charging_station:output": "22.0 kW", "capacity": "1", "authentication:none": "", "_source": "worldwide"}}, {"type": "node", "id": 12550860367, "lat": 39.661041, "lon": 22.441143, "tags": {"amenity": "charging_station", "access": "yes", "fee": "yes", "brand": "nrg incharge", "opening_hours": "24/7", "operator": "Μασούτης Cash & Carry", "name": "nrg - Μασούτης Cash & Carry", "addr:postcode": "41336", "addr:city": "Λάρισα", "socket:type2": "2", "socket:type2:output": "22.0 kW", "charging_station:output": "22.0 kW", "capacity": "2", "authentication:none": "", "_source": "worldwide"}}, {"type": "node", "id": 12550862486, "lat": 39.659176, "lon": 22.404618, "tags": {"amenity": "charging_station", "access": "yes", "fee": "yes", "brand": "DEI Blue", "opening_hours": "24/7", "operator": "Σκλαβενίτης", "name": "DΕΙ blue - Σκλαβενίτης", "addr:postcode": "41500", "addr:city": "Λάρισα", "socket:type2": "10", "socket:type2:output": "22.0 kW", "socket:type2_combo": "2", "socket:type2_combo:output": "60.0 kW", "charging_station:output": "60.0 kW", "capacity": "12", "authentication:none": "", "_source": "worldwide"}}, {"type": "node", "id": 12550862487, "lat": 39.666178, "lon": 22.396848, "tags": {"amenity": "charging_station", "access": "yes", "fee": "yes", "brand": "nrg incharge", "opening_hours": "24/7", "operator": "My market", "name": "nrg - My market Γιάννουλη", "addr:postcode": "41500", "addr:city": "Γιάννουλη", "socket:type2": "1", "socket:type2:output": "22.0 kW", "charging_station:output": "22.0 kW", "capacity": "1", "authentication:none": "", "_source": "worldwide"}}, {"type": "node", "id": 12550889935, "lat": 39.646076, "lon": 22.420558, "tags": {"amenity": "charging_station", "access": "yes", "fee": "yes", "brand": "nrg incharge", "opening_hours": "24/7", "operator": "Larisa Flats", "name": "nrg - Larisa Flats", "addr:street": "Στρατηγού Γουλιανού 14", "addr:postcode": "41447", "addr:city": "Λάρισα", "capacity": "1", "authentication:none": "", "_source": "worldwide"}}, {"type": "node", "id": 12556194974, "lat": 39.641014, "lon": 22.429499, "tags": {"amenity": "charging_station", "access": "yes", "fee": "yes", "brand": "DEI Blue", "opening_hours": "Mo-Fr 08:00-21:00, Sa 08:00-20:00", "operator": "Σκλαβενίτης", "name": "DΕΙ blue - Σκλαβενίτης", "addr:street": "Ηρώων Πολυτεχνείου & Αγιάς", "addr:postcode": "41221", "addr:city": "Λάρισα", "addr:country": "GR", "socket:type2": "4", "socket:type2:output": "22.0 kW", "charging_station:output": "22.0 kW", "capacity": "4", "authentication:none": "", "_source": "worldwide"}}, {"type": "node", "id": 12556246979, "lat": 39.633697, "lon": 22.432656, "tags": {"amenity": "charging_station", "access": "yes", "fee": "yes", "brand": "nrg incharge", "opening_hours": "Mo-Su 06:00-23:00", "operator": "AVIN ΜΑΚΡΑΙΩΝ 4053", "name": "nrg - AVIN 4053 Λάρισα", "addr:street": "Βόλου 22", "addr:postcode": "41336", "addr:city": "Λάρισα", "socket:type2": "1", "socket:type2:output": "22.0 kW", "charging_station:output": "22.0 kW", "capacity": "1", "authentication:none": "", "_source": "worldwide"}}, {"type": "node", "id": 12556246980, "lat": 39.6361, "lon": 22.436268, "tags": {"amenity": "charging_station", "access": "yes", "fee": "yes", "brand": "DEI Blue", "opening_hours": "24/7", "operator": "ΑΒ Βασιλόπουλος", "name": "DEI blue - ΑΒ Βασιλόπουλος", "addr:postcode": "41336", "addr:city": "Λάρισα", "socket:type2": "6", "socket:type2:output": "22.0 kW", "socket:type2_combo": "2", "socket:type2_combo:output": "47.0 kW", "charging_station:output": "47.0 kW", "capacity": "8", "authentication:none": "", "_source": "worldwide"}}, {"type": "node", "id": 12556251538, "lat": 39.564203, "lon": 22.463559, "tags": {"amenity": "charging_station", "access": "yes", "fee": "yes", "brand": "Chargespot", "opening_hours": "24/7", "operator": "Γαλαξίας supermarket", "name": "Chargespot - Γαλαξίας Νίκαια", "addr:postcode": "41500", "addr:city": "Νίκαια", "socket:type2": "2", "socket:type2:output": "22.0 kW", "charging_station:output": "22.0 kW", "capacity": "2", "authentication:none": "", "_source": "worldwide"}}, {"type": "node", "id": 12556267965, "lat": 39.622636, "lon": 22.493337, "tags": {"amenity": "charging_station", "access": "yes", "fee": "yes", "brand": "Chargespot", "opening_hours": "24/7", "operator": "Γαλαξίας supermarket", "name": "Chargespot - Γαλαξίας Μελισσοχώρι", "addr:postcode": "41500", "addr:city": "Λάρισα", "socket:type2": "2", "socket:type2:output": "22.0 kW", "charging_station:output": "22.0 kW", "capacity": "2", "authentication:none": "", "_source": "worldwide"}}, {"type": "node", "id": 12556324974, "lat": 39.629768, "lon": 22.419782, "tags": {"amenity": "charging_station", "access": "yes", "fee": "yes", "brand": "nrg incharge", "opening_hours": "24/7", "operator": "My market", "name": "nrg - My market Λάρισα Νεράιδα", "addr:street": "Φαρσάλων 10-12", "addr:postcode": "41335", "addr:city": "Λάρισα", "socket:type2": "2", "socket:type2:output": "22.0 kW", "charging_station:output": "22.0 kW", "capacity": "2", "authentication:none": "", "_source": "worldwide"}}, {"type": "node", "id": 12556324975, "lat": 39.631899, "lon": 22.411904, "tags": {"amenity": "charging_station", "access": "yes", "fee": "yes", "brand": "Chargespot", "opening_hours": "24/7", "operator": "Γαλαξίας", "name": "Chargespot - Γαλαξίας", "addr:street": "Ηρώων Πολυτεχνείου", "addr:postcode": "41336", "addr:city": "Λάρισα", "socket:type2": "2", "socket:type2:output": "22.0 kW", "charging_station:output": "22.0 kW", "capacity": "2", "authentication:none": "", "_source": "worldwide"}}, {"type": "node", "id": 12556325090, "lat": 39.63838, "lon": 22.414751, "tags": {"amenity": "charging_station", "access": "yes", "fee": "yes", "brand": "Blink", "opening_hours": "24/7", "operator": "ΠΛΑΤΕΙΑ ΟΕ", "name": "Blink - Parking Πλατεία", "addr:street": "Κύπρου 81", "addr:postcode": "41222", "addr:city": "Λάρισα", "socket:type2": "1", "socket:type2:output": "22.0 kW", "charging_station:output": "22.0 kW", "capacity": "1", "authentication:none": "", "_source": "worldwide"}}, {"type": "node", "id": 13181745756, "lat": 39.636518, "lon": 22.420753, "tags": {"amenity": "charging_station", "access": "customers", "fee": "yes", "brand": "nrg incharge", "opening_hours": "Mo-Sa 07:00-23:00", "operator": "Parking ΣΑΛ", "name": "nrg - Parking ΣΑΛ", "addr:street": "28ης Οκτωβρίου 25", "addr:postcode": "41223", "addr:city": "Λάρισα", "addr:country": "GR", "capacity": "2", "authentication:none": "", "_source": "worldwide"}}, {"type": "node", "id": 12556358252, "lat": 39.617593, "lon": 22.403796, "tags": {"amenity": "charging_station", "access": "yes", "fee": "yes", "brand": "EKO Charge&Go", "opening_hours": "24/7", "operator": "BP ΚΑΛΥΨΩ 179", "name": "EKO Charge&Go - BP Λάρισα", "addr:street": "Καρδίτσης 195", "addr:postcode": "41335", "addr:city": "Λάρισα", "socket:type2_combo": "2", "socket:type2_combo:output": "120.0 kW", "charging_station:output": "120.0 kW", "capacity": "2", "authentication:none": "", "_source": "worldwide"}}, {"type": "node", "id": 12556364628, "lat": 39.620801, "lon": 22.402326, "tags": {"amenity": "charging_station", "access": "yes", "fee": "yes", "brand": "DEI Blue", "opening_hours": "Mo-Fr 08:00-21:00, Sa 08:00-20:00", "operator": "Σκλαβενίτης", "name": "DΕΙ blue - Σκλαβενίτης", "addr:street": "Παπανδρέου 17", "addr:postcode": "41222", "addr:city": "Λάρισα", "addr:country": "GR", "socket:type2": "4", "socket:type2:output": "22.0 kW", "charging_station:output": "22.0 kW", "capacity": "4", "authentication:none": "", "_source": "worldwide"}}, {"type": "node", "id": 12556385719, "lat": 39.621697, "lon": 22.426831, "tags": {"amenity": "charging_station", "access": "yes", "fee": "yes", "brand": "DEI Blue", "opening_hours": "24/7", "operator": "ΑΒ Βασιλόπουλος", "name": "DEI blue - ΑΒ Βασιλόπουλος", "addr:street": "Φαρσάλων 111", "addr:postcode": "41335", "addr:city": "Λάρισα", "socket:type2": "4", "socket:type2:output": "22.0 kW", "charging_station:output": "22.0 kW", "capacity": "4", "authentication:none": "", "_source": "worldwide"}}, {"type": "node", "id": 12556385720, "lat": 39.624191, "lon": 22.424114, "tags": {"amenity": "charging_station", "access": "yes", "fee": "yes", "brand": "nrg incharge", "opening_hours": "Mo-Fr 08:00-21:00; Sa 08:00-20:00", "operator": "My market", "name": "nrg - My market Λάρισα Φαρσάλων", "addr:street": "Φαρσάλων", "addr:postcode": "41335", "addr:city": "Λάρισα", "socket:type2": "2", "socket:type2:output": "22.0 kW", "charging_station:output": "22.0 kW", "capacity": "2", "authentication:none": "", "_source": "worldwide"}}, {"type": "node", "id": 12556399473, "lat": 39.626408, "lon": 22.432263, "tags": {"amenity": "charging_station", "access": "yes", "fee": "yes", "brand": "DEI Blue", "opening_hours": "24/7", "operator": "McDonald's Λάρισα", "name": "DΕΙ blue - McDonald's", "addr:postcode": "41335", "addr:city": "Λάρισα", "socket:type2": "1", "socket:type2:output": "22.0 kW", "socket:type2_combo": "1", "socket:type2_combo:output": "50.0 kW", "socket:chademo": "1", "socket:chademo:output": "50.0 kW", "charging_station:output": "50.0 kW", "capacity": "2", "authentication:none": "", "_source": "worldwide"}}, {"type": "node", "id": 12556385721, "lat": 39.62595, "lon": 22.423047, "tags": {"amenity": "charging_station", "access": "yes", "fee": "yes", "brand": "EKO Charge&Go", "opening_hours": "24/7", "operator": "EKO Καλυψώ 204", "name": "EKO Charge&Go - EKO Λάρισα", "addr:street": "Φαρσάλων 44", "addr:postcode": "41335", "addr:city": "Λάρισα", "socket:type2_combo": "2", "socket:type2_combo:output": "120.0 kW", "charging_station:output": "120.0 kW", "capacity": "2", "authentication:none": "", "_source": "worldwide"}}, {"type": "node", "id": 12556442594, "lat": 39.606533, "lon": 22.433554, "tags": {"amenity": "charging_station", "access": "yes", "fee": "yes", "brand": "nrg incharge", "opening_hours": "24/7", "operator": "Grecotel Larissa Imperial Hotel", "name": "nrg - Imperial Hotel", "addr:street": "Φαρσάλων 182", "addr:postcode": "41335", "addr:city": "Λάρισα", "socket:type2": "4", "socket:type2:output": "22.0 kW", "charging_station:output": "22.0 kW", "capacity": "4", "authentication:none": "", "_source": "worldwide"}}, {"type": "node", "id": 12556456497, "lat": 39.599267, "lon": 22.435238, "tags": {"amenity": "charging_station", "access": "yes", "fee": "yes", "brand": "Blink", "opening_hours": "24/7", "operator": "Praktiker Λάρισα", "name": "Blink - Praktiker Λάρισα", "addr:street": "Φαρσάλων", "addr:postcode": "41500", "addr:city": "Λάρισα", "socket:type2": "2", "socket:type2:output": "22.0 kW", "charging_station:output": "22.0 kW", "capacity": "2", "authentication:none": "", "_source": "worldwide"}}, {"type": "node", "id": 12556456498, "lat": 39.600046, "lon": 22.436595, "tags": {"amenity": "charging_station", "access": "yes", "fee": "yes", "brand": "nrg incharge", "opening_hours": "24/7", "operator": "METRO Cash & Carry", "name": "nrg - METRO Cash & Carry", "addr:postcode": "41500", "addr:city": "Λάρισα", "socket:type2": "2", "socket:type2:output": "22.0 kW", "charging_station:output": "22.0 kW", "capacity": "2", "authentication:none": "", "_source": "worldwide"}}, {"type": "node", "id": 12556472130, "lat": 39.596823, "lon": 22.4397, "tags": {"amenity": "charging_station", "access": "yes", "fee": "yes", "brand": "DEI Blue", "opening_hours": "Mo-Fr 06:00-21:00, Sa 06:00-20:00", "operator": "The Mart Λάρισα", "name": "DΕΙ blue - The Mart", "addr:city": "Λάρισα", "socket:type2": "10", "socket:type2:output": "22.0 kW", "socket:type2_combo": "2", "socket:type2_combo:output": "60.0 kW", "charging_station:output": "60.0 kW", "capacity": "12", "authentication:none": "", "_source": "worldwide"}}, {"type": "node", "id": 12556483781, "lat": 39.587726, "lon": 22.468562, "tags": {"amenity": "charging_station", "access": "yes", "fee": "yes", "brand": "Chargespot", "opening_hours": "24/7", "operator": "ΙΑΣΩ Θεσσαλίας", "name": "Chargespot - ΙΑΣΩ Θεσσαλίας", "addr:postcode": "41005", "addr:city": "Λάρισα", "socket:type2": "2", "socket:type2:output": "22.0 kW", "charging_station:output": "22.0 kW", "capacity": "2", "authentication:none": "", "_source": "worldwide"}}, {"type": "node", "id": 12556681072, "lat": 39.548913, "lon": 22.497386, "tags": {"amenity": "charging_station", "access": "yes", "fee": "yes", "brand": "Chargespot", "opening_hours": "24/7", "operator": "AEGEAN ΣΕΑ Νίκαιας", "name": "Chargespot - ΣΕΑ Νίκαιας", "addr:postcode": "41500", "addr:city": "Νίκαια", "socket:type2_combo": "1", "socket:type2_combo:output": "50.0 kW", "socket:chademo": "1", "socket:chademo:output": "50.0 kW", "charging_station:output": "50.0 kW", "capacity": "2", "authentication:none": "", "_source": "worldwide"}}, {"type": "node", "id": 12556681073, "lat": 39.550028, "lon": 22.49634, "tags": {"amenity": "charging_station", "access": "yes", "fee": "yes", "brand": "Chargespot", "opening_hours": "24/7", "operator": "AEGEAN ΣΕΑ Νίκαιας", "name": "Chargespot - ΣΕΑ Νίκαιας", "addr:postcode": "41500", "addr:city": "Νίκαια", "socket:type2_combo": "1", "socket:type2_combo:output": "50.0 kW", "socket:chademo": "1", "socket:chademo:output": "50.0 kW", "charging_station:output": "50.0 kW", "capacity": "2", "authentication:none": "", "_source": "worldwide"}}, {"type": "node", "id": 12556749184, "lat": 39.292572, "lon": 22.361265, "tags": {"amenity": "charging_station", "access": "yes", "fee": "yes", "brand": "nrg incharge", "opening_hours": "Mo-Su 06:00-21:00", "operator": "Shell 503", "name": "nrg - Shell 503 Φάρσαλα", "addr:postcode": "40300", "addr:city": "Φάρσαλα", "socket:type2": "1", "socket:type2:output": "22.0 kW", "socket:type2_combo": "2", "socket:type2_combo:output": "60.0 kW", "charging_station:output": "60.0 kW", "capacity": "2", "authentication:none": "", "_source": "worldwide"}}, {"type": "node", "id": 12556758423, "lat": 39.295934, "lon": 22.377938, "tags": {"amenity": "charging_station", "access": "yes", "fee": "yes", "brand": "DEI Blue", "opening_hours": "24/7", "operator": "Σκλαβενίτης", "name": "DΕΙ blue - Σκλαβενίτης", "addr:street": "Θέτιδος 11", "addr:postcode": "40300", "addr:city": "Φάρσαλα", "addr:country": "GR", "socket:type2": "2", "socket:type2:output": "22.0 kW", "charging_station:output": "22.0 kW", "capacity": "2", "authentication:none": "", "_source": "worldwide"}}, {"type": "node", "id": 12556758424, "lat": 39.304147, "lon": 22.384979, "tags": {"amenity": "charging_station", "access": "yes", "fee": "yes", "brand": "nrg incharge", "opening_hours": "Mo-Fr 08:00-21:00; Sa 08:00-20:00", "operator": "My Market", "name": "nrg - My market Φάρσαλα", "addr:postcode": "40300", "addr:city": "Φάρσαλα", "socket:type2": "2", "socket:type2:output": "22.0 kW", "charging_station:output": "22.0 kW", "capacity": "2", "authentication:none": "", "_source": "worldwide"}}, {"type": "node", "id": 12556775205, "lat": 39.062321, "lon": 22.888206, "tags": {"amenity": "charging_station", "access": "yes", "fee": "yes", "brand": "Chargespot", "opening_hours": "24/7", "operator": "AEGEAN ΣΕΑ Αλμυρού", "name": "Chargespot - ΣΕΑ Αλμυρού", "addr:postcode": "37008", "addr:city": "Αλμυρός", "socket:type2_combo": "2", "socket:type2_combo:output": "60.0 kW", "charging_station:output": "60.0 kW", "capacity": "2", "authentication:none": "", "_source": "worldwide"}}, {"type": "node", "id": 12556775206, "lat": 39.063751, "lon": 22.88873, "tags": {"amenity": "charging_station", "access": "yes", "fee": "yes", "brand": "Chargespot", "opening_hours": "24/7", "operator": "AEGEAN ΣΕΑ Αλμυρού", "name": "Chargespot - ΣΕΑ Αλμυρού", "addr:postcode": "37008", "addr:city": "Αλμυρός", "socket:type2": "1", "socket:type2:output": "22.0 kW", "socket:type2_combo": "2", "socket:type2_combo:output": "60.0 kW", "charging_station:output": "60.0 kW", "capacity": "3", "authentication:none": "", "_source": "worldwide"}}, {"type": "node", "id": 12749399887, "lat": 39.063135, "lon": 22.888024, "tags": {"amenity": "charging_station", "access": "yes", "fee": "yes", "brand": "nrg incharge", "opening_hours": "24/7", "operator": "ΣΕΑ Αλμυρού", "name": "nrg - ΣΕΑ Αλμυρού", "addr:postcode": "37008", "addr:city": "Αλμυρός", "socket:type2_combo": "4", "socket:type2_combo:output": "180.0 kW", "charging_station:output": "180.0 kW", "capacity": "4", "authentication:none": "", "_source": "worldwide"}}, {"type": "node", "id": 12749399888, "lat": 39.062679, "lon": 22.889001, "tags": {"amenity": "charging_station", "access": "yes", "fee": "yes", "brand": "nrg incharge", "opening_hours": "24/7", "operator": "ΣΕΑ Αλμυρού", "name": "nrg - ΣΕΑ Αλμυρού", "addr:postcode": "37008", "addr:city": "Αλμυρός", "socket:type2_combo": "4", "socket:type2_combo:output": "180.0 kW", "charging_station:output": "180.0 kW", "capacity": "4", "authentication:none": "", "_source": "worldwide"}}, {"type": "node", "id": 12557691233, "lat": 39.182025, "lon": 22.761342, "tags": {"amenity": "charging_station", "access": "yes", "fee": "yes", "brand": "Chargespot", "opening_hours": "24/7", "operator": "Γαλαξίας supermarket", "name": "Chargespot - Γαλαξίας", "addr:street": "Μυρμιδόνων 15", "addr:postcode": "37100", "addr:city": "Αλμυρός", "socket:type2": "2", "socket:type2:output": "22.0 kW", "charging_station:output": "22.0 kW", "capacity": "2", "authentication:none": "", "_source": "worldwide"}}, {"type": "node", "id": 12557691234, "lat": 39.196299, "lon": 22.755572, "tags": {"amenity": "charging_station", "access": "yes", "fee": "yes", "brand": "DEI Blue", "operator": "ΚΑΤΣΑΡΟΣ ΣΠΟΡΟΚΕΝΤΡΟ ΑΕ", "name": "DΕΙ blue - Σπορόκεντρο ΑΕ", "addr:postcode": "37100", "addr:city": "Αλμυρός", "socket:type2": "1", "socket:type2:output": "22.0 kW", "charging_station:output": "22.0 kW", "capacity": "1", "authentication:none": "", "_source": "worldwide"}}, {"type": "node", "id": 12557705427, "lat": 39.386361, "lon": 22.907318, "tags": {"amenity": "charging_station", "access": "yes", "fee": "yes", "brand": "DEI Blue", "opening_hours": "24/7", "operator": "Ιερά Μητρόπολις Δημητριάδος", "name": "DΕΙ blue - Μητρόπολη Δημητριάδος", "addr:postcode": "38500", "addr:city": "Βόλος", "socket:type2": "4", "socket:type2:output": "22.0 kW", "charging_station:output": "22.0 kW", "capacity": "4", "authentication:none": "", "_source": "worldwide"}}, {"type": "node", "id": 12557705428, "lat": 39.384906, "lon": 22.939442, "tags": {"amenity": "charging_station", "access": "yes", "fee": "yes", "brand": "nrg incharge", "opening_hours": "24/7", "operator": "Pharmnet Μπαλδιμτσή Φωτεινή", "name": "nrg - Pharmnet", "addr:street": "Φυτόκου 20", "addr:postcode": "38446", "addr:city": "Νέα Ιωνία Βόλου", "socket:type2": "1", "socket:type2:output": "22.0 kW", "charging_station:output": "22.0 kW", "capacity": "1", "authentication:none": "", "_source": "worldwide"}}, {"type": "node", "id": 12557705429, "lat": 39.381341, "lon": 22.940203, "tags": {"amenity": "charging_station", "access": "yes", "fee": "yes", "brand": "DEI Blue", "opening_hours": "24/7", "operator": "ΑΒ Βασιλόπουλος", "name": "DEI blue - ΑΒ Βασιλόπουλος", "addr:postcode": "38446", "addr:city": "Βόλος", "socket:type2": "2", "socket:type2:output": "22.0 kW", "charging_station:output": "22.0 kW", "capacity": "2", "authentication:none": "", "_source": "worldwide"}}, {"type": "node", "id": 13599485446, "lat": 39.381986, "lon": 22.939992, "tags": {"amenity": "charging_station", "access": "customers", "fee": "no", "brand": "Lidl", "opening_hours": "Mo-Sa 07:45-21:00; Su,PH off", "operator": "Lidl", "name": "Lidl Βόλος Φυτόκου", "addr:street": "Φυτόκου", "addr:postcode": "38334", "addr:city": "Βόλος", "socket:type2": "1", "socket:type2:output": "20.0 kW", "socket:type2_combo": "2", "socket:type2_combo:output": "20.0 kW", "charging_station:output": "20.0 kW", "capacity": "2", "authentication:none": "yes", "_source": "worldwide"}}, {"type": "node", "id": 12557705927, "lat": 39.273212, "lon": 22.814398, "tags": {"amenity": "charging_station", "access": "yes", "fee": "yes", "brand": "Chargespot", "opening_hours": "24/7", "operator": "Γαλαξίας supermarket", "name": "Chargespot - Γαλαξίας Νέα Αγχίαλος", "addr:street": "Αμυρά", "addr:postcode": "37400", "addr:city": "Νέα Αγχίαλος", "socket:type2": "2", "socket:type2:output": "22.0 kW", "socket:type2_combo": "2", "socket:type2_combo:output": "180.0 kW", "charging_station:output": "180.0 kW", "capacity": "2", "authentication:none": "", "_source": "worldwide"}}, {"type": "node", "id": 12557735089, "lat": 39.379646, "lon": 22.886045, "tags": {"amenity": "charging_station", "access": "yes", "fee": "yes", "brand": "DEI Blue", "opening_hours": "Mo-Fr 06:00-21:00, Sa 06:00-20:00", "operator": "The Mart Βόλος", "name": "DΕΙ blue - The Mart", "addr:city": "Βόλος", "socket:type2": "6", "socket:type2:output": "22.0 kW", "socket:type2_combo": "2", "socket:type2_combo:output": "60.0 kW", "charging_station:output": "60.0 kW", "capacity": "8", "authentication:none": "", "_source": "worldwide"}}, {"type": "node", "id": 12557735090, "lat": 39.379646, "lon": 22.86824, "tags": {"amenity": "charging_station", "access": "yes", "fee": "yes", "brand": "nrg incharge", "opening_hours": "24/7", "operator": "AVIN ΜΑΚΡΑΙΩΝ 4177", "name": "nrg - AVIN 4177", "addr:city": "Βόλος", "socket:type2_combo": "1", "socket:type2_combo:output": "60.0 kW", "socket:chademo": "1", "socket:chademo:output": "60.0 kW", "charging_station:output": "60.0 kW", "capacity": "2", "authentication:none": "", "_source": "worldwide"}}, {"type": "node", "id": 12557735091, "lat": 39.382658, "lon": 22.824711, "tags": {"amenity": "charging_station", "access": "yes", "fee": "yes", "brand": "nrg incharge", "opening_hours": "24/7", "operator": "AVIN", "name": "nrg - AVIN Άγιος Γεώργιος Φερρών", "addr:postcode": "37500", "socket:type2": "1", "socket:type2:output": "22.0 kW", "charging_station:output": "22.0 kW", "capacity": "1", "authentication:none": "", "_source": "worldwide"}}, {"type": "node", "id": 12557743106, "lat": 39.369687, "lon": 22.920011, "tags": {"amenity": "charging_station", "access": "yes", "fee": "yes", "brand": "nrg incharge", "opening_hours": "Mo-Fr 08:00-21:00; Sa 08:00-18:00", "operator": "METRO Cash & Carry", "name": "nrg - METRO Cash & Carry", "addr:street": "Λαρίσης 208", "addr:postcode": "38334", "addr:city": "Βόλος", "socket:type2": "2", "socket:type2:output": "22.0 kW", "charging_station:output": "22.0 kW", "capacity": "2", "authentication:none": "", "_source": "worldwide"}}, {"type": "node", "id": 13232213828, "lat": 39.369646, "lon": 22.927005, "tags": {"amenity": "charging_station", "access": "yes", "fee": "yes", "brand": "DEI Blue", "opening_hours": "Mo-Sa 06:30-22:00; Su,PH off", "operator": "ELIN ΚΟΝΤΟΧΡΗΣΤΟΣ", "name": "DΕΙ blue - ELIN Βόλος", "addr:street": "Μάρκου Μπότσαρη 54", "addr:postcode": "38334", "addr:city": "Βόλος", "addr:country": "GR", "socket:type2_combo": "2", "socket:type2_combo:output": "60.0 kW", "charging_station:output": "60.0 kW", "capacity": "2", "authentication:none": "", "_source": "worldwide"}}, {"type": "node", "id": 12563656271, "lat": 39.361243, "lon": 22.933723, "tags": {"amenity": "charging_station", "access": "yes", "fee": "yes", "brand": "Blink", "opening_hours": "24/7", "operator": "Σταθμός Αυτοκινήτων Βόλου (Σ.Α.Β.)", "name": "Blink - Parking ΣΑΒ", "addr:street": "Αλμυρού 1-7", "addr:postcode": "38333", "addr:city": "Βόλος", "socket:type2": "2", "socket:type2:output": "22.0 kW", "charging_station:output": "22.0 kW", "capacity": "2", "authentication:none": "", "_source": "worldwide"}}, {"type": "node", "id": 12563656278, "lat": 39.363053, "lon": 22.930229, "tags": {"amenity": "charging_station", "access": "yes", "fee": "yes", "brand": "nrg incharge", "opening_hours": "24/7", "operator": "My Market", "name": "nrg - My Market", "addr:street": "Λαρίσης 99", "addr:postcode": "38334", "addr:city": "Βόλος", "socket:type2": "2", "socket:type2:output": "22.0 kW", "charging_station:output": "22.0 kW", "capacity": "2", "authentication:none": "", "_source": "worldwide"}}, {"type": "node", "id": 12995518986, "lat": 39.361474, "lon": 22.938402, "tags": {"amenity": "charging_station", "access": "yes", "fee": "yes", "brand": "Fortizo", "opening_hours": "24/7", "operator": "Cityzen Λιμένας Βόλου Τελωνείο", "name": "Fortizo - Λιμένας Βόλου Τελωνείο", "socket:type2": "2", "socket:type2:output": "22.0 kW", "charging_station:output": "22.0 kW", "capacity": "2", "authentication:none": "", "_source": "worldwide"}}, {"type": "node", "id": 13366218827, "lat": 39.363704, "lon": 22.939403, "tags": {"amenity": "charging_station", "access": "yes", "fee": "yes", "brand": "nrg incharge", "opening_hours": "24/7", "operator": "Volos Palace Hotel", "name": "nrg - Volos Palace Hotel", "addr:street": "Ξενοφώντος", "addr:postcode": "38333", "addr:city": "Βόλος", "socket:type2": "2", "socket:type2:output": "22.0 kW", "charging_station:output": "22.0 kW", "capacity": "2", "authentication:none": "", "_source": "worldwide"}}, {"type": "node", "id": 12563667392, "lat": 39.367775, "lon": 22.933733, "tags": {"amenity": "charging_station", "access": "yes", "fee": "yes", "brand": "Blink", "opening_hours": "24/7", "operator": "Old City Volos", "name": "Blink - Old City Volos", "addr:street": "Φερρών 67", "addr:postcode": "38334", "addr:city": "Βόλος", "socket:type2": "2", "socket:type2:output": "22.0 kW", "charging_station:output": "22.0 kW", "capacity": "2", "authentication:none": "", "_source": "worldwide"}}, {"type": "node", "id": 12563667396, "lat": 39.366893, "lon": 22.933369, "tags": {"amenity": "charging_station", "access": "yes", "fee": "yes", "brand": "Blink", "opening_hours": "24/7", "operator": "Praktiker Βόλος", "name": "Blink - Praktiker Βόλος", "addr:street": "Αριστείδου Ζάχου", "addr:postcode": "38334", "addr:city": "Βόλος", "socket:type2": "2", "socket:type2:output": "22.0 kW", "charging_station:output": "22.0 kW", "capacity": "2", "authentication:none": "", "_source": "worldwide"}}, {"type": "node", "id": 12563761201, "lat": 39.366798, "lon": 22.934447, "tags": {"amenity": "charging_station", "access": "customers", "fee": "no", "brand": "Lidl", "opening_hours": "Mo-Sa 07:45-21:00; Su,PH off", "operator": "Lidl", "name": "Lidl Βόλος", "addr:street": "Φερών", "addr:postcode": "38334", "addr:city": "Βόλος", "socket:type2": "1", "socket:type2:output": "20.0 kW", "socket:type2_combo": "1", "socket:type2_combo:output": "20.0 kW", "socket:chademo": "1", "socket:chademo:output": "20.0 kW", "charging_station:output": "20.0 kW", "capacity": "2", "authentication:none": "yes", "_source": "worldwide"}}, {"type": "node", "id": 12563796740, "lat": 39.370217, "lon": 22.954727, "tags": {"amenity": "charging_station", "access": "yes", "fee": "yes", "brand": "DEI Blue", "opening_hours": "Mo-Fr 08:00-21:00; Sa 08:00-20:00", "operator": "Σκλαβενίτης", "name": "DΕΙ blue - Σκλαβενίτης", "addr:street": "Γ. Δήμου & Ιωλκού", "addr:postcode": "38221", "addr:city": "Βόλος", "addr:country": "GR", "socket:type2": "2", "socket:type2:output": "22.0 kW", "charging_station:output": "22.0 kW", "capacity": "2", "authentication:none": "", "_source": "worldwide"}}, {"type": "node", "id": 12563949156, "lat": 39.361673, "lon": 22.945007, "tags": {"amenity": "charging_station", "access": "yes", "fee": "yes", "brand": "Chargespot", "opening_hours": "24/7", "operator": "Γαλαξίας", "name": "Chargespot - Γαλαξίας", "addr:street": "Δημητριάδος", "addr:postcode": "38333", "addr:city": "Βόλος", "socket:type2": "1", "socket:type2:output": "22.0 kW", "charging_station:output": "22.0 kW", "capacity": "1", "authentication:none": "", "_source": "worldwide"}}, {"type": "node", "id": 12563973505, "lat": 39.359084, "lon": 22.944256, "tags": {"amenity": "charging_station", "access": "yes", "fee": "yes", "brand": "DEI Blue", "opening_hours": "24/7", "operator": "Volos Port Authority", "name": "DEI blue - Λιμάνι", "addr:postcode": "38221", "addr:city": "Βόλος", "socket:type2_combo": "2", "socket:type2_combo:output": "150.0 kW", "charging_station:output": "150.0 kW", "capacity": "2", "authentication:none": "", "_source": "worldwide"}}, {"type": "node", "id": 13649673491, "lat": 39.362751, "lon": 22.944876, "tags": {"amenity": "charging_station", "access": "yes", "fee": "yes", "brand": "EV Loader", "network": "EV Loader", "opening_hours": "24/7", "operator": "Mad Engineering", "name": "EV Loader - Mad Studios", "addr:street": "Κοραή 63", "addr:postcode": "38333", "addr:city": "Βόλος", "socket:type2": "1", "socket:type2:output": "11.0 kW", "charging_station:output": "11.0 kW", "capacity": "1", "authentication:none": "", "_source": "worldwide"}}, {"type": "node", "id": 12563955985, "lat": 39.368048, "lon": 22.966358, "tags": {"amenity": "charging_station", "access": "yes", "fee": "yes", "brand": "DEI Blue", "opening_hours": "24/7", "operator": "ΑΒ Βασιλόπουλος", "name": "DEI blue - ΑΒ Βασιλόπουλος", "addr:street": "Οδυσσέα Ελύτη 48", "addr:postcode": "38500", "addr:city": "Βόλος", "socket:type2": "2", "socket:type2:output": "22.0 kW", "charging_station:output": "22.0 kW", "capacity": "2", "authentication:none": "", "_source": "worldwide"}}, {"type": "node", "id": 12563955992, "lat": 39.368358, "lon": 22.965724, "tags": {"amenity": "charging_station", "access": "yes", "fee": "yes", "brand": "DEI Blue", "operator": "Σκλαβενίτης", "name": "DΕΙ blue - Σκλαβενίτης", "addr:street": "Οδυσσέα Ελύτη 48", "addr:postcode": "38221", "addr:city": "Βόλος", "addr:country": "GR", "socket:type2": "2", "socket:type2:output": "22.0 kW", "charging_station:output": "22.0 kW", "capacity": "2", "authentication:none": "", "_source": "worldwide"}}, {"type": "node", "id": 12564012866, "lat": 39.350172, "lon": 22.965594, "tags": {"amenity": "charging_station", "access": "yes", "fee": "yes", "brand": "nrg incharge", "opening_hours": "24/7", "operator": "ΝΑΥΤΙΚΟΣ ΟΜΙΛΟΣ ΒΟΛΟΥ ΑΡΓΟΝΑΥΤΕΣ", "name": "nrg - Ναυτικός όμιλος", "addr:postcode": "38222", "addr:city": "Βόλος", "socket:type2": "1", "socket:type2:output": "22.0 kW", "socket:type2_combo": "1", "socket:type2_combo:output": "30.0 kW", "charging_station:output": "30.0 kW", "capacity": "2", "authentication:none": "", "_source": "worldwide"}}, {"type": "node", "id": 12564012867, "lat": 39.353238, "lon": 22.962643, "tags": {"amenity": "charging_station", "access": "yes", "fee": "yes", "brand": "DEI Blue", "operator": "ΑΒ Βασιλόπουλος", "name": "DEI blue - ΑΒ Βασιλόπουλος", "addr:postcode": "38222", "addr:city": "Βόλος", "socket:type2": "2", "socket:type2:output": "22.0 kW", "charging_station:output": "22.0 kW", "capacity": "2", "authentication:none": "", "_source": "worldwide"}}, {"type": "node", "id": 12642604555, "lat": 39.390483, "lon": 22.999949, "tags": {"amenity": "charging_station", "access": "customers", "fee": "yes", "brand": "nrg incharge", "opening_hours": "24/7", "operator": "Kenta Mountain Hotel", "name": "nrg - Kenta Hotel", "addr:postcode": "37011", "addr:city": "Πορταριά", "socket:type2": "1", "socket:type2:output": "22.0 kW", "charging_station:output": "22.0 kW", "capacity": "1", "authentication:none": "", "_source": "worldwide"}}, {"type": "node", "id": 12642604556, "lat": 39.387983, "lon": 22.995136, "tags": {"amenity": "charging_station", "access": "yes", "fee": "yes", "brand": "nrg incharge", "opening_hours": "24/7", "operator": "Domotel Xenia Portaria", "name": "nrg - Xenia Portaria", "addr:postcode": "37011", "addr:city": "Πορταριά", "socket:type2": "2", "socket:type2:output": "22.0 kW", "charging_station:output": "22.0 kW", "capacity": "2", "authentication:none": "", "_source": "worldwide"}}, {"type": "node", "id": 12642604559, "lat": 39.387949, "lon": 22.997925, "tags": {"amenity": "charging_station", "access": "customers", "fee": "yes", "brand": "Chargespot", "opening_hours": "24/7", "operator": "Hotel Despotiko", "name": "Chargespot - Hotel Despotiko", "addr:postcode": "37011", "socket:type2": "1", "socket:type2:output": "22.0 kW", "charging_station:output": "22.0 kW", "capacity": "1", "authentication:none": "", "_source": "worldwide"}}, {"type": "node", "id": 12642604560, "lat": 39.383267, "lon": 22.996726, "tags": {"amenity": "charging_station", "access": "customers", "fee": "yes", "brand": "Chargespot", "opening_hours": "24/7", "operator": "Stevalia Hotel & Spa", "name": "Chargespot - Stevalia Hotel", "addr:postcode": "37011", "socket:type2": "1", "socket:type2:output": "22.0 kW", "charging_station:output": "22.0 kW", "capacity": "1", "authentication:none": "", "_source": "worldwide"}}, {"type": "node", "id": 12642843988, "lat": 39.121781, "lon": 22.311626, "tags": {"amenity": "charging_station", "access": "yes", "fee": "yes", "brand": "nrg incharge", "opening_hours": "24/7", "operator": "My market", "name": "nrg - My market Δομοκός", "addr:postcode": "35010", "addr:city": "Δομοκός", "socket:type2": "2", "socket:type2:output": "22.0 kW", "charging_station:output": "22.0 kW", "capacity": "2", "authentication:none": "", "_source": "worldwide"}}, {"type": "node", "id": 12825156219, "lat": 39.347969, "lon": 22.925342, "tags": {"amenity": "charging_station", "access": "yes", "fee": "yes", "brand": "Chargespot", "operator": "Μότορ Βετεράνοι", "name": "Chargespot - Μότορ Βετεράνοι", "addr:street": "Αθηνών 146", "addr:postcode": "38334", "addr:city": "Βόλος", "socket:type2": "1", "socket:type2:output": "22.0 kW", "charging_station:output": "22.0 kW", "capacity": "1", "authentication:none": "", "_source": "worldwide"}}, {"type": "node", "id": 12825357685, "lat": 39.332693, "lon": 22.08749, "tags": {"amenity": "charging_station", "access": "yes", "fee": "yes", "brand": "Chargespot", "opening_hours": "24/7", "operator": "Γαλαξίας", "name": "Chargespot - Γαλαξίας", "addr:postcode": "43300", "addr:city": "Σοφάδες", "socket:type2": "2", "socket:type2:output": "22.0 kW", "charging_station:output": "22.0 kW", "capacity": "2", "authentication:none": "", "_source": "worldwide"}}, {"type": "node", "id": 12836750463, "lat": 39.98477, "lon": 22.632793, "tags": {"amenity": "charging_station", "access": "yes", "fee": "yes", "brand": "EKO Charge&Go", "operator": "Sun Beach Platamon Hotel", "name": "EKO Charge&Go - Sun Beach Hotel", "addr:postcode": "60065", "addr:city": "Πλαταμώνας", "capacity": "2", "authentication:none": "", "_source": "worldwide"}}, {"type": "node", "id": 12836755167, "lat": 39.344506, "lon": 22.999315, "tags": {"amenity": "charging_station", "access": "yes", "fee": "yes", "brand": "EKO Charge&Go", "opening_hours": "Mo-Su 06:00-22:00", "operator": "BP ΚΑΛΥΨΩ", "name": "EKO Charge&Go - BP Αγριά", "addr:postcode": "37300", "addr:city": "Αγριά", "socket:type2_combo": "2", "socket:type2_combo:output": "120.0 kW", "charging_station:output": "120.0 kW", "capacity": "2", "authentication:none": "", "_source": "worldwide"}}, {"type": "node", "id": 12966974735, "lat": 39.596752, "lon": 22.42853, "tags": {"amenity": "charging_station", "access": "yes", "fee": "yes", "brand": "nrg incharge", "opening_hours": "24/7", "operator": "Tennis Hall Academy", "name": "nrg - Tennis Hall Academy", "addr:postcode": "41500", "addr:city": "Λάρισα", "socket:type2": "1", "socket:type2:output": "22.0 kW", "charging_station:output": "22.0 kW", "capacity": "1", "authentication:none": "", "_source": "worldwide"}}, {"type": "node", "id": 13167453042, "lat": 39.600073, "lon": 22.430279, "tags": {"amenity": "charging_station", "access": "yes", "fee": "yes", "brand": "EVziiin", "opening_hours": "24/7", "operator": "COSMOS", "name": "EVziiin - Cosmos mall", "addr:street": "Περιφερειακή Οδός Λάρισας - Τρικάλων", "addr:postcode": "41110", "addr:city": "Λάρισα", "addr:country": "GR", "socket:type2": "2", "socket:type2:output": "22.0 kW", "charging_station:output": "22.0 kW", "capacity": "2", "authentication:none": "", "_source": "worldwide"}}, {"type": "node", "id": 13051026769, "lat": 39.573208, "lon": 22.347546, "tags": {"amenity": "charging_station", "access": "yes", "fee": "yes", "brand": "Joltie", "opening_hours": "24/7", "operator": "Κτήμα Καψιώχα", "name": "Joltie - Κτήμα Καψιώχα", "addr:postcode": "41500", "addr:city": "Λάρισα", "socket:type2": "1", "socket:type2:output": "22.0 kW", "charging_station:output": "22.0 kW", "capacity": "1", "authentication:none": "", "_source": "worldwide"}}, {"type": "node", "id": 13167438178, "lat": 39.578176, "lon": 22.454164, "tags": {"amenity": "charging_station", "access": "yes", "fee": "yes", "brand": "EVziiin", "opening_hours": "24/7", "operator": "Cabino Coffee Station", "name": "EVziiin - Cabino Coffee Station", "addr:postcode": "41500", "addr:city": "Λάρισα", "addr:country": "GR", "socket:type2": "2", "socket:type2:output": "22.0 kW", "charging_station:output": "22.0 kW", "capacity": "2", "authentication:none": "", "_source": "worldwide"}}, {"type": "node", "id": 13171674557, "lat": 39.625073, "lon": 22.409876, "tags": {"amenity": "charging_station", "access": "yes", "fee": "yes", "brand": "DEI Blue", "opening_hours": "24/7", "operator": "Σταύρου Ηλεκτρολογικές Μηχανολογικές Εγκαταστάσεις", "name": "DEI blue - Σταύρου", "addr:street": "Καρδίτσης 100", "addr:postcode": "41221", "addr:city": "Λάρισα", "addr:country": "GR", "socket:type2": "1", "socket:type2:output": "22.0 kW", "charging_station:output": "22.0 kW", "capacity": "1", "authentication:none": "", "_source": "worldwide"}}, {"type": "node", "id": 13181306035, "lat": 39.995705, "lon": 22.605572, "tags": {"amenity": "charging_station", "access": "yes", "fee": "yes", "brand": "Blink", "opening_hours": "24/7", "operator": "12 Olympian Gods Hotel", "name": "Blink - 12 Olympian Gods Hotel", "addr:postcode": "60065", "addr:city": "Πλαταμώνας", "capacity": "2", "authentication:none": "", "_source": "worldwide"}}, {"type": "node", "id": 13181975970, "lat": 39.642445, "lon": 22.419836, "tags": {"amenity": "charging_station", "access": "customers", "fee": "yes", "brand": "nrg incharge", "opening_hours": "Mo-Sa 08:00-23:00", "operator": "Parking ASTI", "name": "nrg - Parking ASTI", "addr:street": "Ερυθρού Σταυρού 17", "addr:postcode": "41221", "addr:city": "Λάρισα", "addr:country": "GR", "capacity": "2", "authentication:none": "", "_source": "worldwide"}}, {"type": "node", "id": 13247547054, "lat": 39.609059, "lon": 22.385662, "tags": {"amenity": "charging_station", "access": "yes", "fee": "yes", "brand": "EKO Charge&Go", "opening_hours": "24/7", "operator": "Goody's Burger House", "name": "EKO Charge&Go - Goody's Burger House", "addr:postcode": "41334", "addr:city": "Λάρισα", "socket:type2": "4", "socket:type2:output": "22.0 kW", "socket:type2_combo": "2", "socket:type2_combo:output": "120.0 kW", "charging_station:output": "120.0 kW", "capacity": "6", "authentication:none": "", "_source": "worldwide"}}, {"type": "node", "id": 13265245759, "lat": 39.321829, "lon": 22.925173, "tags": {"amenity": "charging_station", "access": "yes", "fee": "yes", "brand": "EV Loader", "network": "EV Loader", "opening_hours": "24/7", "operator": "Hotel Karagianni", "name": "EV Loader - Hotel Karagianni", "addr:street": "Σμύρνης 3", "addr:postcode": "38500", "addr:city": "Νέες Παγασές", "socket:type2": "1", "socket:type2:output": "22.0 kW", "charging_station:output": "22.0 kW", "capacity": "1", "authentication:none": "", "_source": "worldwide"}}, {"type": "node", "id": 13273169376, "lat": 39.602111, "lon": 22.425048, "tags": {"amenity": "charging_station", "access": "yes", "fee": "yes", "brand": "Joltie", "opening_hours": "24/7", "operator": "Κουιμτζήs Α.Ε. - FENDT", "name": "Joltie - Κουιμτζήs FENDT", "addr:street": "Περιφερειακή Οδός Λάρισας", "addr:postcode": "41335", "addr:city": "Λάρισα", "socket:type2": "1", "socket:type2:output": "22.0 kW", "charging_station:output": "22.0 kW", "capacity": "1", "authentication:none": "", "_source": "worldwide"}}, {"type": "node", "id": 13305859251, "lat": 39.895258, "lon": 22.186742, "tags": {"amenity": "charging_station", "access": "yes", "fee": "yes", "brand": "DEI Blue", "opening_hours": "24/7", "operator": "ΑΒ Βασιλόπουλος", "name": "DEI blue - ΑΒ Βασιλόπουλος", "addr:postcode": "40200", "addr:city": "Ελασσόνα", "socket:type2": "1", "socket:type2:output": "22.0 kW", "socket:type2_combo": "1", "socket:type2_combo:output": "22.0 kW", "charging_station:output": "22.0 kW", "capacity": "2", "authentication:none": "", "_source": "worldwide"}}, {"type": "node", "id": 13356175859, "lat": 39.378107, "lon": 22.877355, "tags": {"amenity": "charging_station", "access": "yes", "fee": "yes", "brand": "DEI Blue", "opening_hours": "Mo-Fr 09:00-19:00", "operator": "Σφακιανάκης Α.Ε.Β.Ε.", "name": "DΕΙ blue - Σφακιανάκης BYD Βόλος", "addr:postcode": "38500", "addr:city": "Βόλος", "socket:type2": "1", "socket:type2:output": "22.0 kW", "socket:type2_combo": "2", "socket:type2_combo:output": "60.0 kW", "charging_station:output": "60.0 kW", "capacity": "3", "authentication:none": "", "_source": "worldwide"}}, {"type": "node", "id": 13369628343, "lat": 39.638313, "lon": 22.411281, "tags": {"amenity": "charging_station", "access": "customers", "fee": "yes", "brand": "EKO Charge&Go", "operator": "Central Park parking", "name": "EKO Charge&Go - Central Park", "addr:street": "Κύπρου 103", "addr:postcode": "41222", "addr:city": "Λάρισα", "socket:type2": "1", "socket:type2:output": "22.0 kW", "socket:type2_combo": "1", "socket:type2_combo:output": "30.0 kW", "charging_station:output": "30.0 kW", "capacity": "2", "authentication:none": "", "_source": "worldwide"}}, {"type": "node", "id": 13444715403, "lat": 39.38696, "lon": 22.957309, "tags": {"amenity": "charging_station", "access": "yes", "fee": "yes", "brand": "Open Mobility", "opening_hours": "24/7", "operator": "Σχολή Αγίας Παρασκευής Βόλου - Ακαδημία ποδοσφαίρου", "name": "Open Mobility - APS Agia Paraskevi", "addr:postcode": "38500", "addr:city": "Βόλος", "socket:type2": "2", "socket:type2:output": "22.0 kW", "charging_station:output": "22.0 kW", "capacity": "2", "authentication:none": "", "_source": "worldwide"}}, {"type": "node", "id": 13458338337, "lat": 39.570152, "lon": 22.539391, "tags": {"amenity": "charging_station", "access": "yes", "fee": "yes", "brand": "Joltie", "opening_hours": "24/7", "operator": "Alfa Markets", "name": "Joltie - Alfa Markets", "addr:postcode": "41500", "addr:city": "Χάλκη", "socket:type2": "1", "socket:type2:output": "22.0 kW", "charging_station:output": "22.0 kW", "capacity": "1", "authentication:none": "", "_source": "worldwide"}}, {"type": "node", "id": 13476863297, "lat": 39.375909, "lon": 22.95955, "tags": {"amenity": "charging_station", "access": "yes", "fee": "yes", "brand": "Joltie", "opening_hours": "24/7", "operator": "Bruno Cafe", "name": "Joltie - Bruno Cafe", "addr:street": "Ιωλκού 278", "addr:postcode": "38221", "addr:city": "Βόλος", "socket:type2_combo": "2", "socket:type2_combo:output": "47.0 kW", "charging_station:output": "47.0 kW", "capacity": "2", "authentication:none": "", "_source": "worldwide"}}, {"type": "node", "id": 13519455609, "lat": 39.458526, "lon": 22.437558, "tags": {"amenity": "charging_station", "access": "yes", "fee": "yes", "brand": "nrg incharge", "opening_hours": "24/7", "operator": "Shell ΧΡΙΣΤΟΔΟΥΛΟΥ", "name": "nrg - Shell Ζάππειο", "addr:postcode": "41500", "addr:city": "Ζάππειο", "socket:type2": "1", "socket:type2:output": "22.0 kW", "charging_station:output": "22.0 kW", "capacity": "1", "authentication:none": "", "_source": "worldwide"}}, {"type": "node", "id": 13519462065, "lat": 39.452841, "lon": 22.165368, "tags": {"amenity": "charging_station", "access": "yes", "fee": "yes", "brand": "nrg incharge", "opening_hours": "Mo-Su 07:00-21:00", "operator": "Shell ΚΑΣΣΟΣ", "name": "nrg - Shell Ιτέα", "addr:postcode": "43062", "addr:city": "Ιτέα", "socket:type2": "1", "socket:type2:output": "22.0 kW", "charging_station:output": "22.0 kW", "capacity": "1", "authentication:none": "", "_source": "worldwide"}}, {"type": "node", "id": 13519484095, "lat": 39.696657, "lon": 22.340775, "tags": {"amenity": "charging_station", "access": "yes", "fee": "yes", "brand": "nrg incharge", "opening_hours": "24/7", "operator": "Ψυχιατρική Κλινική 'Αγιος Νικήτας' Α.Ε.", "name": "nrg - Κλινική 'Αγιος Νικήτας'", "addr:postcode": "41500", "addr:city": "Λάρισα", "socket:type2": "2", "socket:type2:output": "22.0 kW", "charging_station:output": "22.0 kW", "capacity": "2", "authentication:none": "", "_source": "worldwide"}}, {"type": "node", "id": 13519524400, "lat": 39.68298, "lon": 22.884446, "tags": {"amenity": "charging_station", "access": "yes", "fee": "yes", "brand": "nrg incharge", "opening_hours": "24/7", "operator": "Golden Beach Hotel", "name": "nrg - Golden Beach Hotel", "addr:postcode": "40003", "addr:city": "Αγιόκαμπος", "socket:type2": "1", "socket:type2:output": "22.0 kW", "charging_station:output": "22.0 kW", "capacity": "1", "authentication:none": "", "_source": "worldwide"}}, {"type": "node", "id": 13519535466, "lat": 39.704721, "lon": 22.459256, "tags": {"amenity": "charging_station", "access": "yes", "fee": "yes", "brand": "nrg incharge", "opening_hours": "24/7", "operator": "Mikel Drive", "name": "nrg - Mikel Drive", "addr:postcode": "41500", "addr:city": "Λάρισα", "socket:type2": "1", "socket:type2:output": "22.0 kW", "charging_station:output": "22.0 kW", "capacity": "1", "authentication:none": "", "_source": "worldwide"}}, {"type": "node", "id": 13519731665, "lat": 39.387498, "lon": 22.991795, "tags": {"amenity": "charging_station", "access": "customers", "fee": "yes", "brand": "nrg incharge", "opening_hours": "24/7", "operator": "Valeni Boutique Hotel & Spa", "name": "nrg - Valeni Boutique Hotel", "addr:postcode": "37011", "addr:city": "Πορταριά", "socket:type2": "1", "socket:type2:output": "22.0 kW", "charging_station:output": "22.0 kW", "capacity": "1", "authentication:none": "", "_source": "worldwide"}}, {"type": "node", "id": 13719495476, "lat": 39.619265, "lon": 22.505988, "tags": {"amenity": "charging_station", "access": "yes", "fee": "yes", "brand": "nrg incharge", "opening_hours": "24/7", "operator": "Alesco", "name": "nrg - Detox mobile Engaia Πλατύκαμπος", "addr:street": "Βόλου - Λάρισας", "addr:postcode": "40009", "addr:city": "Λάρισα", "socket:type2_combo": "2", "socket:type2_combo:output": "240.0 kW", "charging_station:output": "240.0 kW", "capacity": "2", "authentication:none": "", "_source": "worldwide"}}, {"type": "node", "id": 13720148928, "lat": 39.394859, "lon": 22.992926, "tags": {"amenity": "charging_station", "access": "yes", "fee": "yes", "brand": "nrg incharge", "opening_hours": "24/7", "operator": "Pilion Terra Escape Hotel", "name": "nrg - Pilion Terra Escape Hotel", "addr:postcode": "37011", "addr:city": "Πορταριά", "socket:type2": "1", "socket:type2:output": "22.0 kW", "charging_station:output": "22.0 kW", "capacity": "1", "authentication:none": "", "_source": "worldwide"}}]}