{"id": "-35--59", "latMin": -35, "lonMin": -59, "latMax": -34, "lonMax": -58, "generated": "2026-04-16T18:39:07.190Z", "count": 17, "pois": [{"type": "node", "id": 4571251290, "lat": -34.636405, "lon": -58.680546, "tags": {"amenity": "charging_station", "operator": "La Colonial", "name": "La Colonial", "_source": "worldwide"}}, {"type": "node", "id": 5015324983, "lat": -34.57442, "lon": -58.42148, "tags": {"amenity": "charging_station", "operator": "ACA Palermo", "name": "ACA Palermo", "socket:chademo": "2", "capacity": "4", "_source": "worldwide"}}, {"type": "node", "id": 5494390122, "lat": -34.556859, "lon": -58.851258, "tags": {"amenity": "charging_station", "operator": "Wall-Mart", "name": "Wall-Mart", "_source": "worldwide"}}, {"type": "node", "id": 9221498905, "lat": -34.685312, "lon": -58.304271, "tags": {"amenity": "charging_station", "fee": "yes", "operator": "YPF OPESSA AUBASA SUR", "name": "YPF", "_source": "worldwide"}}, {"type": "node", "id": 9221537974, "lat": -34.685328, "lon": -58.3042, "tags": {"amenity": "charging_station", "fee": "yes", "operator": "YPF", "name": "YPF", "_source": "worldwide"}}, {"type": "node", "id": 9221537975, "lat": -34.68458, "lon": -58.304604, "tags": {"amenity": "charging_station", "fee": "yes", "operator": "YPF", "name": "YPF", "_source": "worldwide"}}, {"type": "node", "id": 9221573763, "lat": -34.475581, "lon": -58.499782, "tags": {"amenity": "charging_station", "name": "Restaurant Kansas", "_source": "worldwide"}}, {"type": "node", "id": 9221640745, "lat": -34.578474, "lon": -58.40635, "tags": {"amenity": "charging_station", "operator": "Axion", "name": "ENEL", "_source": "worldwide"}}, {"type": "node", "id": 9995929735, "lat": -34.812203, "lon": -58.540522, "tags": {"amenity": "charging_station", "name": "EV Charging Station", "_source": "worldwide"}}, {"type": "node", "id": 11808842870, "lat": -34.58045, "lon": -58.398299, "tags": {"amenity": "charging_station", "fee": "yes", "opening_hours": "24/7", "operator": "Audi", "name": "Sircharge D", "_source": "worldwide"}}, {"type": "node", "id": 11867592947, "lat": -34.58657, "lon": -58.519332, "tags": {"amenity": "charging_station", "access": "customers", "brand": "ChargeboxNet", "name": "ChargeboxNet", "capacity": "2", "_source": "worldwide"}}, {"type": "node", "id": 12247524907, "lat": -34.429577, "lon": -58.681925, "tags": {"amenity": "charging_station", "access": "customers", "brand": "Scame", "name": "Scame", "_source": "worldwide"}}, {"type": "node", "id": 12249199370, "lat": -34.573509, "lon": -58.506461, "tags": {"amenity": "charging_station", "access": "customers", "operator": "Shell Recharge Solutions", "name": "Shell Recharge Solutions", "_source": "worldwide"}}, {"type": "node", "id": 12387173876, "lat": -34.681081, "lon": -58.450607, "tags": {"amenity": "charging_station", "access": "yes", "name": "YPF Punto Eléctrico", "_source": "worldwide"}}, {"type": "node", "id": 12583082441, "lat": -34.399288, "lon": -58.646623, "tags": {"amenity": "charging_station", "name": "Shell Recharge", "capacity": "2", "_source": "worldwide"}}, {"type": "node", "id": 12674278400, "lat": -34.551355, "lon": -58.437647, "tags": {"amenity": "charging_station", "brand": "YPF", "name": "Punto Eléctrico", "_source": "worldwide"}}, {"type": "node", "id": 12709235025, "lat": -34.622323, "lon": -58.402824, "tags": {"amenity": "charging_station", "operator": "Electro Universo", "name": "Punto de Carga", "_source": "worldwide"}}]}