{"id": "-44-147", "latMin": -44, "lonMin": 147, "latMax": -43, "lonMax": 148, "generated": "2026-04-16T18:39:07.175Z", "count": 5, "pois": [{"type": "node", "id": 7916500373, "lat": -43.031204, "lon": 147.04743, "tags": {"amenity": "charging_station", "fee": "no", "access": "yes", "opening_hours": "24/7", "operator": "Huon Valley Council", "name": "Huon Valley Council", "capacity": "1", "_source": "worldwide"}}, {"type": "node", "id": 9837441203, "lat": -43.321873, "lon": 147.242469, "tags": {"amenity": "charging_station", "access": "yes", "opening_hours": "24/7", "network": "Chargefox", "operator": "Chargefox", "name": "Chargefox", "addr:street": "Bruny Island Main Road", "addr:housenumber": "3959", "addr:postcode": "7150", "socket:chademo": "1", "capacity": "2", "_source": "worldwide"}}, {"type": "node", "id": 10161079414, "lat": -43.070884, "lon": 147.234363, "tags": {"amenity": "charging_station", "access": "customers", "name": "EV Charging Station", "capacity": "1", "_source": "worldwide"}}, {"type": "node", "id": 10772373678, "lat": -43.161777, "lon": 147.078, "tags": {"amenity": "charging_station", "fee": "yes", "access": "yes", "brand": "ABB", "network": "Chargefox", "operator": "Electric Highway Tasmania", "name": "ABB", "socket:chademo": "1", "capacity": "3", "_source": "worldwide"}}, {"type": "node", "id": 13540260585, "lat": -43.141064, "lon": 147.850347, "tags": {"amenity": "charging_station", "operator": "Exploren", "name": "Exploren", "capacity": "2", "_source": "worldwide"}}]}