{"id": "-7-107", "latMin": -7, "lonMin": 107, "latMax": -6, "lonMax": 108, "generated": "2026-04-16T18:39:07.213Z", "count": 26, "pois": [{"type": "node", "id": 10278757981, "lat": -6.920398, "lon": 107.608849, "tags": {"amenity": "charging_station", "opening_hours": "24/7", "name": "SPLU", "_source": "worldwide"}}, {"type": "node", "id": 10278757982, "lat": -6.879055, "lon": 107.597298, "tags": {"amenity": "charging_station", "operator": "Perusahaan Listrik Negara", "name": "SPKLU", "_source": "worldwide"}}, {"type": "node", "id": 10278757983, "lat": -6.948835, "lon": 107.611793, "tags": {"amenity": "charging_station", "fee": "yes", "opening_hours": "24/7", "brand": "SPKLU PLN UP3 Bandung", "operator": "Perusahaan Listrik Negara", "name": "SPKLU PLN UP3 Bandung", "_source": "worldwide"}}, {"type": "node", "id": 10278818868, "lat": -6.899281, "lon": 107.641204, "tags": {"amenity": "charging_station", "fee": "yes", "operator": "Perusahaan Listrik Negara", "name": "SPKLU", "_source": "worldwide"}}, {"type": "node", "id": 10278818869, "lat": -6.913252, "lon": 107.694923, "tags": {"amenity": "charging_station", "fee": "yes", "operator": "Perusahaan Listrik Negara", "name": "SPKLU", "_source": "worldwide"}}, {"type": "node", "id": 10628103491, "lat": -6.331008, "lon": 107.13004, "tags": {"amenity": "charging_station", "brand": "SPKLU PLN", "name": "SPKLU PLN", "_source": "worldwide"}}, {"type": "node", "id": 11097015685, "lat": -6.938272, "lon": 107.627899, "tags": {"amenity": "charging_station", "brand": "SPKLU PLN", "name": "SPKLU PLN", "_source": "worldwide"}}, {"type": "node", "id": 11313858414, "lat": -6.866766, "lon": 107.467023, "tags": {"amenity": "charging_station", "fee": "yes", "opening_hours": "Mo-Su 09:00-22:00", "brand": "Voltron", "name": "Voltron", "capacity": "2", "_source": "worldwide"}}, {"type": "node", "id": 11501962348, "lat": -6.955435, "lon": 107.693522, "tags": {"amenity": "charging_station", "fee": "yes", "opening_hours": "24/7", "operator": "Voltron", "name": "Voltron", "_source": "worldwide"}}, {"type": "node", "id": 11554666945, "lat": -6.954141, "lon": 107.699311, "tags": {"amenity": "charging_station", "fee": "yes", "opening_hours": "24/7", "name": "Voltron", "_source": "worldwide"}}, {"type": "node", "id": 11823325316, "lat": -6.947387, "lon": 107.598792, "tags": {"amenity": "charging_station", "fee": "yes", "access": "yes", "brand": "SKLU Hyundai Leuwipanjang (Khusus Kendaraan Hyundai)", "operator": "Hyundai", "name": "SPKLU Hyundai Leuwipanjang (Khusus Kendaraan Hyundai)", "_source": "worldwide"}}, {"type": "node", "id": 11842955097, "lat": -6.933854, "lon": 107.571417, "tags": {"amenity": "charging_station", "fee": "yes", "access": "yes", "brand": "SPKLU PLN ULP Kopo", "operator": "Perusahaan Listrik Negara", "name": "SPKLU PLN ULP Kopo", "_source": "worldwide"}}, {"type": "node", "id": 11842964069, "lat": -6.995948, "lon": 107.531178, "tags": {"amenity": "charging_station", "fee": "yes", "access": "yes", "opening_hours": "24/7", "brand": "SPKLU Pendopo Sri Agung Jaya Marga Asih", "operator": "Perusahaan Listrik Negara", "name": "SPKLU Pendopo Sri Agung Jaya Marga Asih", "_source": "worldwide"}}, {"type": "node", "id": 11872805012, "lat": -6.954015, "lon": 107.640577, "tags": {"amenity": "charging_station", "fee": "yes", "access": "yes", "brand": "SPKLU PLN ULP Cijawura", "operator": "Perusahaan Listrik Negara", "name": "SPKLU PLN ULP Cijawura", "_source": "worldwide"}}, {"type": "node", "id": 11872819863, "lat": -6.915195, "lon": 107.594482, "tags": {"amenity": "charging_station", "fee": "yes", "access": "yes", "brand": "(Voltron) 23 Paskal Mall", "operator": "Voltron", "name": "(Voltron) 23 Paskal Mall", "_source": "worldwide"}}, {"type": "node", "id": 11872991854, "lat": -6.898597, "lon": 107.554144, "tags": {"amenity": "charging_station", "fee": "yes", "access": "yes", "brand": "SPKLU PLN ULP Cimahi Selatan", "operator": "Perusahaan Listrik Negara", "name": "SPKLU PLN ULP Cimahi Selatan", "_source": "worldwide"}}, {"type": "node", "id": 11872997750, "lat": -6.907071, "lon": 107.578788, "tags": {"amenity": "charging_station", "fee": "yes", "access": "yes", "brand": "SPKLU PLN ULP Bandung Barat", "operator": "Perusahaan Listrik Negara", "name": "SPKLU PLN ULP Bandung Barat", "_source": "worldwide"}}, {"type": "node", "id": 12077015474, "lat": -6.271266, "lon": 107.039482, "tags": {"amenity": "charging_station", "fee": "yes", "name": "SPKLU Rest Area KM 19B", "_source": "worldwide"}}, {"type": "node", "id": 12473165429, "lat": -6.890815, "lon": 107.60959, "tags": {"amenity": "charging_station", "name": "EV Charging Station", "_source": "worldwide"}}, {"type": "node", "id": 12732885545, "lat": -6.351285, "lon": 107.193078, "tags": {"amenity": "charging_station", "access": "customers", "brand": "Utomo Charge+", "name": "Utomo Charge+", "_source": "worldwide"}}, {"type": "node", "id": 13081235461, "lat": -6.252946, "lon": 107.010704, "tags": {"amenity": "charging_station", "name": "EV Charging Station", "_source": "worldwide"}}, {"type": "node", "id": 13185499347, "lat": -6.266072, "lon": 107.008519, "tags": {"amenity": "charging_station", "name": "EV Charging Station", "_source": "worldwide"}}, {"type": "node", "id": 13363428303, "lat": -6.946187, "lon": 107.640396, "tags": {"amenity": "charging_station", "name": "EV Charging Station", "_source": "worldwide"}}, {"type": "node", "id": 13481009823, "lat": -6.867357, "lon": 107.464872, "tags": {"amenity": "charging_station", "name": "EV Charging Station", "_source": "worldwide"}}, {"type": "node", "id": 13481469558, "lat": -6.890205, "lon": 107.612758, "tags": {"amenity": "charging_station", "operator": "Pertamina", "name": "Pertamina", "_source": "worldwide"}}, {"type": "node", "id": 13592127827, "lat": -6.902223, "lon": 107.611876, "tags": {"amenity": "charging_station", "operator": "Voltron", "name": "Voltron", "_source": "worldwide"}}]}