{"id": "41-31", "latMin": 41, "lonMin": 31, "latMax": 42, "lonMax": 32, "generated": "2026-04-16T18:39:07.848Z", "count": 5, "pois": [{"type": "node", "id": 12118320101, "lat": 41.273204, "lon": 31.431204, "tags": {"amenity": "charging_station", "name": "Trugo", "_source": "worldwide"}}, {"type": "node", "id": 12118322101, "lat": 41.271715, "lon": 31.436497, "tags": {"amenity": "charging_station", "name": "Ereylin Şarj İstasyonu", "_source": "worldwide"}}, {"type": "node", "id": 12581799783, "lat": 41.085423, "lon": 31.177149, "tags": {"amenity": "charging_station", "fee": "no", "opening_hours": "24/7", "brand": "Astro", "name": "Astro", "_source": "worldwide"}}, {"type": "node", "id": 12582210901, "lat": 41.25304, "lon": 31.423047, "tags": {"amenity": "charging_station", "name": "EV Charging Station", "_source": "worldwide"}}, {"type": "node", "id": 12629462701, "lat": 41.082395, "lon": 31.176962, "tags": {"amenity": "charging_station", "name": "Trugo Şarj İstasyonu", "_source": "worldwide"}}]}