{"id": "38--107", "latMin": 38, "lonMin": -107, "latMax": 39, "lonMax": -106, "generated": "2026-04-16T18:39:07.637Z", "count": 6, "pois": [{"type": "node", "id": 5226808485, "lat": 38.84178, "lon": -106.130702, "tags": {"amenity": "charging_station", "fee": "yes", "brand": "ChargePoint", "operator": "ChargePoint", "name": "BV Charge", "socket:type1": "2", "capacity": "2", "_source": "worldwide"}}, {"type": "node", "id": 6113957495, "lat": 38.512202, "lon": -106.330588, "tags": {"amenity": "charging_station", "name": "EV Charging Station", "capacity": "1", "_source": "worldwide"}}, {"type": "node", "id": 6565092683, "lat": 38.51146, "lon": -106.07618, "tags": {"amenity": "charging_station", "fee": "yes", "access": "customers", "opening_hours": "24/7", "brand": "Tesla Supercharger", "network": "Supercharger", "operator": "Tesla", "name": "Tesla Supercharger", "addr:street": "US Highway 285", "addr:housenumber": "6250", "addr:postcode": "81242-0000", "addr:city": "Poncha Springs", "addr:country": "US", "capacity": "8", "_source": "worldwide"}}, {"type": "node", "id": 6802780910, "lat": 38.846897, "lon": -106.122482, "tags": {"amenity": "charging_station", "fee": "yes", "brand": "ChargePoint", "operator": "ChargePoint", "name": "Riverfront Park", "socket:type1": "2", "capacity": "2", "_source": "worldwide"}}, {"type": "node", "id": 6802785754, "lat": 38.841441, "lon": -106.1203, "tags": {"amenity": "charging_station", "brand": "ChargePoint", "operator": "ChargePoint", "name": "South Main Public Parking", "socket:chademo": "1", "socket:type1": "2", "socket:type1_combo": "1", "capacity": "4", "_source": "worldwide"}}, {"type": "node", "id": 9030247718, "lat": 38.526591, "lon": -106.963103, "tags": {"amenity": "charging_station", "fee": "no", "access": "customers", "name": "EV Charging Station", "socket:type1": "1", "capacity": "1", "_source": "worldwide"}}]}