{"id": "54-0", "latMin": 54, "lonMin": 0, "latMax": 55, "lonMax": 1, "generated": "2026-04-16T18:39:08.722Z", "count": 20, "pois": [{"type": "node", "id": 5695159781, "lat": 54.190175, "lon": -0.281836, "tags": {"amenity": "charging_station", "operator": "EV Charge", "name": "Ladestation EV Charge", "addr:country": "GB", "_source": "worldwide"}}, {"type": "node", "id": 6394695700, "lat": 54.31687, "lon": -0.833727, "tags": {"amenity": "charging_station", "fee": "yes", "operator": "Pod Point", "name": "Ladestation Pod Point", "addr:country": "GB", "socket:type2": "2", "socket:type2:output": "7000.0 kW", "charging_station:output": "7000.0 kW", "capacity": "2", "_source": "worldwide"}}, {"type": "node", "id": 7299783085, "lat": 54.26605, "lon": -0.417222, "tags": {"amenity": "charging_station", "operator": "Lidl", "name": "Ladestation Lidl", "addr:country": "GB", "capacity": "2", "wheelchair": "yes", "_source": "worldwide"}}, {"type": "node", "id": 7895429046, "lat": 54.0844, "lon": -0.196259, "tags": {"amenity": "charging_station", "access": "yes", "operator": "Tesco and VW", "name": "Tesco/VW Electric Car Charging", "addr:country": "GB", "capacity": "8", "_source": "worldwide"}}, {"type": "node", "id": 7992944848, "lat": 54.08436, "lon": -0.193386, "tags": {"amenity": "charging_station", "addr:country": "GB", "socket:type2": "2", "socket:type2:output": "22 kW", "charging_station:output": "22 kW", "_source": "worldwide"}}, {"type": "node", "id": 8586118142, "lat": 54.08514, "lon": -0.190925, "tags": {"amenity": "charging_station", "addr:country": "GB", "socket:type2": "2", "socket:type2:output": "22 kW", "charging_station:output": "22 kW", "_source": "worldwide"}}, {"type": "node", "id": 8112302008, "lat": 54.172283, "lon": -0.978643, "tags": {"amenity": "charging_station", "access": "permissive", "fee": "yes", "network": "Polar", "operator": "BP Pulse", "name": "Hovingham Village Hall", "addr:country": "GB", "socket:type2": "2", "socket:type2:output": "7.0 kW", "charging_station:output": "7.0 kW", "capacity": "2", "_source": "worldwide"}}, {"type": "node", "id": 8974739395, "lat": 54.470489, "lon": -0.598819, "tags": {"amenity": "charging_station", "access": "yes", "operator": "Pod Point", "name": "Ladestation Pod Point", "addr:country": "GB", "capacity": "4", "_source": "worldwide"}}, {"type": "node", "id": 9733139191, "lat": 54.391787, "lon": -0.499633, "tags": {"amenity": "charging_station", "access": "customers", "addr:country": "GB", "_source": "worldwide"}}, {"type": "node", "id": 10557264427, "lat": 54.083422, "lon": -0.200399, "tags": {"amenity": "charging_station", "addr:country": "GB", "_source": "worldwide"}}, {"type": "node", "id": 10746604620, "lat": 54.24117, "lon": -0.367543, "tags": {"amenity": "charging_station", "operator": "Pod Point", "name": "Ladestation Pod Point", "addr:country": "GB", "capacity": "2", "_source": "worldwide"}}, {"type": "node", "id": 10811623119, "lat": 54.486351, "lon": -0.635514, "tags": {"amenity": "charging_station", "access": "yes", "fee": "yes", "brand": "Pod-point", "operator": "Pod Point", "name": "Pod Point - Pod-point", "addr:country": "GB", "capacity": "2", "_source": "worldwide"}}, {"type": "node", "id": 11003445692, "lat": 54.091065, "lon": -0.178658, "tags": {"amenity": "charging_station", "brand": "Mer", "name": "Mer", "addr:country": "GB", "capacity": "6", "_source": "worldwide"}}, {"type": "node", "id": 11030436533, "lat": 54.279995, "lon": -0.404147, "tags": {"amenity": "charging_station", "operator": "InstaVolt", "name": "Ladestation InstaVolt", "addr:country": "GB", "capacity": "4", "_source": "worldwide"}}, {"type": "node", "id": 11275510169, "lat": 54.466096, "lon": -0.895799, "tags": {"amenity": "charging_station", "access": "yes", "fee": "no", "brand": "Spelsberg", "name": "[BCS] Lucas St John", "addr:country": "GB", "socket:schuko": "2", "socket:schuko:output": "2.3 kW", "charging_station:output": "2.3 kW", "capacity": "4", "_source": "worldwide"}}, {"type": "node", "id": 11741414567, "lat": 54.244656, "lon": -0.78051, "tags": {"amenity": "charging_station", "access": "yes", "fee": "no", "brand": "Spelsberg - Bosch;Shimano;Generic plug", "operator": "Big Bear Bikes", "name": "Big Bear Bikes - Spelsberg - Bosch;Shimano;Generic plug", "addr:country": "GB", "capacity": "4", "_source": "worldwide"}}, {"type": "node", "id": 11741480712, "lat": 54.275351, "lon": -0.686886, "tags": {"amenity": "charging_station", "access": "yes", "fee": "no", "brand": "Spelsberg - Bosch;Shimano;Generic plug", "operator": "Dalby Forest Cycle Hub", "name": "Dalby Forest Cycle Hub - Spelsberg - Bosch;Shimano;Generic plug", "addr:country": "GB", "capacity": "4", "_source": "worldwide"}}, {"type": "node", "id": 11778731403, "lat": 54.237034, "lon": -0.417888, "tags": {"amenity": "charging_station", "operator": "InstaVolt", "name": "Ladestation InstaVolt", "addr:country": "GB", "_source": "worldwide"}}, {"type": "node", "id": 13248242350, "lat": 54.555687, "lon": -0.793572, "tags": {"amenity": "charging_station", "operator": "Connected Kerb", "name": "Ladestation Connected Kerb", "addr:country": "GB", "capacity": "4", "_source": "worldwide"}}, {"type": "node", "id": 13248246025, "lat": 54.488764, "lon": -0.621388, "tags": {"amenity": "charging_station", "access": "yes", "fee": "yes", "operator": "Connected Kerb", "name": "Ladestation Connected Kerb", "addr:country": "GB", "capacity": "10", "_source": "worldwide"}}]}