{"id": "39--107", "latMin": 39, "lonMin": -107, "latMax": 40, "lonMax": -106, "generated": "2026-04-16T18:39:07.701Z", "count": 30, "pois": [{"type": "node", "id": 3066815807, "lat": 39.631659, "lon": -106.07079, "tags": {"amenity": "charging_station", "fee": "yes", "access": "customers", "opening_hours": "24/7", "brand": "Tesla Supercharger", "network": "Supercharger", "operator": "Tesla", "name": "Tesla Supercharger", "addr:street": "Rainbow Dr", "addr:housenumber": "246-V", "addr:postcode": "80498", "addr:city": "Silverthorne", "addr:country": "US", "capacity": "12", "_source": "worldwide"}}, {"type": "node", "id": 4266357443, "lat": 39.191468, "lon": -106.817763, "tags": {"amenity": "charging_station", "fee": "no", "opening_hours": "24/7", "name": "EV Charging Station", "socket:chademo": "1", "socket:type1": "2", "socket:type1_combo": "1", "capacity": "4", "_source": "worldwide"}}, {"type": "node", "id": 4267412689, "lat": 39.225565, "lon": -106.864446, "tags": {"amenity": "charging_station", "fee": "no", "opening_hours": "24/7", "name": "EV Charging Station", "socket:type1": "4", "capacity": "4", "_source": "worldwide"}}, {"type": "node", "id": 6530536360, "lat": 39.642125, "lon": -106.371694, "tags": {"amenity": "charging_station", "name": "EV Charging Station", "_source": "worldwide"}}, {"type": "node", "id": 6564761992, "lat": 39.2049, "lon": -106.85846, "tags": {"amenity": "charging_station", "fee": "yes", "access": "customers", "opening_hours": "24/7", "brand": "Tesla Supercharger", "network": "Supercharger", "operator": "Tesla", "name": "Aspen Supercharger", "addr:street": "Highway 82", "addr:housenumber": "38750", "addr:postcode": "81611-2506", "addr:city": "Aspen", "addr:country": "US", "capacity": "8", "_source": "worldwide"}}, {"type": "node", "id": 7482981811, "lat": 39.659049, "lon": -106.827917, "tags": {"amenity": "charging_station", "fee": "yes", "brand": "ChargePoint", "operator": "ChargePoint", "name": "ChargePoint", "_source": "worldwide"}}, {"type": "node", "id": 8285114975, "lat": 39.586636, "lon": -106.095137, "tags": {"amenity": "charging_station", "fee": "yes", "access": "yes", "brand": "Electrify America", "operator": "Electrify America", "name": "Electrify America Walmart 986", "socket:type1_combo": "4", "capacity": "4", "_source": "worldwide"}}, {"type": "node", "id": 8462324145, "lat": 39.236219, "lon": -106.302603, "tags": {"amenity": "charging_station", "fee": "no", "access": "yes", "name": "EV Charging Station", "_source": "worldwide"}}, {"type": "node", "id": 9033084676, "lat": 39.633221, "lon": -106.520777, "tags": {"amenity": "charging_station", "fee": "yes", "access": "yes", "brand": "ChargePoint", "operator": "ChargePoint", "name": "ChargePoint", "socket:chademo": "1", "socket:type1_combo": "1", "capacity": "2", "_source": "worldwide"}}, {"type": "node", "id": 9470671177, "lat": 39.246253, "lon": -106.291189, "tags": {"amenity": "charging_station", "access": "yes", "brand": "ChargePoint", "operator": "ChargePoint", "name": "ChargePoint", "_source": "worldwide"}}, {"type": "node", "id": 9777703861, "lat": 39.191907, "lon": -106.818491, "tags": {"amenity": "charging_station", "fee": "no", "access": "yes", "brand": "ChargePoint", "operator": "ChargePoint", "name": "ChargePoint", "socket:chademo": "1", "socket:type1_combo": "1", "capacity": "2", "_source": "worldwide"}}, {"type": "node", "id": 10635073023, "lat": 39.209968, "lon": -106.949819, "tags": {"amenity": "charging_station", "name": "EV Charging Station", "_source": "worldwide"}}, {"type": "node", "id": 10869958766, "lat": 39.650973, "lon": -106.826862, "tags": {"amenity": "charging_station", "name": "EV Charging Station", "_source": "worldwide"}}, {"type": "node", "id": 11006402546, "lat": 39.645929, "lon": -106.080102, "tags": {"amenity": "charging_station", "fee": "yes", "access": "yes", "opening_hours": "24/7", "brand": "Tesla Supercharger", "network": "Supercharger", "operator": "Tesla", "name": "Tesla Supercharger", "addr:street": "Ruby Ranch Road", "addr:housenumber": "101", "addr:postcode": "80498", "addr:city": "Silverthorne", "addr:country": "US", "capacity": "8", "_source": "worldwide"}}, {"type": "node", "id": 11018572388, "lat": 39.648552, "lon": -106.587013, "tags": {"amenity": "charging_station", "fee": "yes", "access": "yes", "opening_hours": "24/7", "brand": "Tesla Supercharger", "network": "Supercharger", "operator": "Tesla", "name": "Edwards Supercharger", "addr:street": "Edwards Access Road", "addr:housenumber": "434", "addr:postcode": "81632", "addr:city": "Edwards", "addr:country": "US", "capacity": "12", "_source": "worldwide"}}, {"type": "node", "id": 11128707755, "lat": 39.57755, "lon": -106.089838, "tags": {"amenity": "charging_station", "name": "EV Charging Station", "_source": "worldwide"}}, {"type": "node", "id": 11253822328, "lat": 39.472907, "lon": -106.038448, "tags": {"amenity": "charging_station", "fee": "yes", "access": "yes", "brand": "ChargePoint", "operator": "ChargePoint", "name": "ChargePoint", "_source": "worldwide"}}, {"type": "node", "id": 12043980210, "lat": 39.50654, "lon": -106.14143, "tags": {"amenity": "charging_station", "fee": "yes", "access": "yes", "opening_hours": "24/7", "brand": "Tesla Supercharger", "network": "Supercharger", "operator": "Tesla", "name": "Tesla Supercharger", "addr:street": "Frontage Road", "addr:housenumber": "50", "addr:postcode": "80443", "addr:city": "Frisco", "addr:country": "US", "socket:type1_combo": "8", "capacity": "16", "_source": "worldwide"}}, {"type": "node", "id": 12308206710, "lat": 39.588846, "lon": -106.097541, "tags": {"amenity": "charging_station", "fee": "yes", "brand": "ChargePoint", "operator": "ChargePoint", "name": "ChargePoint", "_source": "worldwide"}}, {"type": "node", "id": 12383458860, "lat": 39.629423, "lon": -106.494888, "tags": {"amenity": "charging_station", "fee": "no", "opening_hours": "24/7", "brand": "Tesla, Inc.", "name": "Tesla Destination Charger", "_source": "worldwide"}}, {"type": "node", "id": 12437957042, "lat": 39.591136, "lon": -106.096863, "tags": {"amenity": "charging_station", "fee": "yes", "access": "yes", "opening_hours": "24/7", "brand": "Tesla Supercharger", "network": "Supercharger", "operator": "Tesla", "name": "Tesla Supercharger", "addr:street": "Summit Boulevard", "addr:housenumber": "1202", "addr:postcode": "80443", "addr:city": "Frisco", "addr:country": "US", "socket:type1_combo": "12", "capacity": "24", "_source": "worldwide"}}, {"type": "node", "id": 12438028035, "lat": 39.64386, "lon": -106.888236, "tags": {"amenity": "charging_station", "fee": "yes", "access": "yes", "opening_hours": "24/7", "brand": "Tesla Supercharger", "network": "Supercharger", "operator": "Tesla", "name": "Gypsum CO Supercharger", "addr:street": "Cooley Mesa Road", "addr:housenumber": "150", "addr:postcode": "81637", "addr:city": "Gypsum", "addr:country": "US", "socket:type1_combo": "8", "capacity": "16", "_source": "worldwide"}}, {"type": "node", "id": 12585473574, "lat": 39.632181, "lon": -106.526561, "tags": {"amenity": "charging_station", "fee": "yes", "brand": "ChargePoint", "operator": "ChargePoint", "name": "ChargePoint", "_source": "worldwide"}}, {"type": "node", "id": 12737759536, "lat": 39.628185, "lon": -106.50165, "tags": {"amenity": "charging_station", "fee": "yes", "brand": "ChargePoint", "name": "ChargePoint", "_source": "worldwide"}}, {"type": "node", "id": 12789849962, "lat": 39.574934, "lon": -106.098971, "tags": {"amenity": "charging_station", "brand": "ChargePoint", "operator": "ChargePoint", "name": "ChargePoint", "_source": "worldwide"}}, {"type": "node", "id": 13189354803, "lat": 39.481964, "lon": -106.042822, "tags": {"amenity": "charging_station", "fee": "yes", "brand": "ChargePoint", "operator": "ChargePoint", "name": "Breck XEO", "addr:street": "South Harris Street", "addr:housenumber": "103", "capacity": "2", "_source": "worldwide"}}, {"type": "node", "id": 13255235881, "lat": 39.591266, "lon": -106.096742, "tags": {"amenity": "charging_station", "fee": "no", "brand": "Tesla", "name": "Tesla Destination Charger", "_source": "worldwide"}}, {"type": "node", "id": 13335146796, "lat": 39.648475, "lon": -106.587487, "tags": {"amenity": "charging_station", "fee": "yes", "access": "yes", "brand": "Electrify America", "operator": "Electrify America", "name": "Electrify America East-West Resort Edwards Station", "socket:type1_combo": "4", "capacity": "4", "_source": "worldwide"}}, {"type": "node", "id": 13375131015, "lat": 39.626389, "lon": -106.065511, "tags": {"amenity": "charging_station", "fee": "yes", "brand": "ChargePoint", "operator": "ChargePoint", "name": "ChargePoint", "_source": "worldwide"}}, {"type": "node", "id": 13673186640, "lat": 39.637987, "lon": -106.077061, "tags": {"amenity": "charging_station", "fee": "yes", "access": "yes", "brand": "ChargePoint", "operator": "ChargePoint", "name": "ChargePoint Target", "_source": "worldwide"}}]}