{"id": "50-9", "latMin": 50, "lonMin": 9, "latMax": 51, "lonMax": 10, "generated": "2026-04-16T18:39:08.388Z", "count": 507, "pois": [{"type": "node", "id": 1271420982, "lat": 50.045833, "lon": 9.022751, "tags": {"amenity": "charging_station", "operator": "Süwag", "name": "Ladestation Süwag", "addr:street": "Am Oberborn 1", "addr:postcode": "63791", "addr:city": "Karlstein am Main", "addr:country": "DE", "socket:type2": "2", "socket:type2:output": "22.0 kW", "charging_station:output": "22.0 kW", "_source": "worldwide"}}, {"type": "node", "id": 1839127668, "lat": 50.42917, "lon": 9.401649, "tags": {"amenity": "charging_station", "access": "private", "addr:country": "DE", "capacity": "2", "_source": "worldwide"}}, {"type": "node", "id": 2598799784, "lat": 50.205683, "lon": 9.139281, "tags": {"amenity": "charging_station", "operator": "Kreiswerke Main-Kinzig", "name": "Ladestation Kreiswerke Main-Kinzig", "addr:country": "DE", "socket:type2": "2", "socket:type2:output": "22.0 kW", "charging_station:output": "22.0 kW", "capacity": "2", "_source": "worldwide"}}, {"type": "node", "id": 9794519873, "lat": 50.204153, "lon": 9.137552, "tags": {"amenity": "charging_station", "fee": "yes", "opening_hours": "24/7", "operator": "Aldi", "name": "Ladestation Aldi", "addr:country": "DE", "socket:type2": "2", "socket:type2:output": "22.0 kW", "charging_station:output": "22.0 kW", "capacity": "2", "_source": "worldwide"}}, {"type": "node", "id": 10918329250, "lat": 50.204373, "lon": 9.135915, "tags": {"amenity": "charging_station", "fee": "yes", "operator": "Allego B.V.", "name": "Ladestation Allego B.V.", "addr:country": "DE", "socket:type2": "1", "socket:type2:output": "22 kW", "socket:type2_combo": "1", "socket:type2_combo:output": "50 kW", "charging_station:output": "50 kW", "capacity": "2", "_source": "worldwide"}}, {"type": "node", "id": 11388068966, "lat": 50.206351, "lon": 9.131922, "tags": {"amenity": "charging_station", "fee": "yes", "operator": "Allego B.V.", "name": "Ladestation Allego B.V.", "addr:country": "DE", "socket:type2_combo": "2", "socket:type2_combo:output": "150.0 kW", "charging_station:output": "150.0 kW", "capacity": "2", "_source": "worldwide"}}, {"type": "node", "id": 12681280879, "lat": 50.205305, "lon": 9.135371, "tags": {"amenity": "charging_station", "fee": "yes", "brand": "Aral pulse", "operator": "Aral pulse", "name": "Aral pulse - Aral pulse", "addr:country": "DE", "socket:type2_combo": "2", "socket:type2_combo:output": "50 kW", "socket:chademo": "1", "socket:chademo:output": "100.0 kW", "charging_station:output": "100.0 kW", "_source": "worldwide"}}, {"type": "node", "id": 2722967606, "lat": 50.981994, "lon": 9.342859, "tags": {"amenity": "charging_station", "addr:country": "DE", "socket:schuko": "2", "socket:schuko:output": "2.3 kW", "charging_station:output": "2.3 kW", "capacity": "2", "_source": "worldwide"}}, {"type": "node", "id": 11233632967, "lat": 50.981184, "lon": 9.340049, "tags": {"amenity": "charging_station", "addr:country": "DE", "capacity": "2", "_source": "worldwide"}}, {"type": "node", "id": 2949112464, "lat": 50.069555, "lon": 9.166867, "tags": {"amenity": "charging_station", "operator": "AVG", "name": "Ladestation AVG", "addr:country": "DE", "socket:type2": "1", "socket:type2:output": "22 kW", "socket:schuko": "1", "socket:schuko:output": "2.3 kW", "charging_station:output": "22 kW", "capacity": "2", "_source": "worldwide"}}, {"type": "node", "id": 3334040695, "lat": 50.068037, "lon": 9.165926, "tags": {"amenity": "charging_station", "addr:country": "DE", "capacity": "2", "_source": "worldwide"}}, {"type": "node", "id": 10142657016, "lat": 50.069955, "lon": 9.166272, "tags": {"amenity": "charging_station", "access": "yes", "fee": "no", "opening_hours": "24/7", "operator": "Raiffeisen-Volksbank Aschaffenburg", "name": "Raiffeisen-Volksbank Aschaffenburg - Raiffeisen-Volksbank Aschaffenburg eG", "addr:country": "DE", "socket:schuko": "4", "socket:schuko:output": "2.3 kW", "charging_station:output": "2.3 kW", "capacity": "4", "_source": "worldwide"}}, {"type": "node", "id": 2961296883, "lat": 50.752676, "lon": 9.271521, "tags": {"amenity": "charging_station", "access": "yes", "fee": "yes", "brand": "OVAG", "operator": "OVAG", "name": "OVAG - OVAG", "addr:country": "DE", "socket:type2": "2", "socket:type2:output": "22 kW", "socket:schuko": "2", "socket:schuko:output": "2.3 kW", "charging_station:output": "22 kW", "capacity": "2", "_source": "worldwide"}}, {"type": "node", "id": 3005716762, "lat": 50.676198, "lon": 9.77716, "tags": {"amenity": "charging_station", "fee": "yes", "addr:country": "DE", "socket:cee_blue": "6", "socket:cee_blue:output": "3.7 kW", "charging_station:output": "3.7 kW", "capacity": "6", "_source": "worldwide"}}, {"type": "node", "id": 3016084291, "lat": 50.181928, "lon": 9.006722, "tags": {"amenity": "charging_station", "access": "yes", "fee": "yes", "brand": "Tesla Supercharger", "opening_hours": "24/7", "operator": "Tesla", "name": "Tesla - Tesla Supercharger", "addr:country": "DE", "socket:type2_combo": "6", "socket:type2_combo:output": "250.0 kW", "charging_station:output": "250.0 kW", "capacity": "6", "_source": "worldwide"}}, {"type": "node", "id": 5588627621, "lat": 50.182476, "lon": 9.006941, "tags": {"amenity": "charging_station", "operator": "fast E", "name": "Ladestation fast E", "addr:country": "DE", "capacity": "2", "_source": "worldwide"}}, {"type": "node", "id": 3376136045, "lat": 50.141691, "lon": 9.114724, "tags": {"amenity": "charging_station", "fee": "no", "operator": "Kreiswerke Main-Kinzig", "name": "Ladestation Kreiswerke Main-Kinzig", "addr:country": "DE", "socket:type2": "2", "socket:type2:output": "22 kW", "charging_station:output": "22 kW", "capacity": "2", "_source": "worldwide"}}, {"type": "node", "id": 3412993065, "lat": 50.497602, "lon": 9.682616, "tags": {"amenity": "charging_station", "access": "yes", "fee": "no", "operator": "Neotron Eichenzell", "name": "Ladestation Neotron Eichenzell", "addr:country": "DE", "socket:schuko": "2", "socket:schuko:output": "2.3 kW", "charging_station:output": "2.3 kW", "capacity": "2", "authentication:none": "yes", "_source": "worldwide"}}, {"type": "node", "id": 3566992168, "lat": 50.216712, "lon": 9.2713, "tags": {"amenity": "charging_station", "access": "yes", "fee": "yes", "opening_hours": "24/7", "operator": "Kreiswerke Main-Kinzig", "name": "E-Ladestation Biebergemünd", "addr:country": "DE", "socket:type2": "2", "socket:type2:output": "22 kW", "charging_station:output": "22 kW", "capacity": "2", "_source": "worldwide"}}, {"type": "node", "id": 11506585128, "lat": 50.215192, "lon": 9.270411, "tags": {"amenity": "charging_station", "access": "yes", "fee": "yes", "operator": "AHS-Solar", "name": "AHS-Solar - AHS-Solar GmbH", "addr:country": "DE", "socket:type2": "2", "socket:type2:output": "22 kW", "charging_station:output": "22 kW", "capacity": "2", "_source": "worldwide"}}, {"type": "node", "id": 12022423742, "lat": 50.215143, "lon": 9.27114, "tags": {"amenity": "charging_station", "access": "yes", "fee": "yes", "operator": "AHS-Solar", "name": "AHS-Solar - AHS-Solar GmbH", "addr:country": "DE", "socket:type2": "2", "socket:type2:output": "22 kW", "charging_station:output": "22 kW", "capacity": "2", "_source": "worldwide"}}, {"type": "node", "id": 3761502752, "lat": 50.192963, "lon": 9.205401, "tags": {"amenity": "charging_station", "fee": "no", "operator": "Versorgungsservice Main-Kinzig", "name": "Ladestation Versorgungsservice Main-Kinzig", "addr:country": "DE", "socket:type2": "1", "socket:type2:output": "22 kW", "socket:schuko": "2", "socket:schuko:output": "2.3 kW", "charging_station:output": "22 kW", "capacity": "3", "_source": "worldwide"}}, {"type": "node", "id": 7105141375, "lat": 50.196382, "lon": 9.196428, "tags": {"amenity": "charging_station", "operator": "VR Bank Main-Kinzig-Büdingen", "name": "VR Bank Main-Kinzig-Büdingen - VR Bank Main-Kinzig-Büdingen eG", "addr:country": "DE", "socket:type2": "2", "socket:type2:output": "22 kW", "charging_station:output": "22 kW", "capacity": "2", "_source": "worldwide"}}, {"type": "node", "id": 3775701005, "lat": 50.068707, "lon": 9.006532, "tags": {"amenity": "charging_station", "addr:country": "DE", "capacity": "2", "_source": "worldwide"}}, {"type": "node", "id": 3946400873, "lat": 50.191596, "lon": 9.472338, "tags": {"amenity": "charging_station", "fee": "no", "opening_hours": "24/7", "operator": "Kreiswerke Main-Kinzig", "name": "Kreiswerke Main-Kinzig - Kreiswerke Main-Kinzig GmbH", "addr:country": "DE", "socket:type2": "2", "socket:type2:output": "22 kW", "charging_station:output": "22 kW", "capacity": "2", "_source": "worldwide"}}, {"type": "node", "id": 3946401811, "lat": 50.127512, "lon": 9.479708, "tags": {"amenity": "charging_station", "access": "yes", "fee": "yes", "brand": "chargepoint", "operator": "Kreiswerke Main-Kinzig", "name": "Kreiswerke Main-Kinzig - chargepoint", "addr:country": "DE", "socket:type2": "2", "socket:type2:output": "22 kW", "charging_station:output": "22 kW", "capacity": "2", "_source": "worldwide"}}, {"type": "node", "id": 3946404700, "lat": 50.084597, "lon": 9.245619, "tags": {"amenity": "charging_station", "fee": "no", "opening_hours": "24/7", "operator": "Energieversorgung Main-Spessart", "name": "Energieversorgung Main-Spessart - Energieversorgung Main-Spessart GmbH", "addr:country": "DE", "socket:type2": "2", "socket:type2:output": "22 kW", "charging_station:output": "22 kW", "capacity": "2", "_source": "worldwide"}}, {"type": "node", "id": 13676147642, "lat": 50.081426, "lon": 9.245114, "tags": {"amenity": "charging_station", "fee": "yes", "addr:country": "DE", "capacity": "2", "_source": "worldwide"}}, {"type": "node", "id": 10669390755, "lat": 50.834817, "lon": 9.574467, "tags": {"amenity": "charging_station", "access": "yes", "fee": "yes", "brand": "Tesla Supercharger", "opening_hours": "24/7", "operator": "Tesla", "name": "Kirchkeim Supercharger", "addr:street": "Hauptstraße 1", "addr:postcode": "36275", "addr:city": "Kirchheim", "addr:country": "DE", "socket:type2_combo": "20", "socket:type2_combo:output": "250.0 kW", "charging_station:output": "250.0 kW", "capacity": "20", "_source": "worldwide"}}, {"type": "node", "id": 11304965213, "lat": 50.834252, "lon": 9.574485, "tags": {"amenity": "charging_station", "access": "yes", "fee": "yes", "brand": "Shell Recharge", "network": "Shell Recharge", "opening_hours": "24/7", "operator": "Shell Recharge", "name": "Shell Recharge - Shell Recharge", "addr:country": "DE", "socket:type2_combo": "4", "socket:type2_combo:output": "50 kW", "charging_station:output": "50 kW", "capacity": "4", "_source": "worldwide"}}, {"type": "node", "id": 5876351189, "lat": 50.676723, "lon": 9.563024, "tags": {"amenity": "charging_station", "opening_hours": "24/7", "operator": "ovag Energie", "name": "OVAG", "addr:country": "DE", "socket:type2": "2", "socket:type2:output": "22 kW", "charging_station:output": "22 kW", "capacity": "2", "_source": "worldwide"}}, {"type": "node", "id": 12482235714, "lat": 50.677193, "lon": 9.563199, "tags": {"amenity": "charging_station", "brand": "Numbat", "operator": "Numbat Insolvenz", "name": "Vaylens", "addr:country": "DE", "_source": "worldwide"}}, {"type": "node", "id": 13009320153, "lat": 50.675352, "lon": 9.562218, "tags": {"amenity": "charging_station", "operator": "OVAG", "name": "OVAG E-Mobil", "addr:country": "DE", "capacity": "2", "_source": "worldwide"}}, {"type": "node", "id": 4290851952, "lat": 50.215171, "lon": 9.042866, "tags": {"amenity": "charging_station", "fee": "no", "operator": "Kreiswerke Main-Kinzig", "name": "Ladestation Kreiswerke Main-Kinzig", "addr:country": "DE", "socket:schuko": "5", "socket:schuko:output": "2.3 kW", "charging_station:output": "2.3 kW", "capacity": "5", "_source": "worldwide"}}, {"type": "node", "id": 13288663512, "lat": 50.216207, "lon": 9.046783, "tags": {"amenity": "charging_station", "fee": "yes", "opening_hours": "24/7", "addr:country": "DE", "socket:type2": "2", "socket:type2:output": "22.0 kW", "charging_station:output": "22.0 kW", "capacity": "2", "_source": "worldwide"}}, {"type": "node", "id": 4307946217, "lat": 50.383948, "lon": 9.299233, "tags": {"amenity": "charging_station", "fee": "no", "operator": "Mainova", "name": "Mainova - Mainova AG", "addr:country": "DE", "socket:schuko": "6", "socket:schuko:output": "2.3 kW", "charging_station:output": "2.3 kW", "capacity": "6", "_source": "worldwide"}}, {"type": "node", "id": 4318366277, "lat": 50.007212, "lon": 9.205911, "tags": {"amenity": "charging_station", "operator": "EWG", "name": "Ladestation EWG", "addr:country": "DE", "capacity": "2", "_source": "worldwide"}}, {"type": "node", "id": 4323034302, "lat": 50.121652, "lon": 9.1527, "tags": {"amenity": "charging_station", "fee": "no", "operator": "Kreiswerke Main-Kinzig", "name": "Ladestation Kreiswerke Main-Kinzig", "addr:country": "DE", "socket:schuko": "4", "socket:schuko:output": "2.3 kW", "charging_station:output": "2.3 kW", "capacity": "4", "_source": "worldwide"}}, {"type": "node", "id": 4366813928, "lat": 50.494287, "lon": 9.695743, "tags": {"amenity": "charging_station", "operator": "Hotel & Landgasthof Kramer", "name": "Ladestation Hotel & Landgasthof Kramer", "addr:country": "DE", "socket:schuko": "1", "socket:schuko:output": "2.3 kW", "charging_station:output": "2.3 kW", "_source": "worldwide"}}, {"type": "node", "id": 10858182209, "lat": 50.493605, "lon": 9.696519, "tags": {"amenity": "charging_station", "brand": "ebee", "operator": "ladenetz.de", "name": "ladenetz.de - ebee", "addr:country": "DE", "capacity": "1", "_source": "worldwide"}}, {"type": "node", "id": 4417650506, "lat": 50.227513, "lon": 9.349288, "tags": {"amenity": "charging_station", "operator": "Versorgungsservice Main-Kinzig", "name": "Versorgungsservice Main-Kinzig - Versorgungsservice Main-Kinzig GmbH", "addr:country": "DE", "socket:type2": "2", "socket:type2:output": "22 kW", "charging_station:output": "22 kW", "capacity": "2", "_source": "worldwide"}}, {"type": "node", "id": 6977214687, "lat": 50.224083, "lon": 9.34849, "tags": {"amenity": "charging_station", "fee": "no", "network": "Wald erfahren", "opening_hours": "24/7", "operator": "Stadt Bad Orb", "name": "Stadt Bad Orb - Wald erfahren", "addr:country": "DE", "socket:schuko": "1", "socket:schuko:output": "2.3 kW", "charging_station:output": "2.3 kW", "capacity": "5", "_source": "worldwide"}}, {"type": "node", "id": 4420098689, "lat": 50.263488, "lon": 9.88098, "tags": {"amenity": "charging_station", "operator": "e-on", "name": "Ladestation e-on", "addr:country": "DE", "socket:type2_combo": "1", "socket:type2_combo:output": "50 kW", "charging_station:output": "50 kW", "capacity": "2", "_source": "worldwide"}}, {"type": "node", "id": 4467375734, "lat": 50.26762, "lon": 9.88247, "tags": {"amenity": "charging_station", "operator": "innogy", "name": "Ladestation innogy", "addr:country": "DE", "socket:type2_combo": "1", "socket:type2_combo:output": "50 kW", "socket:chademo": "1", "socket:chademo:output": "50 kW", "charging_station:output": "50 kW", "capacity": "2", "_source": "worldwide"}}, {"type": "node", "id": 4474611636, "lat": 50.460344, "lon": 9.986527, "tags": {"amenity": "charging_station", "opening_hours": "während der Öffnungszeiten des Haus am Roten Moor", "operator": "NABU-Haus am Roten Moor", "name": "Ladestation NABU-Haus am Roten Moor", "addr:country": "DE", "socket:schuko": "6", "socket:schuko:output": "2.3 kW", "charging_station:output": "2.3 kW", "capacity": "6", "_source": "worldwide"}}, {"type": "node", "id": 4758549436, "lat": 50.75081, "lon": 9.270715, "tags": {"amenity": "charging_station", "fee": "no", "opening_hours": "24/7", "addr:country": "DE", "socket:schuko": "2", "socket:schuko:output": "2.3 kW", "charging_station:output": "2.3 kW", "capacity": "2", "authentication:none": "yes", "_source": "worldwide"}}, {"type": "node", "id": 10230831455, "lat": 50.751131, "lon": 9.271366, "tags": {"amenity": "charging_station", "access": "yes", "fee": "no", "opening_hours": "24/7", "operator": "Tourist Center Alsfeld", "name": "Ladestation Tourist Center Alsfeld", "addr:country": "DE", "socket:schuko": "8", "socket:schuko:output": "2.3 kW", "charging_station:output": "2.3 kW", "capacity": "8", "_source": "worldwide"}}, {"type": "node", "id": 11197409231, "lat": 50.750385, "lon": 9.269206, "tags": {"amenity": "charging_station", "access": "yes", "fee": "yes", "operator": "Oberhessische Versorgungsbetriebe", "name": "Ladestation Oberhessische Versorgungsbetriebe", "addr:country": "DE", "socket:type2_combo": "2", "socket:type2_combo:output": "50 kW", "socket:schuko": "2", "socket:schuko:output": "2.3 kW", "charging_station:output": "50 kW", "capacity": "2", "_source": "worldwide"}}, {"type": "node", "id": 13443946235, "lat": 50.746649, "lon": 9.2675, "tags": {"amenity": "charging_station", "access": "yes", "fee": "yes", "operator": "TankE", "name": "Ladestation TankE", "addr:country": "DE", "_source": "worldwide"}}, {"type": "node", "id": 9060793543, "lat": 50.488382, "lon": 9.708628, "tags": {"amenity": "charging_station", "opening_hours": "24/7", "operator": "IONITY", "name": "IONITY - ionity", "addr:country": "DE", "socket:chademo": "4", "socket:chademo:output": "350.0 kW", "charging_station:output": "350.0 kW", "capacity": "4", "_source": "worldwide"}}, {"type": "node", "id": 12880826737, "lat": 50.487908, "lon": 9.708838, "tags": {"amenity": "charging_station", "access": "yes", "fee": "yes", "brand": "Tesla Supercharger", "opening_hours": "24/7", "operator": "Tesla", "name": "Eichenzell Supercharger", "addr:country": "DE", "socket:type2_combo": "12", "socket:type2_combo:output": "250.0 kW", "charging_station:output": "250.0 kW", "capacity": "12", "_source": "worldwide"}}, {"type": "node", "id": 4919225325, "lat": 50.012198, "lon": 9.297656, "tags": {"amenity": "charging_station", "access": "yes", "fee": "yes", "brand": "Compleo", "opening_hours": "24/7", "operator": "Energieversorgung MainSpessart", "name": "Energieversorgung MainSpessart - Compleo", "addr:country": "DE", "socket:type2": "1", "socket:type2:output": "22 kW", "socket:schuko": "1", "socket:schuko:output": "2.3 kW", "charging_station:output": "22 kW", "capacity": "2", "_source": "worldwide"}}, {"type": "node", "id": 13158397894, "lat": 50.011962, "lon": 9.296585, "tags": {"amenity": "charging_station", "access": "yes", "fee": "no", "network": "Wald erFahren", "operator": "Wald erFahren", "name": "Ladestation Wald erFahren", "addr:country": "DE", "capacity": "2", "_source": "worldwide"}}, {"type": "node", "id": 4920130319, "lat": 50.449963, "lon": 9.919322, "tags": {"amenity": "charging_station", "access": "yes", "fee": "yes", "operator": "RhönEnergie Fulda", "name": "Ladestation RhönEnergie Fulda", "addr:country": "DE", "socket:type2": "2", "socket:type2:output": "22 kW", "socket:schuko": "2", "socket:schuko:output": "2.3 kW", "charging_station:output": "22 kW", "capacity": "2", "_source": "worldwide"}}, {"type": "node", "id": 11861705080, "lat": 50.450948, "lon": 9.91764, "tags": {"amenity": "charging_station", "addr:country": "DE", "_source": "worldwide"}}, {"type": "node", "id": 13444998869, "lat": 50.451258, "lon": 9.911876, "tags": {"amenity": "charging_station", "access": "yes", "fee": "yes", "brand": "Volkswagen Group Charging GmbH", "operator": "Elli", "name": "Autohaus Romeis GmbH", "addr:country": "DE", "capacity": "2", "_source": "worldwide"}}, {"type": "node", "id": 4934693395, "lat": 50.028254, "lon": 9.24414, "tags": {"amenity": "charging_station", "access": "yes", "fee": "no", "brand": "bike-energy", "network": "Wald erFahren", "operator": "bike-energy", "name": "Wald erFahren", "addr:country": "DE", "socket:schuko": "1", "socket:schuko:output": "2.3 kW", "charging_station:output": "2.3 kW", "capacity": "4", "authentication:none": "yes", "_source": "worldwide"}}, {"type": "node", "id": 4958338438, "lat": 50.241726, "lon": 9.327345, "tags": {"amenity": "charging_station", "fee": "no", "opening_hours": "24/7", "operator": "Kreiswerke Main-Kinzig", "name": "Kreiswerke Main-Kinzig - Kreiswerke Main-Kinzig GmbH", "addr:country": "DE", "socket:schuko": "4", "socket:schuko:output": "2.3 kW", "charging_station:output": "2.3 kW", "capacity": "4", "_source": "worldwide"}}, {"type": "node", "id": 5318581523, "lat": 50.994837, "lon": 9.726749, "tags": {"amenity": "charging_station", "fee": "yes", "operator": "chargelT mobility", "name": "Ladestation chargelT mobility", "addr:country": "DE", "socket:schuko": "4", "socket:schuko:output": "2.3 kW", "charging_station:output": "2.3 kW", "_source": "worldwide"}}, {"type": "node", "id": 5318581524, "lat": 50.996958, "lon": 9.732152, "tags": {"amenity": "charging_station", "operator": "chargelT mobility", "name": "Ladestation chargelT mobility", "addr:country": "DE", "capacity": "1", "_source": "worldwide"}}, {"type": "node", "id": 12634659408, "lat": 50.996607, "lon": 9.726258, "tags": {"amenity": "charging_station", "operator": "EAM", "name": "Ladestation EAM", "addr:country": "DE", "capacity": "2", "_source": "worldwide"}}, {"type": "node", "id": 13416116054, "lat": 50.996029, "lon": 9.723421, "tags": {"amenity": "charging_station", "operator": "Aldi", "name": "Aldi Nord", "addr:country": "DE", "_source": "worldwide"}}, {"type": "node", "id": 5318591721, "lat": 50.962685, "lon": 9.792749, "tags": {"amenity": "charging_station", "access": "customers", "addr:country": "DE", "socket:type2": "1", "socket:type2:output": "22 kW", "socket:schuko": "1", "socket:schuko:output": "2.3 kW", "charging_station:output": "22 kW", "capacity": "2", "_source": "worldwide"}}, {"type": "node", "id": 13543221556, "lat": 50.963239, "lon": 9.791478, "tags": {"amenity": "charging_station", "access": "yes", "fee": "yes", "operator": "TEAG Mobil", "name": "Ladestation TEAG Mobil", "addr:country": "DE", "capacity": "2", "_source": "worldwide"}}, {"type": "node", "id": 13543221557, "lat": 50.962305, "lon": 9.790172, "tags": {"amenity": "charging_station", "access": "yes", "fee": "yes", "operator": "EWE Go", "name": "Ladestation EWE Go", "addr:country": "DE", "_source": "worldwide"}}, {"type": "node", "id": 5416957356, "lat": 50.274263, "lon": 9.443451, "tags": {"amenity": "charging_station", "operator": "Kreiswerke Main-Kinzig", "name": "Ladestation Kreiswerke Main-Kinzig", "addr:country": "DE", "socket:schuko": "4", "socket:schuko:output": "2.3 kW", "charging_station:output": "2.3 kW", "capacity": "4", "_source": "worldwide"}}, {"type": "node", "id": 5419820531, "lat": 50.233049, "lon": 9.338482, "tags": {"amenity": "charging_station", "addr:country": "DE", "_source": "worldwide"}}, {"type": "node", "id": 5424628736, "lat": 50.063687, "lon": 9.161506, "tags": {"amenity": "charging_station", "addr:country": "DE", "_source": "worldwide"}}, {"type": "node", "id": 5436020489, "lat": 50.723907, "lon": 9.93351, "tags": {"amenity": "charging_station", "access": "yes", "fee": "yes", "operator": "RhönEnergie Fulda", "name": "Ladestation RhönEnergie Fulda", "addr:country": "DE", "socket:type2": "2", "socket:type2:output": "22.0 kW", "charging_station:output": "22.0 kW", "capacity": "2", "_source": "worldwide"}}, {"type": "node", "id": 5456284781, "lat": 50.622675, "lon": 9.505066, "tags": {"amenity": "charging_station", "operator": "Tesla-Station vom Hotel Badehof", "name": "Ladestation Tesla-Station vom Hotel Badehof", "addr:country": "DE", "capacity": "1", "_source": "worldwide"}}, {"type": "node", "id": 12310868767, "lat": 50.62145, "lon": 9.50524, "tags": {"amenity": "charging_station", "access": "yes", "operator": "Porsche Destination Charging", "name": "Ladestation Porsche Destination Charging", "addr:country": "DE", "capacity": "1", "_source": "worldwide"}}, {"type": "node", "id": 13011537496, "lat": 50.621162, "lon": 9.513527, "tags": {"amenity": "charging_station", "access": "yes", "fee": "yes", "brand": "ChargeOne", "operator": "Heinemann", "name": "Heinemann - ChargeOne", "addr:country": "DE", "capacity": "2", "_source": "worldwide"}}, {"type": "node", "id": 5460114915, "lat": 50.250099, "lon": 9.289817, "tags": {"amenity": "charging_station", "fee": "yes", "opening_hours": "24/7", "operator": "Kreiswerke Main-Kinzig", "name": "Ladestation Kreiswerke Main-Kinzig", "addr:country": "DE", "socket:type2": "2", "socket:type2:output": "22 kW", "charging_station:output": "22 kW", "capacity": "2", "_source": "worldwide"}}, {"type": "node", "id": 9336778854, "lat": 50.250456, "lon": 9.288666, "tags": {"amenity": "charging_station", "access": "customers", "fee": "yes", "operator": "Globus-Markt", "name": "Ladestation Globus-Markt", "addr:country": "DE", "socket:type2": "2", "socket:type2:output": "22 kW", "charging_station:output": "22 kW", "capacity": "2", "_source": "worldwide"}}, {"type": "node", "id": 9915219507, "lat": 50.247402, "lon": 9.291835, "tags": {"amenity": "charging_station", "access": "yes", "fee": "yes", "operator": "Pfalzwerke", "name": "Ladestation Pfalzwerke", "addr:country": "DE", "socket:type2": "2", "socket:type2:output": "22 kW", "socket:type2_combo": "4", "socket:type2_combo:output": "150.0 kW", "charging_station:output": "150.0 kW", "capacity": "6", "_source": "worldwide"}}, {"type": "node", "id": 5530617796, "lat": 50.122146, "lon": 9.199875, "tags": {"amenity": "charging_station", "fee": "no", "network": "Wald Erfahren", "operator": "Gemeinde Geiselbach", "name": "Gemeinde Geiselbach - Wald Erfahren", "addr:country": "DE", "socket:schuko": "1", "socket:schuko:output": "2.3 kW", "charging_station:output": "2.3 kW", "capacity": "3", "_source": "worldwide"}}, {"type": "node", "id": 11901415241, "lat": 50.122406, "lon": 9.198175, "tags": {"amenity": "charging_station", "addr:country": "DE", "_source": "worldwide"}}, {"type": "node", "id": 5530637389, "lat": 50.10822, "lon": 9.216528, "tags": {"amenity": "charging_station", "fee": "no", "brand": "bike-energy", "network": "Wald erFahren", "operator": "Markt Schöllkrippen", "name": "Markt Schöllkrippen - bike-energy", "addr:country": "DE", "socket:schuko": "1", "socket:schuko:output": "2.3 kW", "charging_station:output": "2.3 kW", "capacity": "3", "_source": "worldwide"}}, {"type": "node", "id": 5530685515, "lat": 50.085009, "lon": 9.25474, "tags": {"amenity": "charging_station", "access": "yes", "fee": "no", "brand": "bike-energy", "network": "Wald erFahren", "operator": "bike-energy", "name": "Wald erFahren", "addr:country": "DE", "socket:schuko": "1", "socket:schuko:output": "2.3 kW", "charging_station:output": "2.3 kW", "capacity": "3", "_source": "worldwide"}}, {"type": "node", "id": 5530698460, "lat": 50.107408, "lon": 9.274336, "tags": {"amenity": "charging_station", "fee": "no", "network": "Wald Erfahren", "operator": "Gemeinde Kleinkahl", "name": "Gemeinde Kleinkahl - Wald Erfahren", "addr:country": "DE", "socket:schuko": "1", "socket:schuko:output": "2.3 kW", "charging_station:output": "2.3 kW", "capacity": "3", "_source": "worldwide"}}, {"type": "node", "id": 5530715297, "lat": 50.070162, "lon": 9.25778, "tags": {"amenity": "charging_station", "fee": "no", "network": "Wald Erfahren", "operator": "Gemeinde Sommerkahl", "name": "Gemeinde Sommerkahl - Wald Erfahren", "addr:country": "DE", "socket:schuko": "1", "socket:schuko:output": "2.3 kW", "charging_station:output": "2.3 kW", "capacity": "3", "_source": "worldwide"}}, {"type": "node", "id": 5530728244, "lat": 50.064053, "lon": 9.232366, "tags": {"amenity": "charging_station", "fee": "no", "brand": "bike-energy", "network": "Wald erFahren", "operator": "Gemeinde Blankenbach", "name": "Gemeinde Blankenbach - bike-energy", "addr:country": "DE", "socket:schuko": "1", "socket:schuko:output": "2.3 kW", "charging_station:output": "2.3 kW", "capacity": "3", "_source": "worldwide"}}, {"type": "node", "id": 5530749868, "lat": 50.058291, "lon": 9.197504, "tags": {"amenity": "charging_station", "fee": "no", "network": "Wald Erfahren", "operator": "Markt Mömbris", "name": "Markt Mömbris - Wald Erfahren", "addr:country": "DE", "socket:schuko": "1", "socket:schuko:output": "2.3 kW", "charging_station:output": "2.3 kW", "capacity": "4", "_source": "worldwide"}}, {"type": "node", "id": 5530767564, "lat": 50.058808, "lon": 9.130216, "tags": {"amenity": "charging_station", "fee": "no", "network": "Wald Erfahren", "operator": "Markt Mömbris", "name": "Markt Mömbris - Wald Erfahren", "addr:country": "DE", "socket:schuko": "1", "socket:schuko:output": "2.3 kW", "charging_station:output": "2.3 kW", "capacity": "5", "_source": "worldwide"}}, {"type": "node", "id": 5530797271, "lat": 50.078944, "lon": 9.207851, "tags": {"amenity": "charging_station", "fee": "no", "brand": "bike-energy", "network": "Wald erFahren", "operator": "Gemeinde Krombach", "name": "Gemeinde Krombach - bike-energy", "addr:country": "DE", "socket:schuko": "1", "socket:schuko:output": "2.3 kW", "charging_station:output": "2.3 kW", "capacity": "3", "_source": "worldwide"}}, {"type": "node", "id": 5531126050, "lat": 50.006215, "lon": 9.26259, "tags": {"amenity": "charging_station", "access": "yes", "fee": "no", "network": "Wald erFahren", "operator": "Gemeinde Laufach", "name": "Gemeinde Laufach - Wald erFahren", "addr:country": "DE", "socket:schuko": "1", "socket:schuko:output": "2.3 kW", "charging_station:output": "2.3 kW", "capacity": "2", "_source": "worldwide"}}, {"type": "node", "id": 5531133496, "lat": 50.008017, "lon": 9.322959, "tags": {"amenity": "charging_station", "access": "yes", "fee": "no", "brand": "bike-energy", "network": "Wald erFahren", "operator": "bike-energy", "name": "Wald erFahren", "addr:country": "DE", "socket:schuko": "1", "socket:schuko:output": "2.3 kW", "charging_station:output": "2.3 kW", "capacity": "2", "_source": "worldwide"}}, {"type": "node", "id": 5531216638, "lat": 50.023336, "lon": 9.254981, "tags": {"amenity": "charging_station", "access": "yes", "fee": "no", "brand": "bike-energy", "network": "Wald erFahren", "operator": "bike-energy", "name": "Wald erFahren", "addr:country": "DE", "socket:schuko": "1", "socket:schuko:output": "2.3 kW", "charging_station:output": "2.3 kW", "capacity": "4", "_source": "worldwide"}}, {"type": "node", "id": 5531224064, "lat": 50.048557, "lon": 9.260741, "tags": {"amenity": "charging_station", "access": "yes", "fee": "no", "brand": "bike-energy", "network": "Wald erFahren", "operator": "bike-energy", "name": "Wald erFahren", "addr:country": "DE", "socket:schuko": "1", "socket:schuko:output": "2.3 kW", "charging_station:output": "2.3 kW", "capacity": "4", "_source": "worldwide"}}, {"type": "node", "id": 5531235402, "lat": 50.051461, "lon": 9.253532, "tags": {"amenity": "charging_station", "fee": "no", "network": "Wald erFahren", "operator": "Gemeinde Sailauf", "name": "Gemeinde Sailauf - Wald erFahren", "addr:country": "DE", "socket:schuko": "1", "socket:schuko:output": "2.3 kW", "charging_station:output": "2.3 kW", "capacity": "4", "_source": "worldwide"}}, {"type": "node", "id": 5588782827, "lat": 50.311904, "lon": 9.457821, "tags": {"amenity": "charging_station", "fee": "no", "operator": "Land Hessen, Stadt Steinau, ARGE Deutsche Märchenstraße", "name": "Ladestation Land Hessen, Stadt Steinau, ARGE Deutsche Märchenstraße", "addr:country": "DE", "socket:type2": "3", "socket:type2:output": "11.0 kW", "charging_station:output": "11.0 kW", "capacity": "3", "authentication:none": "yes", "_source": "worldwide"}}, {"type": "node", "id": 12866240360, "lat": 50.313183, "lon": 9.450609, "tags": {"amenity": "charging_station", "access": "yes", "fee": "no", "opening_hours": "24/7", "operator": "BFT-Tankstekke", "name": "Ladestation BFT-Tankstekke", "addr:country": "DE", "socket:schuko": "10", "socket:schuko:output": "2.3 kW", "charging_station:output": "2.3 kW", "capacity": "10", "_source": "worldwide"}}, {"type": "node", "id": 5615091821, "lat": 50.519909, "lon": 9.318183, "tags": {"amenity": "charging_station", "addr:country": "DE", "_source": "worldwide"}}, {"type": "node", "id": 5940913718, "lat": 50.519137, "lon": 9.317346, "tags": {"amenity": "charging_station", "operator": "Ovag", "name": "Ladestation Ovag", "addr:country": "DE", "capacity": "2", "_source": "worldwide"}}, {"type": "node", "id": 5808566540, "lat": 50.90497, "lon": 9.232488, "tags": {"amenity": "charging_station", "name": "Radstätte", "addr:country": "DE", "_source": "worldwide"}}, {"type": "node", "id": 5873008070, "lat": 50.713531, "lon": 9.217697, "tags": {"amenity": "charging_station", "operator": "OVAG", "name": "Ladestation OVAG", "addr:country": "DE", "capacity": "2", "_source": "worldwide"}}, {"type": "node", "id": 5874051532, "lat": 50.723299, "lon": 9.735032, "tags": {"amenity": "charging_station", "operator": "VdK Steinbach", "name": "Ladestation VdK Steinbach", "addr:country": "DE", "_source": "worldwide"}}, {"type": "node", "id": 7113140284, "lat": 50.718684, "lon": 9.897955, "tags": {"amenity": "charging_station", "access": "yes", "fee": "yes", "operator": "RhönEnergie Fulda", "name": "Ladestation RhönEnergie Fulda", "addr:country": "DE", "socket:type2": "2", "socket:type2:output": "22 kW", "socket:schuko": "2", "socket:schuko:output": "2.3 kW", "charging_station:output": "22 kW", "capacity": "2", "_source": "worldwide"}}, {"type": "node", "id": 8361650467, "lat": 50.719809, "lon": 9.897553, "tags": {"amenity": "charging_station", "operator": "Rhön Energie Fulda", "name": "Ladestation Rhön Energie Fulda", "addr:country": "DE", "socket:type2": "2", "socket:type2:output": "22 kW", "charging_station:output": "22 kW", "capacity": "2", "_source": "worldwide"}}, {"type": "node", "id": 5912355536, "lat": 50.626011, "lon": 9.451767, "tags": {"amenity": "charging_station", "operator": "OVAG", "name": "Ladestation OVAG", "addr:country": "DE", "capacity": "2", "_source": "worldwide"}}, {"type": "node", "id": 5938327921, "lat": 50.504475, "lon": 9.126868, "tags": {"amenity": "charging_station", "operator": "Ovag", "name": "Ladestation Ovag", "addr:country": "DE", "socket:type2": "2", "socket:type2:output": "22.0 kW", "socket:schuko": "2", "socket:schuko:output": "2.3 kW", "charging_station:output": "22.0 kW", "capacity": "2", "_source": "worldwide"}}, {"type": "node", "id": 1493257014, "lat": 50.50538, "lon": 9.127236, "tags": {"amenity": "charging_station", "fee": "yes", "opening_hours": "24/7", "operator": "TEAG Mobil", "name": "Ladestation TEAG Mobil", "addr:country": "DE", "socket:type2_combo": "4", "socket:type2_combo:output": "200.0 kW", "charging_station:output": "200.0 kW", "capacity": "4", "authentication:none": "", "_source": "worldwide"}}, {"type": "node", "id": 5938327928, "lat": 50.700759, "lon": 9.31453, "tags": {"amenity": "charging_station", "operator": "Ovag", "name": "Ladestation Ovag", "addr:country": "DE", "_source": "worldwide"}}, {"type": "node", "id": 5940220706, "lat": 50.759783, "lon": 9.357828, "tags": {"amenity": "charging_station", "access": "yes", "fee": "yes", "brand": "E.ON Drive", "opening_hours": "24/7", "operator": "E.ON", "name": "E.ON - E.ON Drive", "addr:country": "DE", "capacity": "2", "_source": "worldwide"}}, {"type": "node", "id": 5940913719, "lat": 50.510532, "lon": 9.226143, "tags": {"amenity": "charging_station", "operator": "OVAG", "name": "Ladestation OVAG", "addr:country": "DE", "capacity": "2", "_source": "worldwide"}}, {"type": "node", "id": 5980805709, "lat": 50.636718, "lon": 9.394191, "tags": {"amenity": "charging_station", "access": "yes", "fee": "no", "brand": "Stadtwerke Lauterbach", "operator": "Stadtwerke Lauterbach", "name": "Stadtwerke Lauterbach - Stadtwerke Lauterbach", "addr:country": "DE", "capacity": "2", "_source": "worldwide"}}, {"type": "node", "id": 8491312678, "lat": 50.638279, "lon": 9.40273, "tags": {"amenity": "charging_station", "access": "yes", "fee": "yes", "brand": "Stadtwerke Lauterbach", "operator": "Stadtwerke Lauterbach", "name": "Stadtwerke Lauterbach - Stadtwerke Lauterbach", "addr:country": "DE", "capacity": "2", "_source": "worldwide"}}, {"type": "node", "id": 12012070683, "lat": 50.636155, "lon": 9.395941, "tags": {"amenity": "charging_station", "access": "yes", "addr:country": "DE", "_source": "worldwide"}}, {"type": "node", "id": 13270741723, "lat": 50.640557, "lon": 9.399461, "tags": {"amenity": "charging_station", "access": "yes", "operator": "OVAG", "name": "OVAG E-Mobil", "addr:country": "DE", "_source": "worldwide"}}, {"type": "node", "id": 5982684882, "lat": 50.487453, "lon": 9.331329, "tags": {"amenity": "charging_station", "addr:country": "DE", "_source": "worldwide"}}, {"type": "node", "id": 6043243668, "lat": 50.418031, "lon": 9.734118, "tags": {"amenity": "charging_station", "access": "yes", "fee": "yes", "brand": "Mer", "operator": "Mer", "name": "Mer - Mer", "addr:country": "DE", "capacity": "3", "_source": "worldwide"}}, {"type": "node", "id": 12178882547, "lat": 50.41909, "lon": 9.737364, "tags": {"amenity": "charging_station", "access": "yes", "fee": "yes", "brand": "Mer", "operator": "Mer", "name": "Mer - Mer", "addr:country": "DE", "capacity": "2", "_source": "worldwide"}}, {"type": "node", "id": 6066612767, "lat": 50.647001, "lon": 9.03122, "tags": {"amenity": "charging_station", "operator": "OVAG", "name": "Ladestation OVAG", "addr:country": "DE", "_source": "worldwide"}}, {"type": "node", "id": 6156206587, "lat": 50.188629, "lon": 9.181033, "tags": {"amenity": "charging_station", "fee": "yes", "operator": "EAM", "name": "Ladestation EAM", "addr:country": "DE", "socket:type2": "1", "socket:type2:output": "22 kW", "socket:type2_combo": "1", "socket:type2_combo:output": "50 kW", "socket:chademo": "1", "socket:chademo:output": "50 kW", "charging_station:output": "50 kW", "capacity": "2", "_source": "worldwide"}}, {"type": "node", "id": 11659369007, "lat": 50.189879, "lon": 9.180205, "tags": {"amenity": "charging_station", "fee": "yes", "opening_hours": "24/7", "operator": "EnBW", "name": "EnBW - EnBW Energie Baden-Württemberg AG", "addr:country": "DE", "socket:type2_combo": "2", "socket:type2_combo:output": "50 kW", "charging_station:output": "50 kW", "capacity": "2", "_source": "worldwide"}}, {"type": "node", "id": 13434248177, "lat": 50.188978, "lon": 9.178031, "tags": {"amenity": "charging_station", "access": "yes", "fee": "yes", "brand": "ENBW", "operator": "EnBW", "name": "EnBW - ENBW", "addr:country": "DE", "capacity": "20", "_source": "worldwide"}}, {"type": "node", "id": 6156206588, "lat": 50.188213, "lon": 9.18593, "tags": {"amenity": "charging_station", "fee": "yes", "operator": "Allego", "name": "Ladestation Allego", "addr:country": "DE", "socket:type2": "1", "socket:type2:output": "22 kW", "socket:type2_combo": "1", "socket:type2_combo:output": "50 kW", "socket:chademo": "1", "socket:chademo:output": "50 kW", "charging_station:output": "50 kW", "capacity": "3", "_source": "worldwide"}}, {"type": "node", "id": 1227008830, "lat": 50.188659, "lon": 9.18614, "tags": {"amenity": "charging_station", "access": "yes", "fee": "yes", "brand": "Tesla Supercharger", "opening_hours": "24/7", "operator": "Tesla", "name": "Tesla - Tesla Supercharger", "addr:country": "DE", "socket:type2_combo": "11", "socket:type2_combo:output": "250.0 kW", "charging_station:output": "250.0 kW", "capacity": "11", "_source": "worldwide"}}, {"type": "node", "id": 6210977608, "lat": 50.345166, "lon": 9.524819, "tags": {"amenity": "charging_station", "fee": "yes", "operator": "RhönenEnergie Fulda", "name": "Ladestation RhönenEnergie Fulda", "addr:country": "DE", "socket:type2": "2", "socket:type2:output": "22.0 kW", "charging_station:output": "22.0 kW", "capacity": "2", "_source": "worldwide"}}, {"type": "node", "id": 6212782220, "lat": 50.346671, "lon": 9.523303, "tags": {"amenity": "charging_station", "operator": "RhönEnergie Fulda", "name": "Ladestation RhönEnergie Fulda", "addr:country": "DE", "socket:type2": "2", "socket:type2:output": "22.0 kW", "charging_station:output": "22.0 kW", "capacity": "2", "_source": "worldwide"}}, {"type": "node", "id": 12052896945, "lat": 50.347108, "lon": 9.525113, "tags": {"amenity": "charging_station", "access": "yes", "fee": "yes", "operator": "Rhön-Energie Fulda", "name": "Ladestation Rhön-Energie Fulda", "addr:country": "DE", "socket:type2": "2", "socket:type2:output": "22 kW", "charging_station:output": "22 kW", "capacity": "2", "_source": "worldwide"}}, {"type": "node", "id": 6212787296, "lat": 50.353696, "lon": 9.533431, "tags": {"amenity": "charging_station", "operator": "RhönEnergie Fulda", "name": "Ladestation RhönEnergie Fulda", "addr:country": "DE", "socket:type2": "2", "socket:type2:output": "22.0 kW", "charging_station:output": "22.0 kW", "capacity": "2", "_source": "worldwide"}}, {"type": "node", "id": 13427658663, "lat": 50.352141, "lon": 9.531001, "tags": {"amenity": "charging_station", "access": "yes", "fee": "yes", "operator": "TEAG Mobil", "name": "TEAG Mobil", "addr:street": "Gartenstraße 23", "capacity": "6", "_source": "worldwide"}}, {"type": "node", "id": 13427670187, "lat": 50.354682, "lon": 9.534817, "tags": {"amenity": "charging_station", "access": "yes", "fee": "yes", "operator": "TEAG Mobil", "name": "TEAG Mobil", "addr:street": "Gartenstraße 29", "capacity": "2", "_source": "worldwide"}}, {"type": "node", "id": 13427672217, "lat": 50.355714, "lon": 9.534689, "tags": {"amenity": "charging_station", "access": "yes", "fee": "yes", "operator": "Aldi", "name": "Aldi", "addr:country": "DE", "capacity": "2", "_source": "worldwide"}}, {"type": "node", "id": 13432264800, "lat": 50.354986, "lon": 9.535655, "tags": {"amenity": "charging_station", "access": "yes", "fee": "yes", "operator": "Lidl", "name": "Lidl", "addr:country": "DE", "capacity": "2", "_source": "worldwide"}}, {"type": "node", "id": 6213889800, "lat": 50.277852, "lon": 9.370229, "tags": {"amenity": "charging_station", "operator": "RhönEnergie Fulda", "name": "RhönEnergie Fulda", "addr:country": "DE", "socket:type2": "2", "socket:type2:output": "22.0 kW", "socket:schuko": "2", "socket:schuko:output": "2.3 kW", "charging_station:output": "22.0 kW", "capacity": "4", "_source": "worldwide"}}, {"type": "node", "id": 12467224780, "lat": 50.27804, "lon": 9.367258, "tags": {"amenity": "charging_station", "access": "yes", "fee": "yes", "brand": "Qwello", "operator": "Qwello", "name": "Qwello - Qwello", "addr:country": "DE", "capacity": "4", "_source": "worldwide"}}, {"type": "node", "id": 12992568635, "lat": 50.275412, "lon": 9.366167, "tags": {"amenity": "charging_station", "access": "yes", "fee": "yes", "brand": "Qwello", "operator": "Qwello", "name": "Qwello - Qwello", "addr:country": "DE", "capacity": "4", "_source": "worldwide"}}, {"type": "node", "id": 6238767413, "lat": 50.087104, "lon": 9.074187, "tags": {"amenity": "charging_station", "fee": "yes", "opening_hours": "24/7", "operator": "EVA", "name": "Ladestation EVA", "addr:country": "DE", "socket:type2": "1", "socket:type2:output": "22.0 kW", "socket:type2_combo": "1", "socket:type2_combo:output": "50.0 kW", "socket:chademo": "1", "socket:chademo:output": "50 kW", "charging_station:output": "50.0 kW", "capacity": "2", "_source": "worldwide"}}, {"type": "node", "id": 13395094924, "lat": 50.086911, "lon": 9.066468, "tags": {"amenity": "charging_station", "access": "yes", "fee": "yes", "operator": "EVA Alzenau", "name": "Ladestation EVA Alzenau", "addr:country": "DE", "socket:type2": "2", "socket:type2:output": "22.0 kW", "socket:schuko": "2", "socket:schuko:output": "2.3 kW", "charging_station:output": "22.0 kW", "capacity": "2", "_source": "worldwide"}}, {"type": "node", "id": 6238767414, "lat": 50.086236, "lon": 9.073421, "tags": {"amenity": "charging_station", "fee": "yes", "opening_hours": "24/7", "operator": "EVA", "name": "Ladestation EVA", "addr:country": "DE", "socket:schuko": "3", "socket:schuko:output": "2.3 kW", "charging_station:output": "2.3 kW", "_source": "worldwide"}}, {"type": "node", "id": 9178267527, "lat": 50.086448, "lon": 9.072696, "tags": {"amenity": "charging_station", "fee": "no", "network": "Wald Erfahren", "opening_hours": "24/7", "operator": "Stadt Alzenau", "name": "Stadt Alzenau - Wald Erfahren", "addr:country": "DE", "socket:schuko": "1", "socket:schuko:output": "2.3 kW", "charging_station:output": "2.3 kW", "capacity": "5", "_source": "worldwide"}}, {"type": "node", "id": 13395233223, "lat": 50.0832, "lon": 9.073225, "tags": {"amenity": "charging_station", "access": "yes", "fee": "yes", "operator": "EVA - Energieversorgung Alzenau", "name": "Ladestation EVA - Energieversorgung Alzenau", "addr:country": "DE", "socket:type2": "2", "socket:type2:output": "22.0 kW", "charging_station:output": "22.0 kW", "capacity": "2", "_source": "worldwide"}}, {"type": "node", "id": 6272167785, "lat": 50.62783, "lon": 9.392097, "tags": {"amenity": "charging_station", "name": "Stadtwerke Lauterbach", "addr:country": "DE", "_source": "worldwide"}}, {"type": "node", "id": 6272167885, "lat": 50.553804, "lon": 9.712937, "tags": {"amenity": "charging_station", "fee": "no", "operator": "Aldi", "name": "Ladestation Aldi", "addr:country": "DE", "socket:type2": "1", "socket:type2:output": "22 kW", "socket:type2_combo": "1", "socket:type2_combo:output": "50 kW", "socket:chademo": "1", "socket:chademo:output": "50 kW", "charging_station:output": "50 kW", "capacity": "1", "_source": "worldwide"}}, {"type": "node", "id": 6312756033, "lat": 50.002808, "lon": 9.199718, "tags": {"amenity": "charging_station", "opening_hours": "\"siehe Restaurantöffnungszeiten\"", "operator": "Zur Traube", "name": "Ladestation Zur Traube", "addr:country": "DE", "socket:schuko": "3", "socket:schuko:output": "2.3 kW", "charging_station:output": "2.3 kW", "capacity": "3", "authentication:none": "yes", "_source": "worldwide"}}, {"type": "node", "id": 6338725558, "lat": 50.742033, "lon": 9.474568, "tags": {"amenity": "charging_station", "access": "yes", "fee": "yes", "opening_hours": "24/7", "operator": "OVAG Energie / Stadt Grebenau", "name": "Ladestation OVAG Energie / Stadt Grebenau", "addr:country": "DE", "_source": "worldwide"}}, {"type": "node", "id": 6339752086, "lat": 50.423217, "lon": 9.564886, "tags": {"amenity": "charging_station", "access": "yes", "brand": "Rhönenergie Fulda", "operator": "RhönEnergie Fulda", "name": "RhönEnergie Fulda - Rhönenergie Fulda", "addr:country": "DE", "socket:type2": "2", "socket:type2:output": "11.0 kW", "charging_station:output": "11.0 kW", "_source": "worldwide"}}, {"type": "node", "id": 11569387307, "lat": 50.423028, "lon": 9.566159, "tags": {"amenity": "charging_station", "access": "yes", "fee": "no", "brand": "Ebike Ladeboxen mit Safes", "operator": "Caritas", "name": "Caritas - Ebike Ladeboxen mit Safes", "addr:street": "Hauptstraße 37", "addr:postcode": "36103", "addr:city": "Flieden", "_source": "worldwide"}}, {"type": "node", "id": 12912934378, "lat": 50.422124, "lon": 9.566419, "tags": {"amenity": "charging_station", "access": "yes", "fee": "yes", "brand": "ChargeOne", "operator": "Heinemann", "name": "ChargeOne", "addr:country": "DE", "capacity": "2", "_source": "worldwide"}}, {"type": "node", "id": 6343080102, "lat": 50.760888, "lon": 9.797142, "tags": {"amenity": "charging_station", "operator": "RhönEnergie Fulda", "name": "Ladestation RhönEnergie Fulda", "addr:country": "DE", "socket:type2": "2", "socket:type2:output": "22.0 kW", "socket:schuko": "2", "socket:schuko:output": "3.0 kW", "charging_station:output": "22.0 kW", "capacity": "2", "_source": "worldwide"}}, {"type": "node", "id": 8078338498, "lat": 50.762069, "lon": 9.796984, "tags": {"amenity": "charging_station", "access": "yes", "fee": "no", "opening_hours": "24/7", "operator": "RhönEnergie Fulda", "name": "E.Bike Ladestation", "addr:country": "DE", "socket:schuko": "3", "socket:schuko:output": "2.3 kW", "charging_station:output": "2.3 kW", "capacity": "6", "_source": "worldwide"}}, {"type": "node", "id": 6355120831, "lat": 50.164588, "lon": 9.094497, "tags": {"amenity": "charging_station", "operator": "Kreiswerke Main-Kinzig", "name": "Ladestation Kreiswerke Main-Kinzig", "addr:country": "DE", "capacity": "2", "_source": "worldwide"}}, {"type": "node", "id": 6357919141, "lat": 50.216865, "lon": 9.272743, "tags": {"amenity": "charging_station", "access": "yes", "fee": "no", "opening_hours": "24/7", "operator": "Gemeinde Biebergemünd", "name": "E-Bike Ladestation", "addr:country": "DE", "socket:schuko": "3", "socket:schuko:output": "2.3 kW", "charging_station:output": "2.3 kW", "capacity": "6", "_source": "worldwide"}}, {"type": "node", "id": 6361880574, "lat": 50.159207, "lon": 9.325816, "tags": {"amenity": "charging_station", "fee": "no", "opening_hours": "24/7", "operator": "Gemeinde Biebergemünd", "name": "Ladestation Gemeinde Biebergemünd", "addr:country": "DE", "socket:schuko": "3", "socket:schuko:output": "2.3 kW", "charging_station:output": "2.3 kW", "capacity": "6", "_source": "worldwide"}}, {"type": "node", "id": 6374666623, "lat": 50.713991, "lon": 9.661077, "tags": {"amenity": "charging_station", "fee": "yes", "brand": "Mer", "operator": "Mer", "name": "Großenmoor Ost DC", "addr:country": "DE", "socket:type2": "1", "socket:type2:output": "43.0 kW", "socket:type2_combo": "1", "socket:type2_combo:output": "50.0 kW", "socket:chademo": "1", "socket:chademo:output": "50.0 kW", "charging_station:output": "50.0 kW", "capacity": "2", "_source": "worldwide"}}, {"type": "node", "id": 6375399262, "lat": 50.278795, "lon": 9.31134, "tags": {"amenity": "charging_station", "fee": "no", "operator": "Kreiswerke Main-Kinzig", "name": "Ladestation Kreiswerke Main-Kinzig", "addr:country": "DE", "socket:schuko": "5", "socket:schuko:output": "2.3 kW", "charging_station:output": "2.3 kW", "capacity": "5", "_source": "worldwide"}}, {"type": "node", "id": 6376748222, "lat": 50.229805, "lon": 9.067246, "tags": {"amenity": "charging_station", "access": "private", "fee": "no", "operator": "Kreiswerke Main-Kinzig", "name": "Kreiswerke Main-Kinzig - Kreiswerke Main-Kinzig GmbH", "addr:country": "DE", "socket:schuko": "5", "socket:schuko:output": "2.3 kW", "charging_station:output": "2.3 kW", "capacity": "5", "_source": "worldwide"}}, {"type": "node", "id": 6376785200, "lat": 50.210265, "lon": 9.151505, "tags": {"amenity": "charging_station", "fee": "no", "operator": "Kreiswerke Main-Kinzig", "name": "Ladestation Kreiswerke Main-Kinzig", "addr:country": "DE", "socket:schuko": "5", "socket:schuko:output": "2.3 kW", "charging_station:output": "2.3 kW", "capacity": "5", "_source": "worldwide"}}, {"type": "node", "id": 6376785201, "lat": 50.233143, "lon": 9.143391, "tags": {"amenity": "charging_station", "fee": "yes", "opening_hours": "24/7", "addr:country": "DE", "socket:type2": "2", "socket:type2:output": "22.0 kW", "charging_station:output": "22.0 kW", "capacity": "2", "_source": "worldwide"}}, {"type": "node", "id": 6379419986, "lat": 50.553023, "lon": 9.674915, "tags": {"amenity": "charging_station", "operator": "RhönEnergie Fulda", "name": "Ladestation RhönEnergie Fulda", "addr:country": "DE", "socket:type2": "2", "socket:type2:output": "22 kW", "socket:schuko": "2", "socket:schuko:output": "2.3 kW", "charging_station:output": "22 kW", "capacity": "2", "_source": "worldwide"}}, {"type": "node", "id": 6448070009, "lat": 50.553289, "lon": 9.678937, "tags": {"amenity": "charging_station", "fee": "yes", "operator": "RhönEnergie Fulda", "name": "Ladestation RhönEnergie Fulda", "addr:country": "DE", "socket:type2": "2", "socket:type2:output": "22 kW", "socket:schuko": "2", "socket:schuko:output": "2.3 kW", "charging_station:output": "22 kW", "capacity": "2", "_source": "worldwide"}}, {"type": "node", "id": 8689960622, "lat": 50.553537, "lon": 9.672362, "tags": {"amenity": "charging_station", "operator": "RhönEnergie Fulda", "name": "Ladestation RhönEnergie Fulda", "addr:country": "DE", "capacity": "2", "_source": "worldwide"}}, {"type": "node", "id": 8865667342, "lat": 50.548123, "lon": 9.674751, "tags": {"amenity": "charging_station", "access": "customers", "fee": "no", "operator": "Rhön-Energie", "name": "Ladebox für E-Fahrräder", "addr:country": "DE", "_source": "worldwide"}}, {"type": "node", "id": 9537020477, "lat": 50.551994, "lon": 9.676828, "tags": {"amenity": "charging_station", "fee": "yes", "operator": "RhönEnergie Fulda", "name": "Ladestation RhönEnergie Fulda", "addr:country": "DE", "socket:type2": "2", "socket:type2:output": "22 kW", "socket:schuko": "2", "socket:schuko:output": "2.3 kW", "charging_station:output": "22 kW", "capacity": "2", "_source": "worldwide"}}, {"type": "node", "id": 13235686543, "lat": 50.548535, "lon": 9.678047, "tags": {"amenity": "charging_station", "fee": "no", "operator": "Rhön-Energie", "name": "Ladebox für E-Fahrräder", "addr:country": "DE", "_source": "worldwide"}}, {"type": "node", "id": 13547073479, "lat": 50.549654, "lon": 9.674199, "tags": {"amenity": "charging_station", "access": "yes", "fee": "yes", "operator": "RhönEnergie Fulda", "name": "Ladestation RhönEnergie Fulda", "addr:country": "DE", "capacity": "2", "_source": "worldwide"}}, {"type": "node", "id": 6388070330, "lat": 50.200059, "lon": 9.187621, "tags": {"amenity": "charging_station", "access": "customers", "operator": "Stadtwerke Gelnhausen;EAM", "name": "Ladestation Stadtwerke Gelnhausen;EAM", "addr:country": "DE", "socket:type2": "2", "socket:type2:output": "22 kW", "socket:schuko": "2", "socket:schuko:output": "2.3 kW", "charging_station:output": "22 kW", "capacity": "4", "_source": "worldwide"}}, {"type": "node", "id": 8367648815, "lat": 50.197083, "lon": 9.190101, "tags": {"amenity": "charging_station", "access": "yes", "operator": "compleo", "name": "Ladestation Parkplatz Bahnhofstraße", "addr:country": "DE", "socket:type2": "2", "socket:type2:output": "22 kW", "charging_station:output": "22 kW", "capacity": "2", "_source": "worldwide"}}, {"type": "node", "id": 10073599311, "lat": 50.199396, "lon": 9.191422, "tags": {"amenity": "charging_station", "fee": "no", "opening_hours": "24/7", "addr:country": "DE", "socket:schuko": "5", "socket:schuko:output": "2.3 kW", "charging_station:output": "2.3 kW", "capacity": "5", "_source": "worldwide"}}, {"type": "node", "id": 6388070331, "lat": 50.200444, "lon": 9.198786, "tags": {"amenity": "charging_station", "fee": "no", "opening_hours": "24/7", "operator": "Kreiswerke Main-Kinzig", "name": "Ladestation Kreiswerke Main-Kinzig", "addr:country": "DE", "capacity": "6", "_source": "worldwide"}}, {"type": "node", "id": 7325796237, "lat": 50.201128, "lon": 9.198473, "tags": {"amenity": "charging_station", "fee": "no", "opening_hours": "24/7", "operator": "Kreiswerke Main-Kinzig", "name": "Ladestation Kreiswerke Main-Kinzig", "addr:country": "DE", "socket:schuko": "5", "socket:schuko:output": "2.3 kW", "charging_station:output": "2.3 kW", "capacity": "5", "_source": "worldwide"}}, {"type": "node", "id": 6388661226, "lat": 50.254078, "lon": 9.295017, "tags": {"amenity": "charging_station", "access": "yes", "fee": "no", "opening_hours": "24/7", "operator": "Kreiswerke Main-Kinzig", "name": "Ladestation Kreiswerke Main-Kinzig", "addr:country": "DE", "socket:schuko": "4", "socket:schuko:output": "2.3 kW", "charging_station:output": "2.3 kW", "capacity": "4", "_source": "worldwide"}}, {"type": "node", "id": 6389364259, "lat": 50.21266, "lon": 9.13271, "tags": {"amenity": "charging_station", "access": "customers", "addr:country": "DE", "socket:schuko": "2", "socket:schuko:output": "2.3 kW", "charging_station:output": "2.3 kW", "capacity": "2", "_source": "worldwide"}}, {"type": "node", "id": 6389529912, "lat": 50.200536, "lon": 9.177085, "tags": {"amenity": "charging_station", "operator": "Stadtwerke Gelnhausen", "name": "Ladestation Stadtwerke Gelnhausen", "addr:country": "DE", "socket:type2": "1", "socket:type2:output": "22 kW", "charging_station:output": "22 kW", "capacity": "1", "_source": "worldwide"}}, {"type": "node", "id": 6415116748, "lat": 50.568747, "lon": 9.345505, "tags": {"amenity": "charging_station", "operator": "OVAG", "name": "Ladestation OVAG", "addr:country": "DE", "socket:type2": "2", "socket:type2:output": "22 kW", "socket:schuko": "2", "socket:schuko:output": "2.3 kW", "charging_station:output": "22 kW", "capacity": "2", "_source": "worldwide"}}, {"type": "node", "id": 6419457607, "lat": 50.834607, "lon": 9.72351, "tags": {"amenity": "charging_station", "access": "private", "fee": "yes", "operator": "Gespa Energy", "name": "Ladestation Gespa Energy", "addr:country": "DE", "capacity": "2", "wheelchair": "yes", "_source": "worldwide"}}, {"type": "node", "id": 6421506772, "lat": 50.265181, "lon": 9.316536, "tags": {"amenity": "charging_station", "access": "yes", "fee": "yes", "addr:country": "DE", "socket:schuko": "3", "socket:schuko:output": "2.3 kW", "charging_station:output": "2.3 kW", "capacity": "3", "_source": "worldwide"}}, {"type": "node", "id": 6421631648, "lat": 50.289183, "lon": 9.361298, "tags": {"amenity": "charging_station", "fee": "no", "network": "Wald erfahren", "opening_hours": "24/7", "operator": "Stadt Bad Soden-Salmünster", "name": "Stadt Bad Soden-Salmünster - Wald erfahren", "addr:country": "DE", "socket:schuko": "1", "socket:schuko:output": "2.3 kW", "charging_station:output": "2.3 kW", "capacity": "3", "_source": "worldwide"}}, {"type": "node", "id": 6421631651, "lat": 50.289146, "lon": 9.364838, "tags": {"amenity": "charging_station", "fee": "no", "operator": "Kreiswerke Main-Kinzig", "name": "Ladestation Kreiswerke Main-Kinzig", "addr:country": "DE", "socket:schuko": "4", "socket:schuko:output": "2.3 kW", "charging_station:output": "2.3 kW", "capacity": "4", "_source": "worldwide"}}, {"type": "node", "id": 9308935417, "lat": 50.289198, "lon": 9.363675, "tags": {"amenity": "charging_station", "access": "yes", "operator": "Kreiswerke Main-Kinzig", "name": "Ladestation Kreiswerke Main-Kinzig", "addr:country": "DE", "socket:type2": "2", "socket:type2:output": "22 kW", "charging_station:output": "22 kW", "capacity": "2", "_source": "worldwide"}}, {"type": "node", "id": 6448070010, "lat": 50.553328, "lon": 9.679016, "tags": {"amenity": "charging_station", "fee": "yes", "operator": "RhönEnergie Fulda", "name": "Ladestation RhönEnergie Fulda", "addr:country": "DE", "socket:type2": "2", "socket:type2:output": "22 kW", "socket:schuko": "2", "socket:schuko:output": "2.3 kW", "charging_station:output": "22 kW", "capacity": "2", "_source": "worldwide"}}, {"type": "node", "id": 9164384276, "lat": 50.549246, "lon": 9.682004, "tags": {"amenity": "charging_station", "operator": "RhönEnergie Fulda", "name": "Ladestation RhönEnergie Fulda", "addr:country": "DE", "socket:type2": "2", "socket:type2:output": "22 kW", "socket:schuko": "2", "socket:schuko:output": "2.3 kW", "charging_station:output": "22 kW", "_source": "worldwide"}}, {"type": "node", "id": 12983287022, "lat": 50.552442, "lon": 9.679645, "tags": {"amenity": "charging_station", "fee": "no", "name": "Ladebox RhönEnergie", "addr:country": "DE", "_source": "worldwide"}}, {"type": "node", "id": 6454814628, "lat": 50.195031, "lon": 9.192819, "tags": {"amenity": "charging_station", "addr:country": "DE", "socket:type2": "2", "socket:type2:output": "22 kW", "charging_station:output": "22 kW", "capacity": "2", "_source": "worldwide"}}, {"type": "node", "id": 7129415729, "lat": 50.193498, "lon": 9.193002, "tags": {"amenity": "charging_station", "access": "customers", "fee": "yes", "operator": "Autohaus Geiger & Liebsch", "name": "Autohaus Geiger & Liebsch - Autohaus Geiger & Liebsch GmbH & Co. KG", "addr:country": "DE", "socket:type2_combo": "1", "socket:type2_combo:output": "50 kW", "charging_station:output": "50 kW", "capacity": "1", "_source": "worldwide"}}, {"type": "node", "id": 13069829764, "lat": 50.195154, "lon": 9.18743, "tags": {"amenity": "charging_station", "opening_hours": "24/7", "addr:country": "DE", "socket:type2_combo": "2", "socket:type2_combo:output": "50 kW", "charging_station:output": "50 kW", "capacity": "2", "_source": "worldwide"}}, {"type": "node", "id": 6468205913, "lat": 50.28911, "lon": 9.108273, "tags": {"amenity": "charging_station", "fee": "no", "opening_hours": "24/7", "operator": "Stadt Büdingen", "name": "Ladestation Stadt Büdingen", "addr:country": "DE", "socket:type2": "2", "socket:type2:output": "22 kW", "charging_station:output": "22 kW", "capacity": "2", "_source": "worldwide"}}, {"type": "node", "id": 6468205918, "lat": 50.291701, "lon": 9.115831, "tags": {"amenity": "charging_station", "fee": "yes", "opening_hours": "24/7", "operator": "OVAG", "name": "Ladestation OVAG", "addr:country": "DE", "socket:type2": "2", "socket:type2:output": "22 kW", "socket:schuko": "2", "socket:schuko:output": "2.3 kW", "charging_station:output": "22 kW", "capacity": "4", "_source": "worldwide"}}, {"type": "node", "id": 6468205919, "lat": 50.292428, "lon": 9.116278, "tags": {"amenity": "charging_station", "access": "yes", "fee": "yes", "opening_hours": "24/7", "operator": "OVAG", "name": "Ladestation OVAG", "addr:country": "DE", "socket:type2": "2", "socket:type2:output": "22 kW", "charging_station:output": "22 kW", "capacity": "2", "_source": "worldwide"}}, {"type": "node", "id": 6480044092, "lat": 50.254968, "lon": 9.633062, "tags": {"amenity": "charging_station", "fee": "no", "opening_hours": "24/7", "operator": "Kreiswerke Main-Kinzig", "name": "Kreiswerke Main-Kinzig - Kreiswerke Main-Kinzig GmbH", "addr:country": "DE", "socket:schuko": "4", "socket:schuko:output": "2.3 kW", "charging_station:output": "2.3 kW", "capacity": "4", "_source": "worldwide"}}, {"type": "node", "id": 6480702045, "lat": 50.20515, "lon": 9.479361, "tags": {"amenity": "charging_station", "fee": "no", "operator": "Kreiswerke Main-Kinzig", "name": "Kreiswerke Main-Kinzig - Kreiswerke Main-Kinzig GmbH", "addr:country": "DE", "socket:schuko": "4", "socket:schuko:output": "2.3 kW", "charging_station:output": "2.3 kW", "capacity": "4", "_source": "worldwide"}}, {"type": "node", "id": 6502638182, "lat": 50.746013, "lon": 9.275067, "tags": {"amenity": "charging_station", "fee": "no", "opening_hours": "24/7", "name": "Ladestation Fahrrad", "addr:country": "DE", "capacity": "3", "authentication:none": "yes", "_source": "worldwide"}}, {"type": "node", "id": 9026791277, "lat": 50.751249, "lon": 9.276343, "tags": {"amenity": "charging_station", "access": "yes", "fee": "yes", "brand": "OVAG", "opening_hours": "24/7", "operator": "OVAG", "name": "OVAG - OVAG", "addr:country": "DE", "capacity": "2", "_source": "worldwide"}}, {"type": "node", "id": 11593941660, "lat": 50.746837, "lon": 9.275594, "tags": {"amenity": "charging_station", "access": "yes", "fee": "yes", "opening_hours": "24/7", "operator": "TankE", "name": "TankE Ladenetzwerk", "addr:country": "DE", "socket:type2_combo": "2", "socket:type2_combo:output": "50 kW", "charging_station:output": "50 kW", "capacity": "2", "_source": "worldwide"}}, {"type": "node", "id": 6634667928, "lat": 50.69367, "lon": 9.054931, "tags": {"amenity": "charging_station", "operator": "Ovag", "name": "Ladestation Ovag", "addr:country": "DE", "capacity": "2", "_source": "worldwide"}}, {"type": "node", "id": 6670648762, "lat": 50.911608, "lon": 9.241756, "tags": {"amenity": "charging_station", "access": "yes", "addr:country": "DE", "capacity": "2", "_source": "worldwide"}}, {"type": "node", "id": 6780843612, "lat": 50.264317, "lon": 9.30867, "tags": {"amenity": "charging_station", "access": "yes", "fee": "no", "opening_hours": "24/7", "operator": "Kreiswerke Main-Kinzig", "name": "Ladestation Kreiswerke Main-Kinzig", "addr:country": "DE", "socket:schuko": "5", "socket:schuko:output": "2.3 kW", "charging_station:output": "2.3 kW", "capacity": "5", "_source": "worldwide"}}, {"type": "node", "id": 6780843613, "lat": 50.257836, "lon": 9.288602, "tags": {"amenity": "charging_station", "fee": "no", "opening_hours": "24/7", "operator": "Kreiswerke Main-Kinzig", "name": "Ladestation Kreiswerke Main-Kinzig", "addr:country": "DE", "socket:schuko": "5", "socket:schuko:output": "2.3 kW", "charging_station:output": "2.3 kW", "capacity": "5", "_source": "worldwide"}}, {"type": "node", "id": 7714453438, "lat": 50.258085, "lon": 9.287027, "tags": {"amenity": "charging_station", "access": "yes", "fee": "no", "operator": "Kreiswerke Main-Kinzig", "name": "Ladestation Kreiswerke Main-Kinzig", "addr:country": "DE", "socket:schuko": "4", "socket:schuko:output": "2.3 kW", "charging_station:output": "2.3 kW", "capacity": "4", "_source": "worldwide"}}, {"type": "node", "id": 6786687166, "lat": 50.744219, "lon": 9.272069, "tags": {"amenity": "charging_station", "fee": "yes", "opening_hours": "24/7", "operator": "Wallbe Emobility", "name": "Fahrrad-Ladestation", "addr:country": "DE", "capacity": "3", "_source": "worldwide"}}, {"type": "node", "id": 6800987745, "lat": 50.326572, "lon": 9.010074, "tags": {"amenity": "charging_station", "operator": "Ovag", "name": "Ladestation Ovag", "addr:country": "DE", "capacity": "2", "_source": "worldwide"}}, {"type": "node", "id": 6948659610, "lat": 50.865084, "lon": 9.716325, "tags": {"amenity": "charging_station", "access": "yes", "fee": "yes", "brand": "ABL", "operator": "Stadtwerke Bad Hersfeld", "name": "Stadtwerke Bad Hersfeld - ABL", "addr:country": "DE", "socket:type2": "2", "socket:type2:output": "11.0 kW", "charging_station:output": "11.0 kW", "capacity": "2", "_source": "worldwide"}}, {"type": "node", "id": 12629362884, "lat": 50.864168, "lon": 9.71747, "tags": {"amenity": "charging_station", "brand": "Total energies", "operator": "TotalEnergies", "name": "TotalEnergies - Total energies", "addr:country": "DE", "_source": "worldwide"}}, {"type": "node", "id": 13634133141, "lat": 50.866178, "lon": 9.720091, "tags": {"amenity": "charging_station", "access": "yes", "fee": "yes", "brand": "Elektro Hess", "operator": "Elektro Hess", "name": "Elektro Hess - Elektro Hess", "addr:country": "DE", "capacity": "2", "_source": "worldwide"}}, {"type": "node", "id": 6948659612, "lat": 50.868569, "lon": 9.715168, "tags": {"amenity": "charging_station", "access": "yes", "fee": "yes", "brand": "ABL", "operator": "Stadtwerke Bad Hersfeld", "name": "Stadtwerke Bad Hersfeld - ABL", "addr:country": "DE", "socket:type2": "2", "socket:type2:output": "22.0 kW", "charging_station:output": "22.0 kW", "capacity": "2", "_source": "worldwide"}}, {"type": "node", "id": 13519681951, "lat": 50.867517, "lon": 9.712339, "tags": {"amenity": "charging_station", "name": "VR-Share", "addr:country": "DE", "_source": "worldwide"}}, {"type": "node", "id": 6977187656, "lat": 50.225276, "lon": 9.405793, "tags": {"amenity": "charging_station", "access": "yes", "fee": "no", "network": "Wald erfahren", "opening_hours": "24/7", "operator": "Stadt Bad Orb", "name": "Stadt Bad Orb - Wald erfahren", "addr:country": "DE", "socket:schuko": "1", "socket:schuko:output": "2.3 kW", "charging_station:output": "2.3 kW", "capacity": "3", "_source": "worldwide"}}, {"type": "node", "id": 7001441104, "lat": 50.239086, "lon": 9.476893, "tags": {"amenity": "charging_station", "access": "yes", "fee": "no", "network": "Wald erfahren", "opening_hours": "24/7", "operator": "Stadt Bad Soden-Salmünster", "name": "Stadt Bad Soden-Salmünster - Wald erfahren", "addr:country": "DE", "socket:schuko": "1", "socket:schuko:output": "2.3 kW", "charging_station:output": "2.3 kW", "capacity": "3", "_source": "worldwide"}}, {"type": "node", "id": 7031029722, "lat": 50.198454, "lon": 9.961856, "tags": {"amenity": "charging_station", "fee": "yes", "operator": "Bayernwerk", "name": "Ladestation Bayernwerk", "addr:country": "DE", "socket:type2": "2", "socket:type2:output": "22 kW", "charging_station:output": "22 kW", "_source": "worldwide"}}, {"type": "node", "id": 7033751571, "lat": 50.302984, "lon": 9.298096, "tags": {"amenity": "charging_station", "operator": "Kreiswerke Main-Kinzig", "name": "Kreiswerke Main-Kinzig - Kreiswerke Main-Kinzig GmbH", "addr:country": "DE", "socket:type2": "1", "socket:type2:output": "22.0 kW", "charging_station:output": "22.0 kW", "capacity": "1", "_source": "worldwide"}}, {"type": "node", "id": 7853798624, "lat": 50.302922, "lon": 9.301144, "tags": {"amenity": "charging_station", "fee": "no", "name": "E-Bike Ladestation Brachtwerk", "addr:country": "DE", "_source": "worldwide"}}, {"type": "node", "id": 7065844986, "lat": 50.031325, "lon": 9.025751, "tags": {"amenity": "charging_station", "name": "Stromtankstelle", "addr:country": "DE", "capacity": "1", "_source": "worldwide"}}, {"type": "node", "id": 7088035024, "lat": 50.823355, "lon": 9.014591, "tags": {"amenity": "charging_station", "access": "yes", "fee": "no", "operator": "EAM", "name": "EAM Charger", "addr:country": "DE", "capacity": "2", "_source": "worldwide"}}, {"type": "node", "id": 12571360275, "lat": 50.825689, "lon": 9.012979, "tags": {"amenity": "charging_station", "addr:country": "DE", "capacity": "6", "_source": "worldwide"}}, {"type": "node", "id": 13389497510, "lat": 50.827048, "lon": 9.017234, "tags": {"amenity": "charging_station", "addr:country": "DE", "socket:type2": "2", "socket:type2:output": "22 kW", "charging_station:output": "22 kW", "capacity": "2", "_source": "worldwide"}}, {"type": "node", "id": 1498794248, "lat": 50.82817, "lon": 9.012466, "tags": {"amenity": "charging_station", "fee": "yes", "operator": "Teag Mobil", "name": "Ladestation Teag Mobil", "addr:country": "DE", "socket:type2_combo": "6", "socket:type2_combo:output": "300.0 kW", "charging_station:output": "300.0 kW", "capacity": "6", "_source": "worldwide"}}, {"type": "node", "id": 7105356934, "lat": 50.201517, "lon": 9.207997, "tags": {"amenity": "charging_station", "fee": "yes", "operator": "e-Motion.world", "name": "Ladestation e-Motion.world", "addr:country": "DE", "socket:type2": "1", "socket:type2:output": "22 kW", "charging_station:output": "22 kW", "capacity": "1", "_source": "worldwide"}}, {"type": "node", "id": 7116382239, "lat": 50.975193, "lon": 9.319223, "tags": {"amenity": "charging_station", "name": "Rotkäppchenland", "addr:country": "DE", "_source": "worldwide"}}, {"type": "node", "id": 7116382241, "lat": 50.975333, "lon": 9.320925, "tags": {"amenity": "charging_station", "name": "Rotkäppchenland", "addr:country": "DE", "_source": "worldwide"}}, {"type": "node", "id": 7130535498, "lat": 50.186768, "lon": 9.17298, "tags": {"amenity": "charging_station", "fee": "yes", "addr:country": "DE", "socket:type2": "2", "socket:type2:output": "22 kW", "charging_station:output": "22 kW", "capacity": "2", "_source": "worldwide"}}, {"type": "node", "id": 7133776921, "lat": 50.162627, "lon": 9.058238, "tags": {"amenity": "charging_station", "fee": "yes", "opening_hours": "24/7", "operator": "Next Energy", "name": "Next Energy - Next Energy GmbH", "addr:country": "DE", "socket:type2": "1", "socket:type2:output": "22 kW", "charging_station:output": "22 kW", "capacity": "1", "_source": "worldwide"}}, {"type": "node", "id": 7133776923, "lat": 50.161141, "lon": 9.054255, "tags": {"amenity": "charging_station", "opening_hours": "24/7", "operator": "Park + Charge e.V.", "name": "Ladestation Park + Charge e.V.", "addr:country": "DE", "socket:cee_blue": "1", "socket:cee_blue:output": "3.7 kW", "socket:schuko": "2", "socket:schuko:output": "2.3 kW", "charging_station:output": "3.7 kW", "capacity": "1", "_source": "worldwide"}}, {"type": "node", "id": 7208839355, "lat": 50.182833, "lon": 9.034915, "tags": {"amenity": "charging_station", "fee": "yes", "network": "be.energised", "opening_hours": "24/7", "operator": "Kreiswerke Main-Kinzig", "name": "Kreiswerke Main-Kinzig - be.energised", "addr:country": "DE", "socket:type2": "2", "socket:type2:output": "22.0 kW", "charging_station:output": "22.0 kW", "capacity": "2", "_source": "worldwide"}}, {"type": "node", "id": 7331994542, "lat": 50.201585, "lon": 9.120019, "tags": {"amenity": "charging_station", "opening_hours": "24/7", "operator": "Kreiswerke Main-Kinzig", "name": "Kreiswerke Main-Kinzig - Kreiswerke Main-Kinzig GmbH", "addr:country": "DE", "socket:type2": "2", "socket:type2:output": "22.0 kW", "charging_station:output": "22.0 kW", "capacity": "2", "_source": "worldwide"}}, {"type": "node", "id": 7429181405, "lat": 50.117846, "lon": 9.887542, "tags": {"amenity": "charging_station", "opening_hours": "24/7", "operator": "ladenetz.de", "name": "ladenetz", "addr:country": "DE", "socket:type2": "2", "socket:type2:output": "22 kW", "charging_station:output": "22 kW", "capacity": "2", "_source": "worldwide"}}, {"type": "node", "id": 7549548706, "lat": 50.72374, "lon": 9.933283, "tags": {"amenity": "charging_station", "access": "yes", "fee": "no", "operator": "Rhönenergie", "name": "Ladestation Rhönenergie", "addr:country": "DE", "capacity": "3", "_source": "worldwide"}}, {"type": "node", "id": 7572205415, "lat": 50.27693, "lon": 9.377534, "tags": {"amenity": "charging_station", "access": "yes", "fee": "yes", "operator": "RhönEnergie Fulda", "name": "Ladestation RhönEnergie Fulda", "addr:country": "DE", "socket:type2": "2", "socket:type2:output": "22 kW", "charging_station:output": "22 kW", "capacity": "2", "_source": "worldwide"}}, {"type": "node", "id": 7596645571, "lat": 50.744298, "lon": 9.273048, "tags": {"amenity": "charging_station", "fee": "yes", "opening_hours": "24/7", "operator": "Wallbe Emobility", "name": "PKW-Ladestation", "addr:country": "DE", "capacity": "2", "_source": "worldwide"}}, {"type": "node", "id": 9385849107, "lat": 50.489306, "lon": 9.869107, "tags": {"amenity": "charging_station", "access": "yes", "fee": "yes", "operator": "RhönEnergie Fulda", "name": "Ladestation RhönEnergie Fulda", "addr:country": "DE", "socket:type2": "2", "socket:type2:output": "22 kW", "charging_station:output": "22 kW", "capacity": "2", "_source": "worldwide"}}, {"type": "node", "id": 13011543748, "lat": 50.490581, "lon": 9.869057, "tags": {"amenity": "charging_station", "access": "yes", "fee": "yes", "brand": "ChargeOne", "operator": "Heinemann", "name": "Heinemann - ChargeOne", "addr:country": "DE", "capacity": "2", "_source": "worldwide"}}, {"type": "node", "id": 13445124064, "lat": 50.490506, "lon": 9.871938, "tags": {"amenity": "charging_station", "access": "yes", "fee": "yes", "operator": "RhönEnergie Fulda", "name": "Ladestation RhönEnergie Fulda", "addr:country": "DE", "capacity": "2", "_source": "worldwide"}}, {"type": "node", "id": 7616348541, "lat": 50.484203, "lon": 9.345307, "tags": {"amenity": "charging_station", "fee": "no", "addr:country": "DE", "socket:schuko": "3", "socket:schuko:output": "2.3 kW", "charging_station:output": "2.3 kW", "capacity": "3", "_source": "worldwide"}}, {"type": "node", "id": 7644626049, "lat": 50.313766, "lon": 9.293186, "tags": {"amenity": "charging_station", "access": "yes", "fee": "yes", "operator": "next energy", "name": "next energy - next energy GmbH", "addr:country": "DE", "socket:type2": "1", "socket:type2:output": "22.0 kW", "charging_station:output": "22.0 kW", "capacity": "1", "_source": "worldwide"}}, {"type": "node", "id": 7678041331, "lat": 50.093086, "lon": 9.648108, "tags": {"amenity": "charging_station", "fee": "no", "network": "Wald Erfahren", "opening_hours": "24/7", "operator": "Gemeinde Rieneck", "name": "Gemeinde Rieneck - Wald Erfahren", "addr:country": "DE", "capacity": "3", "_source": "worldwide"}}, {"type": "node", "id": 7698863602, "lat": 50.414932, "lon": 9.009504, "tags": {"amenity": "charging_station", "access": "yes", "operator": "OVAG", "name": "Ladestation OVAG", "addr:country": "DE", "_source": "worldwide"}}, {"type": "node", "id": 9983538901, "lat": 50.413462, "lon": 9.010335, "tags": {"amenity": "charging_station", "access": "yes", "addr:country": "DE", "_source": "worldwide"}}, {"type": "node", "id": 9983566931, "lat": 50.415611, "lon": 9.010119, "tags": {"amenity": "charging_station", "access": "yes", "addr:country": "DE", "_source": "worldwide"}}, {"type": "node", "id": 7766352627, "lat": 50.165528, "lon": 9.4201, "tags": {"amenity": "charging_station", "fee": "no", "operator": "Kreiswerke Main-Kinzig", "name": "Kreiswerke Main-Kinzig - Kreiswerke Main-Kinzig GmbH", "addr:country": "DE", "socket:schuko": "4", "socket:schuko:output": "2.3 kW", "charging_station:output": "2.3 kW", "capacity": "4", "_source": "worldwide"}}, {"type": "node", "id": 7777674518, "lat": 50.965877, "lon": 9.795603, "tags": {"amenity": "charging_station", "access": "yes", "fee": "yes", "brand": "Swarco", "operator": "Lidl", "name": "Lidl - Swarco", "addr:country": "DE", "socket:type2": "2", "socket:type2:output": "22.0 kW", "charging_station:output": "22.0 kW", "capacity": "2", "authentication:none": "", "_source": "worldwide"}}, {"type": "node", "id": 1389880177, "lat": 50.970236, "lon": 9.792723, "tags": {"amenity": "charging_station", "access": "yes", "brand": "Compleo", "operator": "EAM", "name": "EAM - Compleo", "addr:country": "DE", "capacity": "2", "_source": "worldwide"}}, {"type": "node", "id": 1389880178, "lat": 50.970629, "lon": 9.795199, "tags": {"amenity": "charging_station", "access": "yes", "fee": "yes", "brand": "alpitronic - Compleo", "operator": "EAM", "name": "EAM - alpitronic - Compleo", "addr:country": "DE", "socket:type2_combo": "4", "socket:type2_combo:output": "400.0 kW", "charging_station:output": "400.0 kW", "capacity": "4", "_source": "worldwide"}}, {"type": "node", "id": 1411926264, "lat": 50.969987, "lon": 9.794777, "tags": {"amenity": "charging_station", "access": "yes", "brand": "alpitronic - Compleo", "operator": "EAM", "name": "EAM - alpitronic - Compleo", "addr:country": "DE", "socket:type2": "1", "socket:type2:output": "22 kW", "socket:type2_combo": "1", "socket:type2_combo:output": "50 kW", "charging_station:output": "50 kW", "capacity": "2", "_source": "worldwide"}}, {"type": "node", "id": 7804185100, "lat": 50.355659, "lon": 9.753887, "tags": {"amenity": "charging_station", "access": "yes", "fee": "yes", "brand": "Tesla Supercharger", "opening_hours": "24/7", "operator": "Tesla", "name": "Motten Supercharger", "addr:street": "Hauptstraße 13", "addr:postcode": "97786", "addr:city": "Motten", "addr:country": "DE", "socket:type2_combo": "16", "socket:type2_combo:output": "150.0 kW", "socket:tesla_supercharger": "16", "socket:tesla_supercharger:output": "150.0 kW", "charging_station:output": "150.0 kW", "capacity": "16", "_source": "worldwide"}}, {"type": "node", "id": 7804500245, "lat": 50.059466, "lon": 9.403364, "tags": {"amenity": "charging_station", "access": "yes", "fee": "no", "network": "Wald Erfahren", "opening_hours": "24/7", "operator": "Markt Frammersbach", "name": "Markt Frammersbach - Wald Erfahren", "addr:country": "DE", "socket:schuko": "1", "socket:schuko:output": "2.3 kW", "charging_station:output": "2.3 kW", "capacity": "5", "_source": "worldwide"}}, {"type": "node", "id": 7826365478, "lat": 50.122202, "lon": 9.947093, "tags": {"amenity": "charging_station", "fee": "no", "name": "Gasthaus zum Adler", "addr:country": "DE", "capacity": "3", "_source": "worldwide"}}, {"type": "node", "id": 7886354240, "lat": 50.312723, "lon": 9.461082, "tags": {"amenity": "charging_station", "fee": "no", "opening_hours": "24/7", "operator": "Kreiswerke Main-Kinzig", "name": "Ladestation Kreiswerke Main-Kinzig", "addr:country": "DE", "socket:schuko": "4", "socket:schuko:output": "2.3 kW", "charging_station:output": "2.3 kW", "capacity": "4", "_source": "worldwide"}}, {"type": "node", "id": 7926234504, "lat": 50.423331, "lon": 9.204374, "tags": {"amenity": "charging_station", "fee": "yes", "opening_hours": "24/7", "operator": "OVAG", "name": "Ladestation OVAG", "addr:country": "DE", "socket:type2": "2", "socket:type2:output": "22.0 kW", "charging_station:output": "22.0 kW", "capacity": "2", "_source": "worldwide"}}, {"type": "node", "id": 8869612957, "lat": 50.42376, "lon": 9.197531, "tags": {"amenity": "charging_station", "fee": "yes", "operator": "OVAG", "name": "Ladestation OVAG", "addr:country": "DE", "socket:type2": "2", "socket:type2:output": "22.0 kW", "charging_station:output": "22.0 kW", "_source": "worldwide"}}, {"type": "node", "id": 7972919249, "lat": 50.47304, "lon": 9.314812, "tags": {"amenity": "charging_station", "addr:country": "DE", "_source": "worldwide"}}, {"type": "node", "id": 8023020291, "lat": 50.147896, "lon": 9.65038, "tags": {"amenity": "charging_station", "access": "yes", "fee": "no", "brand": "Wald erFahren", "network": "Wald Erfahren", "operator": "Kommunale Allianz SpessartKraft e.V.", "name": "Kommunale Allianz SpessartKraft e.V. - Wald erFahren", "addr:country": "DE", "socket:schuko": "1", "socket:schuko:output": "2.3 kW", "charging_station:output": "2.3 kW", "capacity": "5", "_source": "worldwide"}}, {"type": "node", "id": 12974350378, "lat": 50.152138, "lon": 9.653464, "tags": {"amenity": "charging_station", "access": "yes", "fee": "yes", "brand": "ChargeOne", "operator": "Claus Heinemann Elektroanlagen", "name": "ChargeOne", "addr:country": "DE", "capacity": "2", "_source": "worldwide"}}, {"type": "node", "id": 8073212167, "lat": 50.425696, "lon": 9.402047, "tags": {"amenity": "charging_station", "operator": "Ovag", "name": "Ladestation Ovag", "addr:country": "DE", "capacity": "2", "_source": "worldwide"}}, {"type": "node", "id": 8075104463, "lat": 50.818245, "lon": 9.844755, "tags": {"amenity": "charging_station", "access": "yes", "fee": "no", "opening_hours": "24/7", "operator": "Sparkasse Bad Hersfeld Rotenburg", "name": "E.Bike Ladestation", "addr:country": "DE", "socket:schuko": "3", "socket:schuko:output": "2.3 kW", "charging_station:output": "2.3 kW", "capacity": "3", "_source": "worldwide"}}, {"type": "node", "id": 8085265900, "lat": 50.655548, "lon": 9.723815, "tags": {"amenity": "charging_station", "brand": "Porsche", "operator": "Porsche", "name": "Porsche - Porsche", "addr:country": "DE", "capacity": "2", "_source": "worldwide"}}, {"type": "node", "id": 8151009564, "lat": 50.314688, "lon": 9.446792, "tags": {"amenity": "charging_station", "access": "yes", "fee": "yes", "operator": "RhönEnergie Fulda", "name": "Ladestation RhönEnergie Fulda", "addr:country": "DE", "socket:type2": "4", "socket:type2:output": "22.0 kW", "charging_station:output": "22.0 kW", "capacity": "4", "_source": "worldwide"}}, {"type": "node", "id": 11881072604, "lat": 50.316195, "lon": 9.44808, "tags": {"amenity": "charging_station", "access": "yes", "operator": "RhönEnergie Fulda", "name": "Ladestation RhönEnergie Fulda", "addr:country": "DE", "socket:type2": "2", "socket:type2:output": "22 kW", "charging_station:output": "22 kW", "capacity": "2", "_source": "worldwide"}}, {"type": "node", "id": 13013240463, "lat": 50.315173, "lon": 9.442445, "tags": {"amenity": "charging_station", "access": "yes", "operator": "PACO", "name": "Ladestation PACO", "addr:country": "DE", "socket:type2": "2", "socket:type2:output": "22 kW", "charging_station:output": "22 kW", "capacity": "2", "_source": "worldwide"}}, {"type": "node", "id": 13446798638, "lat": 50.314678, "lon": 9.443491, "tags": {"amenity": "charging_station", "access": "yes", "fee": "yes", "operator": "RhönEnergie Fulda", "name": "Ladestation RhönEnergie Fulda", "addr:country": "DE", "capacity": "2", "_source": "worldwide"}}, {"type": "node", "id": 8219024662, "lat": 50.574391, "lon": 9.195311, "tags": {"amenity": "charging_station", "operator": "Ovag", "name": "Ladestation Ovag", "addr:country": "DE", "capacity": "2", "_source": "worldwide"}}, {"type": "node", "id": 8255066505, "lat": 50.355081, "lon": 9.05582, "tags": {"amenity": "charging_station", "opening_hours": "24/7", "operator": "orag Energie", "name": "Ladestation orag Energie", "addr:country": "DE", "socket:type2": "2", "socket:type2:output": "22 kW", "socket:schuko": "2", "socket:schuko:output": "2.3 kW", "charging_station:output": "22 kW", "_source": "worldwide"}}, {"type": "node", "id": 8258459766, "lat": 50.392546, "lon": 9.135971, "tags": {"amenity": "charging_station", "fee": "yes", "operator": "Oberhessische Versorgungsbetriebe", "name": "Oberhessische Versorgungsbetriebe - Oberhessische Versorgungsbetriebe AG", "addr:country": "DE", "socket:type2": "2", "socket:type2:output": "22 kW", "charging_station:output": "22 kW", "capacity": "2", "_source": "worldwide"}}, {"type": "node", "id": 8266807678, "lat": 50.564223, "lon": 9.686042, "tags": {"amenity": "charging_station", "operator": "RhönEnergie", "name": "Ladestation RhönEnergie", "addr:country": "DE", "socket:type2": "1", "socket:type2:output": "22 kW", "charging_station:output": "22 kW", "capacity": "2", "_source": "worldwide"}}, {"type": "node", "id": 9171875146, "lat": 50.56022, "lon": 9.686736, "tags": {"amenity": "charging_station", "operator": "RhönEnergie", "name": "Ladestation RhönEnergie", "addr:country": "DE", "socket:type2": "2", "socket:type2:output": "22 kW", "socket:schuko": "2", "socket:schuko:output": "2.3 kW", "charging_station:output": "22 kW", "capacity": "2", "_source": "worldwide"}}, {"type": "node", "id": 11286838824, "lat": 50.564303, "lon": 9.688354, "tags": {"amenity": "charging_station", "fee": "yes", "opening_hours": "24/7", "addr:country": "DE", "socket:type2": "2", "socket:type2:output": "22 kW", "charging_station:output": "22 kW", "capacity": "2", "_source": "worldwide"}}, {"type": "node", "id": 8267370459, "lat": 50.572727, "lon": 9.859179, "tags": {"amenity": "charging_station", "operator": "RhönEnergie", "name": "Ladestation RhönEnergie", "addr:country": "DE", "socket:schuko": "6", "socket:schuko:output": "2.3 kW", "charging_station:output": "2.3 kW", "capacity": "3", "_source": "worldwide"}}, {"type": "node", "id": 8275286817, "lat": 50.913789, "lon": 9.449896, "tags": {"amenity": "charging_station", "access": "yes", "fee": "yes", "brand": "EAM", "operator": "EAM", "name": "EAM - EAM", "addr:country": "DE", "capacity": "2", "_source": "worldwide"}}, {"type": "node", "id": 8281188968, "lat": 50.313274, "lon": 9.885835, "tags": {"amenity": "charging_station", "fee": "yes", "opening_hours": "24/7", "addr:country": "DE", "socket:type2": "2", "socket:type2:output": "22 kW", "charging_station:output": "22 kW", "capacity": "2", "_source": "worldwide"}}, {"type": "node", "id": 8393910618, "lat": 50.057922, "lon": 9.686815, "tags": {"amenity": "charging_station", "operator": "Die Energie", "name": "Ladestation Die Energie", "addr:country": "DE", "capacity": "2", "_source": "worldwide"}}, {"type": "node", "id": 8394593656, "lat": 50.047574, "lon": 9.047284, "tags": {"amenity": "charging_station", "access": "yes", "fee": "yes", "network": "EnBW", "operator": "EnBW", "name": "Ladestation Shell Alzenau Süd", "addr:country": "DE", "socket:type2_combo": "2", "socket:type2_combo:output": "50 kW", "socket:chademo": "1", "socket:chademo:output": "50.0 kW", "charging_station:output": "50 kW", "capacity": "2", "authentication:none": "", "_source": "worldwide"}}, {"type": "node", "id": 8463781319, "lat": 50.064508, "lon": 9.47186, "tags": {"amenity": "charging_station", "fee": "no", "name": "Wald erFahren", "addr:country": "DE", "capacity": "4", "_source": "worldwide"}}, {"type": "node", "id": 11880762722, "lat": 50.06415, "lon": 9.470769, "tags": {"amenity": "charging_station", "access": "yes", "fee": "yes", "addr:country": "DE", "socket:type2": "2", "socket:type2:output": "22.0 kW", "charging_station:output": "22.0 kW", "capacity": "2", "_source": "worldwide"}}, {"type": "node", "id": 8548432158, "lat": 50.833689, "lon": 9.570718, "tags": {"amenity": "charging_station", "access": "yes", "fee": "yes", "brand": "Ionity", "network": "Ionity", "opening_hours": "24/7", "operator": "IONITY", "name": "Ionity Kirchheim (Tal)", "addr:country": "DE", "socket:type2_combo": "6", "socket:type2_combo:output": "350.0 kW", "charging_station:output": "350.0 kW", "capacity": "6", "_source": "worldwide"}}, {"type": "node", "id": 8548432164, "lat": 50.832564, "lon": 9.573116, "tags": {"amenity": "charging_station", "fee": "yes", "opening_hours": "24/7", "operator": "EnBW", "name": "EnBW", "addr:street": "Stockäcker", "socket:type2_combo": "2", "socket:type2_combo:output": "150.0 kW", "charging_station:output": "150.0 kW", "capacity": "2", "_source": "worldwide"}}, {"type": "node", "id": 10833069389, "lat": 50.833344, "lon": 9.573237, "tags": {"amenity": "charging_station", "access": "yes", "fee": "yes", "brand": "Ionity", "network": "Ionity", "opening_hours": "24/7", "operator": "IONITY", "name": "Ionity Kirchheim 2", "addr:country": "DE", "socket:type2_combo": "12", "socket:type2_combo:output": "350.0 kW", "charging_station:output": "350.0 kW", "capacity": "12", "_source": "worldwide"}}, {"type": "node", "id": 12558790701, "lat": 50.832328, "lon": 9.571095, "tags": {"amenity": "charging_station", "addr:country": "DE", "_source": "worldwide"}}, {"type": "node", "id": 8557825410, "lat": 50.696914, "lon": 9.72534, "tags": {"amenity": "charging_station", "access": "yes", "fee": "yes", "opening_hours": "24/7", "operator": "RhönEnergie Fulda", "name": "Ladestation RhönEnergie Fulda", "addr:country": "DE", "socket:type2": "2", "socket:type2:output": "22 kW", "socket:schuko": "2", "socket:schuko:output": "2.3 kW", "charging_station:output": "22 kW", "capacity": "2", "_source": "worldwide"}}, {"type": "node", "id": 8559814220, "lat": 50.064914, "lon": 9.68653, "tags": {"amenity": "charging_station", "addr:country": "DE", "_source": "worldwide"}}, {"type": "node", "id": 8569795772, "lat": 50.495999, "lon": 9.715499, "tags": {"amenity": "charging_station", "addr:country": "DE", "capacity": "10", "_source": "worldwide"}}, {"type": "node", "id": 8578715810, "lat": 50.172821, "lon": 9.037496, "tags": {"amenity": "charging_station", "fee": "yes", "opening_hours": "24/7", "operator": "EAM", "name": "Ladepunkt Schloßstraße", "addr:country": "DE", "socket:type2": "2", "socket:type2:output": "22.0 kW", "charging_station:output": "22.0 kW", "capacity": "2", "_source": "worldwide"}}, {"type": "node", "id": 12986005860, "lat": 50.174142, "lon": 9.036772, "tags": {"amenity": "charging_station", "fee": "yes", "opening_hours": "24/7", "operator": "EAM", "name": "EAM", "addr:country": "DE", "socket:type2": "2", "socket:type2:output": "22.0 kW", "charging_station:output": "22.0 kW", "capacity": "2", "_source": "worldwide"}}, {"type": "node", "id": 8595358948, "lat": 50.0867, "lon": 9.246418, "tags": {"amenity": "charging_station", "access": "yes", "fee": "yes", "opening_hours": "24/7", "operator": "Energieversorgung Main-Spessart", "name": "Energieversorgung Main-Spessart - Energieversorgung Main-Spessart GmbH", "addr:country": "DE", "socket:type2": "6", "socket:type2:output": "22.0 kW", "charging_station:output": "22.0 kW", "capacity": "6", "authentication:none": "", "_source": "worldwide"}}, {"type": "node", "id": 8599190522, "lat": 50.193125, "lon": 9.616196, "tags": {"amenity": "charging_station", "access": "yes", "fee": "no", "network": "Wald Erfahren", "operator": "Wald Erfahren", "name": "Ladestation Wald Erfahren", "addr:country": "DE", "socket:schuko": "1", "socket:schuko:output": "2.3 kW", "charging_station:output": "2.3 kW", "_source": "worldwide"}}, {"type": "node", "id": 8660198017, "lat": 50.539841, "lon": 9.698017, "tags": {"amenity": "charging_station", "operator": "Rhön Energie Fulda", "name": "Ladestation Rhön Energie Fulda", "addr:country": "DE", "socket:type2": "2", "socket:type2:output": "22 kW", "socket:schuko": "2", "socket:schuko:output": "2.3 kW", "charging_station:output": "22 kW", "capacity": "2", "_source": "worldwide"}}, {"type": "node", "id": 11867348185, "lat": 50.538246, "lon": 9.69679, "tags": {"amenity": "charging_station", "fee": "yes", "operator": "RhönEnergie Fulda", "name": "Ladestation RhönEnergie Fulda", "addr:country": "DE", "socket:type2_combo": "2", "socket:type2_combo:output": "50 kW", "charging_station:output": "50 kW", "capacity": "2", "_source": "worldwide"}}, {"type": "node", "id": 8672664389, "lat": 50.691186, "lon": 9.748489, "tags": {"amenity": "charging_station", "addr:country": "DE", "socket:type2": "2", "socket:type2:output": "22 kW", "charging_station:output": "22 kW", "_source": "worldwide"}}, {"type": "node", "id": 8781566049, "lat": 50.606869, "lon": 9.302164, "tags": {"amenity": "charging_station", "operator": "OVAG", "name": "Ladestation OVAG", "addr:country": "DE", "_source": "worldwide"}}, {"type": "node", "id": 8781727484, "lat": 50.573988, "lon": 9.196141, "tags": {"amenity": "charging_station", "addr:country": "DE", "_source": "worldwide"}}, {"type": "node", "id": 8869607735, "lat": 50.175581, "lon": 9.041859, "tags": {"amenity": "charging_station", "fee": "yes", "opening_hours": "24/7", "operator": "Sparkasse Hanau", "name": "Ladestation Sparkasse Hanau", "addr:country": "DE", "socket:type2": "2", "socket:type2:output": "22.0 kW", "charging_station:output": "22.0 kW", "capacity": "2", "_source": "worldwide"}}, {"type": "node", "id": 12323805651, "lat": 50.175071, "lon": 9.044282, "tags": {"amenity": "charging_station", "fee": "yes", "opening_hours": "24/7", "operator": "EnBW", "name": "Ladestation EnBW", "addr:country": "DE", "socket:type2_combo": "2", "socket:type2_combo:output": "150.0 kW", "charging_station:output": "150.0 kW", "capacity": "2", "_source": "worldwide"}}, {"type": "node", "id": 13352975273, "lat": 50.176346, "lon": 9.047471, "tags": {"amenity": "charging_station", "fee": "yes", "opening_hours": "24/7", "operator": "reev", "name": "Ladestation reev", "addr:country": "DE", "socket:type2": "2", "socket:type2:output": "22.0 kW", "charging_station:output": "22.0 kW", "capacity": "2", "_source": "worldwide"}}, {"type": "node", "id": 8913495680, "lat": 50.133078, "lon": 9.021165, "tags": {"amenity": "charging_station", "fee": "yes", "operator": "Chargemaker2", "name": "Ladestation Chargemaker2", "addr:country": "DE", "socket:cee_blue": "4", "socket:cee_blue:output": "3.7 kW", "charging_station:output": "3.7 kW", "_source": "worldwide"}}, {"type": "node", "id": 12043032310, "lat": 50.133639, "lon": 9.021545, "tags": {"amenity": "charging_station", "fee": "yes", "opening_hours": "24/7", "addr:country": "DE", "capacity": "2", "_source": "worldwide"}}, {"type": "node", "id": 8926621294, "lat": 50.13805, "lon": 9.165183, "tags": {"amenity": "charging_station", "fee": "yes", "addr:country": "DE", "socket:cee_blue": "4", "socket:cee_blue:output": "3.7 kW", "charging_station:output": "3.7 kW", "_source": "worldwide"}}, {"type": "node", "id": 8951559083, "lat": 50.260617, "lon": 9.672095, "tags": {"amenity": "charging_station", "addr:country": "DE", "socket:schuko": "3", "socket:schuko:output": "2.3 kW", "charging_station:output": "2.3 kW", "_source": "worldwide"}}, {"type": "node", "id": 8968308425, "lat": 50.27829, "lon": 9.895573, "tags": {"amenity": "charging_station", "addr:country": "DE", "socket:cee_blue": "4", "socket:cee_blue:output": "3.7 kW", "charging_station:output": "3.7 kW", "capacity": "4", "_source": "worldwide"}}, {"type": "node", "id": 8984237635, "lat": 50.659727, "lon": 9.673779, "tags": {"amenity": "charging_station", "access": "yes", "fee": "yes", "brand": "allego", "operator": "Allego", "name": "Allego - allego", "addr:country": "DE", "capacity": "6", "_source": "worldwide"}}, {"type": "node", "id": 9002159630, "lat": 50.672363, "lon": 9.769787, "tags": {"amenity": "charging_station", "access": "yes", "fee": "yes", "opening_hours": "24/7", "operator": "Stadtwerke Hünfeld", "name": "Ladestation Stadtwerke Hünfeld", "addr:country": "DE", "socket:type2": "2", "socket:type2:output": "22.1 kW", "charging_station:output": "22.1 kW", "capacity": "2", "_source": "worldwide"}}, {"type": "node", "id": 9006940171, "lat": 50.498206, "lon": 9.947289, "tags": {"amenity": "charging_station", "access": "yes", "fee": "yes", "operator": "RhönEnergie Fulda", "name": "Ladestation RhönEnergie Fulda", "addr:country": "DE", "socket:type2": "2", "socket:type2:output": "22 kW", "socket:schuko": "2", "socket:schuko:output": "2.3 kW", "charging_station:output": "22 kW", "capacity": "2", "_source": "worldwide"}}, {"type": "node", "id": 9026722820, "lat": 50.115944, "lon": 9.890833, "tags": {"amenity": "charging_station", "operator": "Stadt Hammelburg", "name": "Ladestation Stadt Hammelburg", "addr:country": "DE", "socket:schuko": "6", "socket:schuko:output": "2.3 kW", "charging_station:output": "2.3 kW", "capacity": "6", "_source": "worldwide"}}, {"type": "node", "id": 9150244273, "lat": 50.388574, "lon": 9.530613, "tags": {"amenity": "charging_station", "operator": "e-on", "name": "Ladestation e-on", "addr:country": "DE", "socket:type2": "1", "socket:type2:output": "22.0 kW", "socket:type2_combo": "1", "socket:type2_combo:output": "50.0 kW", "socket:chademo": "1", "socket:chademo:output": "50.0 kW", "charging_station:output": "50.0 kW", "capacity": "2", "_source": "worldwide"}}, {"type": "node", "id": 10797146626, "lat": 50.387606, "lon": 9.532876, "tags": {"amenity": "charging_station", "brand": "EWE Go", "operator": "EWE Go", "name": "EWE Go - EWE Go", "addr:country": "DE", "socket:type2_combo": "2", "socket:type2_combo:output": "50 kW", "charging_station:output": "50 kW", "capacity": "2", "_source": "worldwide"}}, {"type": "node", "id": 13159429624, "lat": 50.38645, "lon": 9.531228, "tags": {"amenity": "charging_station", "access": "yes", "fee": "yes", "operator": "Shell Recharge", "name": "Shell Recharge - Shell Recharge Solutions", "addr:country": "DE", "_source": "worldwide"}}, {"type": "node", "id": 9159723982, "lat": 50.253131, "lon": 9.291938, "tags": {"amenity": "charging_station", "opening_hours": "Mo-Su 06:00-22:00", "operator": "Aldi", "name": "Ladestation Aldi", "addr:country": "DE", "socket:type2": "2", "socket:type2:output": "22.0 kW", "charging_station:output": "22.0 kW", "capacity": "2", "_source": "worldwide"}}, {"type": "node", "id": 9159993096, "lat": 50.078029, "lon": 9.108961, "tags": {"amenity": "charging_station", "fee": "no", "network": "Wald Erfahren", "operator": "Berggasthof Hahnenkamm", "name": "Berggasthof Hahnenkamm - Wald Erfahren", "addr:country": "DE", "capacity": "4", "_source": "worldwide"}}, {"type": "node", "id": 9165430256, "lat": 50.55304, "lon": 9.717796, "tags": {"amenity": "charging_station", "operator": "ChargeX", "name": "Ladestation ChargeX", "addr:country": "DE", "capacity": "1", "_source": "worldwide"}}, {"type": "node", "id": 13513572632, "lat": 50.551202, "lon": 9.716423, "tags": {"amenity": "charging_station", "addr:country": "DE", "_source": "worldwide"}}, {"type": "node", "id": 9169080092, "lat": 50.16881, "lon": 9.034234, "tags": {"amenity": "charging_station", "fee": "yes", "opening_hours": "24/7", "operator": "EAM", "name": "EAM - EAM GmbH & Co. KG", "addr:country": "DE", "socket:type2": "2", "socket:type2:output": "22 kW", "charging_station:output": "22 kW", "capacity": "2", "_source": "worldwide"}}, {"type": "node", "id": 9169530434, "lat": 50.529589, "lon": 9.690486, "tags": {"amenity": "charging_station", "access": "yes", "fee": "yes", "operator": "EnBW", "name": "EnBW - EnBW Energie Baden-Württemberg AG", "addr:country": "DE", "capacity": "2", "_source": "worldwide"}}, {"type": "node", "id": 9202968449, "lat": 50.542626, "lon": 9.70912, "tags": {"amenity": "charging_station", "operator": "RhönEnergie Fulda", "name": "Ladestation RhönEnergie Fulda", "addr:country": "DE", "capacity": "2", "_source": "worldwide"}}, {"type": "node", "id": 9222977731, "lat": 50.543582, "lon": 9.708477, "tags": {"amenity": "charging_station", "fee": "no", "operator": "Stadt Fulda", "name": "Ladestation Stadt Fulda", "addr:country": "DE", "socket:schuko": "1", "socket:schuko:output": "2.3 kW", "charging_station:output": "2.3 kW", "_source": "worldwide"}}, {"type": "node", "id": 11776420391, "lat": 50.546551, "lon": 9.703326, "tags": {"amenity": "charging_station", "access": "yes", "fee": "yes", "operator": "RheinEnergie", "name": "Ladestation RheinEnergie", "addr:country": "DE", "socket:type2_combo": "2", "socket:type2_combo:output": "50 kW", "charging_station:output": "50 kW", "capacity": "2", "_source": "worldwide"}},