{"id": "43-2", "latMin": 43, "lonMin": 2, "latMax": 44, "lonMax": 3, "generated": "2026-04-16T18:39:07.907Z", "count": 10, "pois": [{"type": "node", "id": 1079203965, "lat": 43.537589, "lon": 2.262089, "tags": {"amenity": "charging_station", "network": "Reveo", "operator": "Bouygues Energies & Services", "name": "Bouygues Energies & Services - Reveo", "addr:country": "FR", "socket:type2": "2", "socket:type2:output": "22 kW", "socket:schuko": "2", "socket:schuko:output": "2.3 kW", "charging_station:output": "22 kW", "capacity": "2", "_source": "worldwide"}}, {"type": "node", "id": 1228215306, "lat": 43.255255, "lon": 2.174292, "tags": {"amenity": "charging_station", "fee": "yes", "network": "Révéo", "operator": "REVEO SYADEN | FR*RVE", "name": "REVEO SYADEN | FR*RVE - Révéo", "addr:country": "FR", "socket:type2": "2", "socket:type2:output": "22 kW", "charging_station:output": "22 kW", "capacity": "2", "_source": "worldwide"}}, {"type": "node", "id": 1235504413, "lat": 43.202539, "lon": 2.318395, "tags": {"amenity": "charging_station", "fee": "yes", "network": "Carcassonne", "opening_hours": "24/7", "operator": "IECharge", "name": "Borne de charge rapide IECharge", "addr:country": "FR", "socket:type2_combo": "4", "socket:type2_combo:output": "50 kW", "charging_station:output": "50 kW", "capacity": "4", "authentication:none": "yes", "_source": "worldwide"}}, {"type": "node", "id": 1250756028, "lat": 43.178302, "lon": 2.543821, "tags": {"amenity": "charging_station", "access": "yes", "fee": "yes", "brand": "Ionity", "network": "Ionity", "opening_hours": "24/7", "operator": "IONITY", "name": "Ionity Corbières Nord", "addr:country": "FR", "socket:type2": "1", "socket:type2:output": "22 kW", "socket:type2_combo": "9", "socket:type2_combo:output": "350.0 kW", "socket:chademo": "1", "socket:chademo:output": "50 kW", "charging_station:output": "350.0 kW", "capacity": "10", "_source": "worldwide"}}, {"type": "node", "id": 1391586446, "lat": 43.957719, "lon": 2.154929, "tags": {"amenity": "charging_station", "access": "yes", "fee": "yes", "brand": "Tesla Supercharger", "opening_hours": "24/7", "operator": "Tesla", "name": "Albi Supercharger", "addr:country": "FR", "socket:type2_combo": "12", "socket:type2_combo:output": "250.0 kW", "charging_station:output": "250.0 kW", "capacity": "12", "_source": "worldwide"}}, {"type": "node", "id": 1417030864, "lat": 43.6928, "lon": 2.424942, "tags": {"amenity": "charging_station", "brand": "Révéo", "operator": "Révéo", "name": "Révéo - Révéo", "addr:country": "FR", "capacity": "3", "_source": "worldwide"}}, {"type": "node", "id": 1417557709, "lat": 43.925156, "lon": 2.147536, "tags": {"amenity": "charging_station", "fee": "yes", "network": "Izivia", "operator": "EDF", "name": "EDF - Izivia", "addr:country": "FR", "socket:type2": "4", "socket:type2:output": "22.0 kW", "socket:type1": "4", "socket:type1:output": "7.2 kW", "charging_station:output": "22.0 kW", "authentication:none": "yes", "_source": "worldwide"}}, {"type": "node", "id": 1434137908, "lat": 43.408875, "lon": 2.081183, "tags": {"amenity": "charging_station", "fee": "no", "brand": "Le plein tarnais", "network": "Révéo", "operator": "SDET (Révéo)", "name": "Borne de recharge des Cammazes", "addr:country": "FR", "socket:type2": "1", "socket:type2:output": "22.0 kW", "socket:type2_combo": "1", "socket:type2_combo:output": "50 kW", "socket:chademo": "1", "socket:chademo:output": "13.0 kW", "charging_station:output": "50 kW", "capacity": "2", "_source": "worldwide"}}, {"type": "node", "id": 1463201548, "lat": 43.161746, "lon": 2.982136, "tags": {"amenity": "charging_station", "access": "yes", "fee": "yes", "brand": "Tesla Supercharger", "opening_hours": "24/7", "operator": "Tesla", "name": "Narbonne Sud Supercharger", "addr:country": "FR", "socket:type2_combo": "20", "socket:type2_combo:output": "250.0 kW", "charging_station:output": "250.0 kW", "capacity": "20", "_source": "worldwide"}}, {"type": "node", "id": 1473844476, "lat": 43.497259, "lon": 2.395028, "tags": {"amenity": "charging_station", "addr:country": "FR", "capacity": "2", "_source": "worldwide"}}]}