{"id": "25-100", "latMin": 25, "lonMin": 100, "latMax": 26, "lonMax": 101, "generated": "2026-04-16T18:39:07.251Z", "count": 7, "pois": [{"type": "node", "id": 7334431902, "lat": 25.680194, "lon": 100.156691, "tags": {"amenity": "charging_station", "fee": "yes", "access": "customers", "name": "电动自行车智能充电站", "_source": "worldwide"}}, {"type": "node", "id": 10044053447, "lat": 25.576567, "lon": 100.225714, "tags": {"amenity": "charging_station", "name": "EV Charging Station", "_source": "worldwide"}}, {"type": "node", "id": 11464713647, "lat": 25.22869, "lon": 100.278674, "tags": {"amenity": "charging_station", "name": "EV Charging Station", "_source": "worldwide"}}, {"type": "node", "id": 11464713648, "lat": 25.229426, "lon": 100.275135, "tags": {"amenity": "charging_station", "name": "EV Charging Station", "_source": "worldwide"}}, {"type": "node", "id": 11539533007, "lat": 25.591826, "lon": 100.897927, "tags": {"amenity": "charging_station", "access": "yes", "brand": "南方电网", "name": "南方电网", "_source": "worldwide"}}, {"type": "node", "id": 12559255981, "lat": 25.60298, "lon": 100.233926, "tags": {"amenity": "charging_station", "brand": "Tesla Supercharger", "operator": "Tesla", "name": "Tesla Supercharger", "_source": "worldwide"}}, {"type": "node", "id": 13321771732, "lat": 25.471642, "lon": 100.552237, "tags": {"amenity": "charging_station", "name": "慧能新能源充电站", "_source": "worldwide"}}]}