{"id": "36-27", "latMin": 36, "lonMin": 27, "latMax": 37, "lonMax": 28, "generated": "2026-04-16T18:39:07.400Z", "count": 2057, "pois": [{"type": "node", "id": 529536355, "lat": 36.2170784, "lon": 27.6160263, "tags": {"amenity": "restaurant", "name": "Taverna Ftenagaia"}}, {"type": "node", "id": 529554728, "lat": 36.2173136, "lon": 27.6157633, "tags": {"amenity": "parking"}}, {"type": "node", "id": 528908846, "lat": 36.2224122, "lon": 27.6042662, "tags": {"amenity": "restaurant", "name": "Taverna Pontamos"}}, {"type": "node", "id": 10648155711, "lat": 36.2228883, "lon": 27.6075524, "tags": {"access": "yes", "addr:city": "Χάλκη", "addr:postcode": "85110", "amenity": "charging_station", "authentication:app": "yes", "brand": "DEI Blue", "capacity": "1", "contact:phone": "+30 2112110900", "contact:website": "https://www.deiblue.gr/", "covered": "no", "fee": "yes", "int_name": "DEI blue - Chalki", "lit": "yes", "manufacturer": "Alfen BV", "motorcar": "yes", "name": "DEI blue - Αμαξοστάσιο Χάλκης", "name:el": "DEI blue - Αμαξοστάσιο Χάλκης", "name:en": "DEI blue - Chalki", "opening_hours": "24/7", "operator": "Δήμος Χάλκης", "payment:app": "yes", "ref:EU:EVSE": "GR*PPC*E0000002095*1", "ref:GR:IDRO": "GR-PPC-Scs32660-L", "socket:type2": "1", "socket:type2:output": "22"}}, {"type": "node", "id": 13267790667, "lat": 36.2229016, "lon": 27.6075959, "tags": {"access": "yes", "addr:city": "Χάλκη", "addr:postcode": "85110", "amenity": "charging_station", "authentication:app": "yes", "brand": "EV Loader", "capacity": "1", "contact:email": "info@parityplatform.com", "contact:phone": "+30 2108053290", "contact:website": "https://evloader.com/", "covered": "no", "fee": "yes", "lit": "yes", "motorcar": "yes", "name": "EV Loader - Αμαξοστάσιο Χάλκης", "network": "EV Loader", "opening_hours": "24/7", "operator": "Δήμος Χάλκης", "parking:fee": "no", "payment:app": "yes", "ref:EU:EVSE": "GR*EMU*E00439", "ref:GR:IDRO": "GR-EMU-S3375865948797039066234797-L", "socket:type2": "1", "socket:type2:output": "11"}}, {"type": "node", "id": 529557037, "lat": 36.2220397, "lon": 27.612168, "tags": {"amenity": "cafe", "internet_access": "wlan", "name": "Theodosia", "smoking": "yes", "wheelchair": "limited"}}, {"type": "node", "id": 529935247, "lat": 36.222202, "lon": 27.6119642, "tags": {"amenity": "restaurant", "name": "Taverne Maria", "phone": "+302246045300"}}, {"type": "node", "id": 529935251, "lat": 36.2212702, "lon": 27.612348, "tags": {"amenity": "restaurant", "cuisine": "greek", "name": "Black Sea"}}, {"type": "node", "id": 530172427, "lat": 36.2221108, "lon": 27.612085, "tags": {"amenity": "atm"}}, {"type": "node", "id": 533986765, "lat": 36.2224509, "lon": 27.6114723, "tags": {"shop": "convenience"}}, {"type": "node", "id": 533986766, "lat": 36.2224567, "lon": 27.6119405, "tags": {"name": "Dimitri's Bakery", "shop": "bakery"}}, {"type": "node", "id": 533986767, "lat": 36.2221389, "lon": 27.6119463, "tags": {"shop": "convenience"}}, {"type": "node", "id": 978901586, "lat": 36.2219024, "lon": 27.6120861, "tags": {"amenity": "cafe", "internet_access": "wlan", "name": "La Piazza"}}, {"type": "node", "id": 978915196, "lat": 36.2217985, "lon": 27.6121129, "tags": {"amenity": "restaurant", "cuisine": "greek", "name": "Remezzo"}}, {"type": "node", "id": 978915200, "lat": 36.2216384, "lon": 27.6121451, "tags": {"amenity": "restaurant", "cuisine": "greek", "name": "Babis"}}, {"type": "node", "id": 2878285012, "lat": 36.223171, "lon": 27.6130327, "tags": {"shop": "convenience"}}, {"type": "node", "id": 2880414477, "lat": 36.223149, "lon": 27.6128635, "tags": {"amenity": "restaurant", "name": "Magefseis"}}, {"type": "node", "id": 5652090163, "lat": 36.2211978, "lon": 27.612394, "tags": {"shop": "convenience"}}, {"type": "node", "id": 5652436236, "lat": 36.2224272, "lon": 27.6121035, "tags": {"historic": "memorial"}}, {"type": "node", "id": 5652436238, "lat": 36.2227187, "lon": 27.6122673, "tags": {"amenity": "restaurant", "name": "Apaggio"}}, {"type": "node", "id": 5652436239, "lat": 36.2223364, "lon": 27.6119417, "tags": {"amenity": "restaurant", "name": "Valantis"}}, {"type": "node", "id": 5652436241, "lat": 36.2225328, "lon": 27.6121415, "tags": {"amenity": "restaurant", "name": "Kifi", "outdoor_seating": "yes", "wheelchair": "limited"}}, {"type": "node", "id": 5652436242, "lat": 36.2230778, "lon": 27.6126966, "tags": {"amenity": "cafe", "name": "Apostolis"}}, {"type": "node", "id": 5653195483, "lat": 36.2225244, "lon": 27.6116992, "tags": {"shop": "convenience"}}, {"type": "node", "id": 5653195484, "lat": 36.2220278, "lon": 27.6123846, "tags": {"historic": "memorial", "memorial": "bust", "name": "Memorial: ΑΛΕΞΑΝΔΡΟΣ ΔΙΑΚΟΣ"}}, {"type": "node", "id": 6475624281, "lat": 36.222838, "lon": 27.6123284, "tags": {"amenity": "cafe"}}, {"type": "node", "id": 6483909408, "lat": 36.2219421, "lon": 27.6119487, "tags": {"amenity": "cafe", "name": "Soula and Zoe's", "wheelchair": "limited"}}, {"type": "node", "id": 9764540959, "lat": 36.2226095, "lon": 27.6121623, "tags": {"shop": "supermarket"}}, {"type": "node", "id": 12988507784, "lat": 36.2197336, "lon": 27.6150611, "tags": {"access": "yes", "addr:city": "Χάλκη", "addr:postcode": "85110", "amenity": "charging_station", "authentication:app": "yes", "brand": "DEI Blue", "capacity": "3", "contact:phone": "+30 2112110900", "contact:website": "https://www.deiblue.gr/", "covered": "no", "fee": "yes", "int_name": "DEI blue - Palaio Karnagio", "lit": "yes", "manufacturer": "Alfen BV", "motorcar": "yes", "name": "DEI blue - Παλαιό Καρνάγιο", "name:el": "DEI blue - Παλαιό Καρνάγιο", "name:en": "DEI blue - Palaio Karnagio", "opening_hours": "24/7", "operator": "Δήμος Χάλκης", "payment:app": "yes", "ref:EU:EVSE": "GR*PPC*EA06211502136*1;GR*PPC*EA06211502136*2;GR*PPC*E0000002047*1", "ref:GR:IDRO": "GR-PPC-Scs32714-L", "socket:type2": "3", "socket:type2:output": "22"}}, {"type": "node", "id": 2878268030, "lat": 36.234237, "lon": 27.6182376, "tags": {"amenity": "cafe", "cuisine": "greek", "name": "Kania"}}, {"type": "node", "id": 5720087324, "lat": 36.2380885, "lon": 27.6690228, "tags": {"name:en": "Edgaria", "name:ru": "Эдгария", "tourism": "camp_site"}}, {"type": "node", "id": 5720192521, "lat": 36.2380784, "lon": 27.6690261, "tags": {"name:en": "Edgarios", "name:ru": "Edgarios", "tourism": "camp_site"}}, {"type": "node", "id": 291336453, "lat": 36.3985305, "lon": 27.3906548, "tags": {"natural": "spring"}}, {"type": "node", "id": 289427016, "lat": 36.4478099, "lon": 27.3053098, "tags": {"amenity": "cafe"}}, {"type": "node", "id": 289427018, "lat": 36.4479933, "lon": 27.3053814, "tags": {"natural": "spring"}}, {"type": "node", "id": 9951560530, "lat": 36.4479295, "lon": 27.3053701, "tags": {"castle_type": "tower", "historic": "castle", "historic:civilization": "byzantine", "image": "https://www.kastra.eu/pics/pantelos3.jpg", "name": "Πύργος Μονής Αγ. Παντελεήμονα Τήλου", "name:el": "Πύργος Μονής Αγ. Παντελεήμονα Τήλου", "name:en": "Tower of St. Panteleimon-Telos", "source": "https://www.kastra.eu/castlegr.php?kastro=pantelos"}}, {"type": "node", "id": 9951560529, "lat": 36.4396958, "lon": 27.3330204, "tags": {"castle_type": "castle", "historic": "castle", "historic:civilization": "byzantine", "image": "https://www.kastra.eu/pics/tilos-paleok2.JPG", "name": "Παλιόκαστρο Τήλου", "name:el": "Παλιόκαστρο Τήλου", "name:en": "Kokkinokastro of Symi", "source": "https://www.kastra.eu/castlegr.php?kastro=tilospaliokstr"}}, {"type": "node", "id": 288935566, "lat": 36.4329797, "lon": 27.3505827, "tags": {"tourism": "camp_site"}}, {"type": "node", "id": 6698999185, "lat": 36.4334168, "lon": 27.3501832, "tags": {"amenity": "fast_food", "name": "Καντίνα του Στέλιου", "name:el": "Καντίνα του Στέλιου", "name:en": "Kantina tou Steliou"}}, {"type": "node", "id": 12988458564, "lat": 36.4334986, "lon": 27.3494956, "tags": {"access": "yes", "addr:city": "Τήλος", "addr:postcode": "85002", "amenity": "charging_station", "authentication:app": "yes", "authentication:membership_card": "yes", "brand": "Joltie", "capacity": "1", "contact:email": "support@joltie.com", "contact:phone": "+30 2152151608", "contact:website": "https://www.joltie.com/", "covered": "no", "fee": "no", "int_name": "Joltie - Eristos", "motorcar": "yes", "name": "Joltie - Έριστος", "name:el": "Joltie - Έριστος", "name:en": "Joltie - Eristos", "note": "Δεν είναι στο μητρώο", "opening_hours": "24/7", "operator": "Δήμος Τήλου", "parking:fee": "no", "payment:app": "yes", "payment:rfid_card": "yes", "socket:type2_cable": "1", "socket:type2_cable:output": "22"}}, {"type": "node", "id": 287379656, "lat": 36.4406957, "lon": 27.3653387, "tags": {"int_name": "Elephant Cave", "name": "Σπήλαιο Ελεφάντων", "natural": "cave_entrance", "tourism": "attraction", "wikidata": "Q106998263"}}, {"type": "node", "id": 7509775067, "lat": 36.4410469, "lon": 27.3660953, "tags": {"building": "ruins", "castle_type": "castle", "historic": "castle", "historic:civilization": "medieval_christianity", "image": "https://www.kastra.eu/pics/mesaria3.jpg", "name": "Κάστρο Μεσσαριάς / Κάστρο Μισαριάς", "name:el": "Κάστρο Μεσσαριάς / Κάστρο Μισαριάς", "name:en": "Missaria Castle", "source": "https://www.kastra.eu/castlegr.php?kastro=mesaria", "start_date": "1366", "wikidata": "Q56450488"}}, {"type": "node", "id": 12980006167, "lat": 36.4531261, "lon": 27.3473596, "tags": {"air_conditioning": "yes", "check_date": "2025-07-07", "fee": "no", "internet_access:fee": "no", "museum": "history", "name": "Archaeological Museum of Tilos", "name:el": "Αρχαιολογικό Μουσείο Τήλου", "opening_hours": "Mo,We-Su 08:30-15:30; Tu off", "phone": "+30 2246 043919", "toilets": "yes", "tourism": "museum", "website": "https://archaeologicalmuseums.gr/el/museum/66446545f79de01b1a7a0a12/diachronic-archaeological-museum-of-tilos", "wheelchair": "yes"}}, {"type": "node", "id": 12988284887, "lat": 36.4506128, "lon": 27.3449373, "tags": {"check_date": "2025-07-08", "name": "Nitsa", "opening_hours": "09:00-16:00,18:00-22:30", "shop": "convenience"}}, {"type": "node", "id": 12988461082, "lat": 36.4533207, "lon": 27.3474477, "tags": {"access": "yes", "addr:city": "Τήλος", "addr:postcode": "85002", "amenity": "charging_station", "authentication:app": "yes", "authentication:membership_card": "yes", "brand": "Joltie", "capacity": "1", "contact:email": "support@joltie.com", "contact:phone": "+30 2152151608", "contact:website": "https://www.joltie.com/", "covered": "no", "fee": "no", "int_name": "Joltie - Archaeological Museum", "motorcar": "yes", "name": "Joltie - Αρχαιολογικό Μουσείο", "name:el": "Joltie - Αρχαιολογικό Μουσείο", "name:en": "Joltie - Archaeological Museum", "note": "Δεν είναι στο μητρώο", "opening_hours": "24/7", "operator": "Δήμος Τήλου", "parking:fee": "no", "payment:app": "yes", "payment:rfid_card": "yes", "socket:type2_cable": "1", "socket:type2_cable:output": "22"}}, {"type": "node", "id": 12988461083, "lat": 36.4542467, "lon": 27.3455246, "tags": {"access": "yes", "addr:city": "Τήλος", "addr:postcode": "85002", "amenity": "charging_station", "authentication:app": "yes", "authentication:membership_card": "yes", "brand": "Joltie", "capacity": "1", "contact:email": "support@joltie.com", "contact:phone": "+30 2152151608", "contact:website": "https://www.joltie.com/", "covered": "no", "fee": "no", "int_name": "Joltie - Town Hall", "motorcar": "yes", "name": "Joltie - Δημαρχείο", "name:el": "Joltie - Δημαρχείο", "name:en": "Joltie - Town Hall", "opening_hours": "24/7", "operator": "Δήμος Τήλου", "parking:fee": "no", "payment:app": "yes", "payment:rfid_card": "yes", "ref:EU:EVSE": "GR*JLT*Ef50e9068-1", "ref:GR:IDRO": "GR-JLT-S195", "socket:type2_cable": "1", "socket:type2_cable:output": "22"}}, {"type": "node", "id": 289425910, "lat": 36.4649733, "lon": 27.3051475, "tags": {"amenity": "parking"}}, {"type": "node", "id": 290175620, "lat": 36.465617, "lon": 27.3043955, "tags": {"tourism": "camp_site"}}, {"type": "node", "id": 7510065440, "lat": 36.4579856, "lon": 27.3314767, "tags": {"amenity": "restaurant", "check_date": "2025-07-06", "contact:facebook": "https://www.facebook.com/profile.php?id=100092559795826&sk=about", "cuisine": "greek", "name": "Ακρογιάλι", "name:el": "Akrogiali Restaurant", "phone": "+30 2246 043910"}}, {"type": "node", "id": 12988461081, "lat": 36.4581693, "lon": 27.3326795, "tags": {"access": "yes", "addr:city": "Τήλος", "addr:place": "Άγιος Αντώνιος", "addr:postcode": "85002", "amenity": "charging_station", "authentication:app": "yes", "authentication:membership_card": "yes", "brand": "Joltie", "capacity": "1", "contact:email": "support@joltie.com", "contact:phone": "+30 2152151608", "contact:website": "https://www.joltie.com/", "covered": "no", "fee": "no", "int_name": "Joltie - Agios Antonios", "motorcar": "yes", "name": "Joltie - Άγιος Αντώνιος", "name:el": "Joltie - Άγιος Αντώνιος", "name:en": "Joltie - Agios Antonios", "note": "Δεν είναι στο μητρώο", "opening_hours": "24/7", "operator": "Δήμος Τήλου", "parking:fee": "no", "payment:app": "yes", "payment:rfid_card": "yes", "socket:type2_cable": "1", "socket:type2_cable:output": "22"}}, {"type": "node", "id": 289424218, "lat": 36.4593892, "lon": 27.3355376, "tags": {"amenity": "cafe"}}, {"type": "node", "id": 290173083, "lat": 36.4595333, "lon": 27.3355903, "tags": {"amenity": "restaurant", "cuisine": "fish;greek", "name": "Delfini", "name:el": "Δελφίνι", "operator": "Αντώνης Καμμάς", "outdoor_seating": "yes", "phone": "+302246044252"}}, {"type": "node", "id": 288935862, "lat": 36.4574995, "lon": 27.3432648, "tags": {"alt_name": "Ακρόπολη", "castle_type": "castle", "historic": "castle", "historic:civilization": "byzantine", "image": "https://www.kastra.eu/pics/megalohortil9.jpg", "name": "Κάστρο Μεγάλου Χωριού", "name:el": "Κάστρο Μεγάλου Χωριού", "name:en": "Castle of Megalo Chorio", "source": "https://www.kastra.eu/castlegr.php?kastro=tilos", "wikidata": "Q56450485"}}, {"type": "node", "id": 290173880, "lat": 36.4551469, "lon": 27.3465134, "tags": {"check_date": "2025-07-05", "payment:credit_cards": "yes", "shop": "supermarket"}}, {"type": "node", "id": 4881510025, "lat": 36.4544767, "lon": 27.3454678, "tags": {"amenity": "restaurant", "check_date": "2025-07-05", "cuisine": "coffee_shop", "name": "Παλιο μερακι", "name:el": "Παλιο μερακι", "name:en": "Palio Meraki", "opening_hours": "09:00-14:00,18:00-01:00", "phone": "+302246044176", "wheelchair": "no"}}, {"type": "node", "id": 12979937736, "lat": 36.4547111, "lon": 27.3460017, "tags": {"amenity": "cafe", "bar": "yes", "check_date": "2025-07-05", "cuisine": "regional", "name": "Plateia Snack Bar", "opening_hours": "Mo-Fr 07:00-15:00; Sa-Su off", "outdoor_seating": "yes", "website": "https://www.tilos.gr/", "wheelchair": "limited"}}, {"type": "node", "id": 288935373, "lat": 36.4704341, "lon": 27.3503326, "tags": {"natural": "spring"}}, {"type": "node", "id": 290177875, "lat": 36.4069831, "lon": 27.3679793, "tags": {"castle_type": "castle", "historic": "castle", "historic:civilization": "byzantine", "image": "https://www.kastra.eu/pics/lampros9.jpg", "name": "Κάστρο του Λάμπρου", "name:el": "Κάστρο του Λάμπρου", "name:en": "Castle of Lambros", "source": "https://www.kastra.eu/castlegr.php?kastro=lambro", "wikidata": "Q108664813"}}, {"type": "node", "id": 291336451, "lat": 36.4025209, "lon": 27.3910249, "tags": {"castle_type": "castle", "historic": "castle", "historic:civilization": "medieval_christianity", "image": "https://www.kastra.eu/pics/agriosykia14.jpg", "name": "Κάστρο Αγριοσυκιάς", "name:el": "Κάστρο Αγριοσυκιάς", "name:en": "Agriosykia Castle", "source": "https://www.kastra.eu/castlegr.php?kastro=agriosykia", "start_date": "15th century", "wikidata": "Q56450605"}}, {"type": "node", "id": 288932627, "lat": 36.4148402, "lon": 27.3865158, "tags": {"amenity": "restaurant", "capacity": "50", "changing_table": "yes", "cuisine": "greek", "indoor_seating": "yes", "name": "Kritikos", "outdoor_seating": "yes", "smoking": "outside", "takeaway": "no"}}, {"type": "node", "id": 288934094, "lat": 36.4149092, "lon": 27.3856318, "tags": {"name": "Yannis", "shop": "supermarket"}}, {"type": "node", "id": 289426407, "lat": 36.4136107, "lon": 27.387357, "tags": {"amenity": "restaurant", "capacity": "50", "cuisine": "regional;pizza", "name": "Oasis", "opening_hours": "actual closed (2018)", "outdoor_seating": "yes", "smoking": "outside", "takeaway": "yes"}}, {"type": "node", "id": 290172753, "lat": 36.4149852, "lon": 27.3858807, "tags": {"amenity": "restaurant", "capacity": "100", "cuisine": "greek;grill;seafood", "name": "Michalis", "smoking": "outside"}}, {"type": "node", "id": 290175552, "lat": 36.4149072, "lon": 27.3850974, "tags": {"name": "Olympus", "tourism": "hotel"}}, {"type": "node", "id": 643807526, "lat": 36.413155, "lon": 27.3855186, "tags": {"name": "Irini", "tourism": "hotel"}}, {"type": "node", "id": 2518312272, "lat": 36.4146645, "lon": 27.386532, "tags": {"name": "Information Centre", "tourism": "information"}}, {"type": "node", "id": 289426409, "lat": 36.4126368, "lon": 27.388387, "tags": {"amenity": "restaurant", "capacity": "30", "cuisine": "greek;grill", "name": "Dream", "smoking": "outside"}}, {"type": "node", "id": 289426411, "lat": 36.412768, "lon": 27.3882239, "tags": {"amenity": "restaurant", "capacity": "50", "cuisine": "greek", "name": "Armenon", "smoking": "outside"}}, {"type": "node", "id": 462112789, "lat": 36.4125331, "lon": 27.3885758, "tags": {"amenity": "restaurant", "capacity": "50", "cuisine": "greek;seafood", "name": "Nautilos", "smoking": "outside"}}, {"type": "node", "id": 2923694616, "lat": 36.4124775, "lon": 27.3886854, "tags": {"name": "Nautilos Rooms", "tourism": "hotel", "wifi": "free"}}, {"type": "node", "id": 4923608822, "lat": 36.4107601, "lon": 27.391725, "tags": {"name": "Levadia Beach", "tourism": "hotel"}}, {"type": "node", "id": 4958426221, "lat": 36.410693, "lon": 27.3918789, "tags": {"email": "info@tilosisland.com", "name": "Deam Island", "phone": "+306976686080", "tourism": "hotel", "website": "https://tilosisland.com"}}, {"type": "node", "id": 5062128813, "lat": 36.4114295, "lon": 27.3904426, "tags": {"internet_access": "yes", "name": "Eleni Beach", "stars": "3", "tourism": "hotel"}}, {"type": "node", "id": 5722066962, "lat": 36.412226, "lon": 27.3890852, "tags": {"amenity": "restaurant", "cuisine": "crepe;ice_cream;waffle", "name": "Sweet Corner"}}, {"type": "node", "id": 290171808, "lat": 36.4221775, "lon": 27.3714964, "tags": {"amenity": "parking"}}, {"type": "node", "id": 5665668731, "lat": 36.42249, "lon": 27.370786, "tags": {"historic": "ruins", "name": "Μικρό Χωριό", "name:el": "Μικρό Χωριό", "name:en": "Mikro Horio", "tourism": "attraction"}}, {"type": "node", "id": 8947031014, "lat": 36.4217248, "lon": 27.3722021, "tags": {"name": "Micro Horio", "tourism": "viewpoint"}}, {"type": "node", "id": 9951560528, "lat": 36.4236517, "lon": 27.3706983, "tags": {"castle_type": "fortification", "historic": "castle", "historic:civilization": "medieval_christianity", "image": "https://www.kastra.eu/pics/tilos-mikro5.jpg", "name": "Κάστρο Μικρού Χωριού Τήλου", "name:el": "Κάστρο Μικρού Χωριού Τήλου", "name:en": "Castle of Mikro Chorio of Telos", "source": "https://www.kastra.eu/castlegr.php?kastro=mikrotelos"}}, {"type": "node", "id": 289424129, "lat": 36.4152994, "lon": 27.3853847, "tags": {"amenity": "restaurant", "cuisine": "kebab", "name": "Kiriakos- souvlaki"}}, {"type": "node", "id": 289424148, "lat": 36.4151234, "lon": 27.3854859, "tags": {"name": "Elephant Supermarket", "shop": "supermarket"}}, {"type": "node", "id": 289424789, "lat": 36.416443, "lon": 27.3851407, "tags": {"amenity": "bank", "atm": "yes", "operator": "Dodekanissos"}}, {"type": "node", "id": 290172196, "lat": 36.4188248, "lon": 27.38648, "tags": {"name": "Ildi Rock", "tourism": "hotel"}}, {"type": "node", "id": 290172257, "lat": 36.4171474, "lon": 27.3854138, "tags": {"name": "Blue Sky", "tourism": "hotel"}}, {"type": "node", "id": 290172738, "lat": 36.4182538, "lon": 27.3853375, "tags": {"name": "Anna Studios", "tourism": "hotel"}}, {"type": "node", "id": 290172748, "lat": 36.4160696, "lon": 27.3858034, "tags": {"name": "Elenih", "shop": "supermarket"}}, {"type": "node", "id": 290175702, "lat": 36.4155045, "lon": 27.3862219, "tags": {"name": "Parascevi", "tourism": "guest_house"}}, {"type": "node", "id": 291336931, "lat": 36.4151717, "lon": 27.3825333, "tags": {"name": "Sevas Studios", "tourism": "guest_house"}}, {"type": "node", "id": 506091179, "lat": 36.4157344, "lon": 27.3851306, "tags": {"amenity": "cafe", "name": "Georgios Kafenion"}}, {"type": "node", "id": 506455908, "lat": 36.4159632, "lon": 27.3854592, "tags": {"amenity": "restaurant", "name": "Omonia"}}, {"type": "node", "id": 683754375, "lat": 36.4157104, "lon": 27.3860743, "tags": {"name": "Spiros", "tourism": "guest_house"}}, {"type": "node", "id": 2517618110, "lat": 36.4163924, "lon": 27.3851273, "tags": {"amenity": "atm"}}, {"type": "node", "id": 2517618113, "lat": 36.4158969, "lon": 27.3853877, "tags": {"amenity": "pharmacy", "healthcare": "pharmacy"}}, {"type": "node", "id": 2517642104, "lat": 36.4172709, "lon": 27.3856217, "tags": {"amenity": "cafe", "internet_access": "wlan", "name": "Rementzo", "outdoor_seating": "yes"}}, {"type": "node", "id": 2518305550, "lat": 36.416633, "lon": 27.3853304, "tags": {"name": "STEFANAKIS", "shop": "supermarket"}}, {"type": "node", "id": 2518305863, "lat": 36.4153509, "lon": 27.3852017, "tags": {"name": "BAKERY - FOYRNOS", "shop": "bakery"}}, {"type": "node", "id": 4881510023, "lat": 36.4157484, "lon": 27.3844497, "tags": {"amenity": "restaurant", "cuisine": "greek;seafood", "name": "Trata", "outdoor_seating": "yes", "smoking": "outside"}}, {"type": "node", "id": 4881510024, "lat": 36.4159578, "lon": 27.3854577, "tags": {"amenity": "restaurant", "cuisine": "fish;greek;mediterranean", "int_name": "Nikos", "internet_access": "wlan", "name": "ο ΝΙΚΟΣ", "phone": "+302246044148"}}, {"type": "node", "id": 6582149372, "lat": 36.4159355, "lon": 27.3857472, "tags": {"amenity": "restaurant", "check_date": "2025-07-08", "name": "Gorgona", "wheelchair": "no"}}, {"type": "node", "id": 12993673701, "lat": 36.4171362, "lon": 27.384605, "tags": {"name": "Michalis studios", "tourism": "hotel"}}, {"type": "node", "id": 9951560526, "lat": 36.4044616, "lon": 27.4021714, "tags": {"castle_type": "castle", "historic": "castle", "historic:civilization": "byzantine", "image": "https://www.kastra.eu/pics/faneromen-tilos1.JPG", "name": "Κάστρο Φανερωμένης", "name:el": "Κάστρο Φανερωμένης", "name:en": "Castle of Faneromeni", "source": "https://www.kastra.eu/castlegr.php?kastro=faneromentilo", "wikidata": "Q116150527"}}, {"type": "node", "id": 288937791, "lat": 36.4133637, "lon": 27.4027202, "tags": {"amenity": "restaurant", "name": "Faros"}}, {"type": "node", "id": 408346829, "lat": 36.4107505, "lon": 27.4009563, "tags": {"name": "Marina Beach", "tourism": "hotel"}}, {"type": "node", "id": 462110961, "lat": 36.4132299, "lon": 27.4027184, "tags": {"name": "Faros", "tourism": "hotel"}}, {"type": "node", "id": 291336719, "lat": 36.4043665, "lon": 27.412553, "tags": {"natural": "spring"}}, {"type": "node", "id": 289424988, "lat": 36.4127872, "lon": 27.4109483, "tags": {"natural": "spring"}}, {"type": "node", "id": 287379672, "lat": 36.4309131, "lon": 27.3752543, "tags": {"amenity": "fuel", "operator": "ARGO"}}, {"type": "node", "id": 289423558, "lat": 36.4302746, "lon": 27.3808192, "tags": {"natural": "spring"}}, {"type": "node", "id": 290170902, "lat": 36.4309165, "lon": 27.3752538, "tags": {"amenity": "fuel", "operator": "ARGO", "phone": "+302246044022"}}, {"type": "node", "id": 4796551465, "lat": 36.0450202, "lon": 27.7619565, "tags": {"amenity": "restaurant", "cuisine": "regional", "name": "Chrisama"}}, {"type": "node", "id": 11204194839, "lat": 36.0584133, "lon": 27.7621467, "tags": {"amenity": "drinking_water"}}, {"type": "node", "id": 1375272150, "lat": 36.0675707, "lon": 27.7861201, "tags": {"amenity": "restaurant", "cuisine": "greek", "name": "Perouli's"}}, {"type": "node", "id": 1375272160, "lat": 36.0635948, "lon": 27.78673, "tags": {"addr:city": "Apolakia", "amenity": "fuel", "brand": "BP", "brand:wikidata": "Q152057", "fuel:diesel": "yes", "fuel:octane_95": "yes", "name": "BP", "operator": "BP"}}, {"type": "node", "id": 6620977317, "lat": 36.0847742, "lon": 27.7688326, "tags": {"tourism": "viewpoint"}}, {"type": "node", "id": 11204194638, "lat": 36.0846763, "lon": 27.7688999, "tags": {"tourism": "picnic_site"}}, {"type": "node", "id": 11204194837, "lat": 36.0845864, "lon": 27.7692586, "tags": {"amenity": "drinking_water"}}, {"type": "node", "id": 11204194838, "lat": 36.0843342, "lon": 27.7687638, "tags": {"description": "Place for tents and campervan", "tourism": "camp_site"}}, {"type": "node", "id": 11204194937, "lat": 36.0845183, "lon": 27.7688167, "tags": {"description": "Amazing views to the sea front, and Akramitis mountain on the right", "tourism": "viewpoint"}}, {"type": "node", "id": 1786417229, "lat": 36.028329, "lon": 27.8107383, "tags": {"tourism": "viewpoint"}}, {"type": "node", "id": 3553502217, "lat": 36.0116074, "lon": 27.8198783, "tags": {"information": "map", "tourism": "information"}}, {"type": "node", "id": 3553502230, "lat": 36.0115793, "lon": 27.8197104, "tags": {"amenity": "drinking_water", "ele": "310"}}, {"type": "node", "id": 3553502236, "lat": 36.0112462, "lon": 27.820359, "tags": {"amenity": "restaurant"}}, {"type": "node", "id": 3553948003, "lat": 36.0594004, "lon": 27.8134059, "tags": {"amenity": "restaurant"}}, {"type": "node", "id": 3553948214, "lat": 36.0596225, "lon": 27.813264, "tags": {"information": "map", "tourism": "information"}}, {"type": "node", "id": 1786417231, "lat": 36.0352759, "lon": 27.8154175, "tags": {"tourism": "viewpoint"}}, {"type": "node", "id": 9950054238, "lat": 36.0605758, "lon": 27.8376667, "tags": {"castle_type": "castle", "historic": "castle", "historic:civilization": "byzantine", "image": "https://www.kastra.eu/pics/erimokastro2.JPG", "name": "Ερημόκαστρο", "name:el": "Ερημόκαστρο", "name:en": "Erimokastro", "source": "https://www.kastra.eu/castlegr.php?kastro=erimokastro"}}, {"type": "node", "id": 1375272213, "lat": 36.0669546, "lon": 27.7875335, "tags": {"amenity": "restaurant", "cuisine": "greek"}}, {"type": "node", "id": 3553743830, "lat": 36.0665989, "lon": 27.7877841, "tags": {"addr:city": "Απολακκιά", "shop": "convenience"}}, {"type": "node", "id": 3553743835, "lat": 36.0668478, "lon": 27.7877995, "tags": {"information": "map", "tourism": "information"}}, {"type": "node", "id": 3553743839, "lat": 36.0667315, "lon": 27.7880343, "tags": {"addr:city": "Απολακκιά", "amenity": "restaurant", "cuisine": "regional", "name": "Restaurant Manolis"}}, {"type": "node", "id": 3553743840, "lat": 36.0670335, "lon": 27.7880574, "tags": {"amenity": "restaurant", "cuisine": "regional", "internet_access": "wlan", "name": "Taverna Amalia"}}, {"type": "node", "id": 3553743841, "lat": 36.0669112, "lon": 27.7877615, "tags": {"historic": "memorial"}}, {"type": "node", "id": 3553743843, "lat": 36.066817, "lon": 27.7881467, "tags": {"shop": "convenience"}}, {"type": "node", "id": 9950054239, "lat": 36.0661434, "lon": 27.7908528, "tags": {"castle_type": "castle", "historic": "castle", "historic:civilization": "medieval", "image": "https://www.kastra.eu/pics/apolakia2.jpg", "name": "Κάστρο Απολακκιάς", "name:el": "Κάστρο Απολακκιάς", "name:en": "Castle of Apolakkia", "source": "https://www.kastra.eu/castlegr.php?kastro=apolakia", "wikidata": "Q108751968"}}, {"type": "node", "id": 12158096286, "lat": 36.0670601, "lon": 27.7880802, "tags": {"check_date": "2024-07-13", "name": "Amalia Hotel", "tourism": "hotel"}}, {"type": "node", "id": 3554160624, "lat": 36.0619206, "lon": 27.8139518, "tags": {"amenity": "restaurant", "cuisine": "regional", "name": "Taverna", "outdoor": "yes"}}, {"type": "node", "id": 3554160625, "lat": 36.061712, "lon": 27.8138002, "tags": {"information": "map", "tourism": "information"}}, {"type": "node", "id": 3554160626, "lat": 36.0616603, "lon": 27.8138301, "tags": {"information": "office", "tourism": "information"}}, {"type": "node", "id": 3554160633, "lat": 36.0620852, "lon": 27.813634, "tags": {"amenity": "drinking_water", "flickr": "https://farm1.staticflickr.com/731/32269230220_21b5ec410b_m.jpg"}}, {"type": "node", "id": 1377297404, "lat": 36.0607178, "lon": 27.8846874, "tags": {"amenity": "restaurant", "cuisine": "greek", "name": "Taverna Pelecanos"}}, {"type": "node", "id": 1975745989, "lat": 36.0588968, "lon": 27.8881456, "tags": {"historic": "memorial"}}, {"type": "node", "id": 8963662451, "lat": 36.0041472, "lon": 27.9133754, "tags": {"amenity": "fuel", "brand": "BP", "brand:wikidata": "Q152057", "name": "BP", "operator": "ΛΥΡΙΣΤΗΣ ΔΗΜ. + ΣΙΑ Ο.Ε."}}, {"type": "node", "id": 2708948770, "lat": 36.0143718, "lon": 27.9229623, "tags": {"tourism": "guest_house"}}, {"type": "node", "id": 6624552886, "lat": 36.011693, "lon": 27.9202971, "tags": {"amenity": "restaurant", "level": "0", "name": "Φiloxenia"}}, {"type": "node", "id": 6624552887, "lat": 36.0115948, "lon": 27.9201897, "tags": {"amenity": "restaurant", "cuisine": "fine_dining", "level": "2", "name": "Εδesma"}}, {"type": "node", "id": 6624552888, "lat": 36.0118214, "lon": 27.9200309, "tags": {"amenity": "restaurant", "cuisine": "steak_house", "level": "0", "name": "στΚ"}}, {"type": "node", "id": 6624552889, "lat": 36.0119253, "lon": 27.9200916, "tags": {"amenity": "restaurant", "cuisine": "snacks", "name": "Ten2One"}}, {"type": "node", "id": 6624552890, "lat": 36.0116099, "lon": 27.921077, "tags": {"amenity": "restaurant", "cuisine": "greek", "name": "Οuζo"}}, {"type": "node", "id": 6624552892, "lat": 36.0115495, "lon": 27.9201967, "tags": {"amenity": "restaurant", "cuisine": "breakfast", "name": "Level 2 Exclusive Breakfast Restaurant"}}, {"type": "node", "id": 11473146509, "lat": 36.0114467, "lon": 27.9196598, "tags": {"addr:city": "Gennadi", "name": "Gennadi Grand Resort", "tourism": "hotel"}}, {"type": "node", "id": 2462964013, "lat": 36.0218453, "lon": 27.922977, "tags": {"amenity": "parking", "parking": "surface"}}, {"type": "node", "id": 4479819506, "lat": 36.0214484, "lon": 27.9193585, "tags": {"description": "Holiday rental", "internet_access": "yes", "name": "Villa Aglaia", "operator": "Alan & Suzi Clayton", "rooms": "0", "smoking": "outside", "tourism": "guest_house"}}, {"type": "node", "id": 5908169410, "lat": 36.0155487, "lon": 27.9240875, "tags": {"addr:street": "Gennadi Village, Rhodes, South Rhodes, 85109 Greece", "name": "Eco Beach And Magic Garden", "phone": "+302244043357", "tourism": "hotel", "website": "https://m.facebook.com/magicgardenrhodes/"}}, {"type": "node", "id": 6588519521, "lat": 36.0208017, "lon": 27.9230224, "tags": {"internet_access": "wlan", "internet_access:fee": "no", "name": "Gennadi Gardens Apartments", "stars": "3", "tourism": "hotel", "wheelchair": "limited"}}, {"type": "node", "id": 6604959796, "lat": 36.0207417, "lon": 27.9225038, "tags": {"name": "Notos Hotel", "tourism": "hotel"}}, {"type": "node", "id": 6612816400, "lat": 36.0216777, "lon": 27.92454, "tags": {"amenity": "restaurant", "cuisine": "greek;american;barbecue", "name": "Lime Grill", "takeaway": "yes", "wheelchair": "no"}}, {"type": "node", "id": 9091072117, "lat": 36.0185388, "lon": 27.9247195, "tags": {"name": "Ledras Beach Hotel", "name:en": "Ledras Beach Hotel", "tourism": "hotel"}}, {"type": "node", "id": 11298693371, "lat": 36.0206528, "lon": 27.9226457, "tags": {"addr:city": "Γεννάδι", "name": "Golden Sunrise", "tourism": "hotel"}}, {"type": "node", "id": 2462963967, "lat": 36.0211557, "lon": 27.9252282, "tags": {"amenity": "pharmacy", "healthcare": "pharmacy"}}, {"type": "node", "id": 5081015921, "lat": 36.0211173, "lon": 27.9251738, "tags": {"amenity": "atm", "currency:EUR": "yes", "drive_through": "no", "opening_hours": "24/7", "wheelchair": "limited"}}, {"type": "node", "id": 5085108654, "lat": 36.0208558, "lon": 27.9293048, "tags": {"addr:city": "Gennadi", "amenity": "restaurant", "cuisine": "regional", "name": "Thalassa", "opening_hours": "09:00-01:00", "outdoor_seating": "yes", "phone": "+30 698 108 9551", "takeaway": "yes", "wheelchair": "yes"}}, {"type": "node", "id": 5085121045, "lat": 36.0195852, "lon": 27.9286166, "tags": {"addr:city": "Gennadi", "amenity": "restaurant", "cuisine": "regional", "name": "Αντώνης | Ψαροταβέρνα", "name:el": "Αντώνης | Ψαροταβέρνα", "name:en": "Antonis | Fish Taverna", "opening_hours": "08:00-24:00", "outdoor_seating": "yes", "phone": "+30 2244 043124", "takeaway": "yes", "wheelchair": "yes"}}, {"type": "node", "id": 6592057412, "lat": 36.0212322, "lon": 27.9250498, "tags": {"amenity": "atm", "check_date": "2024-06-12", "opening_hours": "24/7", "wheelchair": "limited"}}, {"type": "node", "id": 6592057419, "lat": 36.0196304, "lon": 27.9281117, "tags": {"name": "Gennadi Beach Apartments", "tourism": "hotel", "wheelchair": "limited"}}, {"type": "node", "id": 8963662928, "lat": 36.0207763, "lon": 27.9249724, "tags": {"amenity": "atm"}}, {"type": "node", "id": 9126025001, "lat": 36.0197128, "lon": 27.9281382, "tags": {"amenity": "restaurant", "name": "Blue Waves"}}, {"type": "node", "id": 9126058275, "lat": 36.0199647, "lon": 27.9289175, "tags": {"amenity": "restaurant", "name": "Klimis Taverna", "wheelchair": "yes"}}, {"type": "node", "id": 1859880624, "lat": 36.0222249, "lon": 27.9229182, "tags": {"shop": "bakery"}}, {"type": "node", "id": 1859880626, "lat": 36.0223324, "lon": 27.9229848, "tags": {"shop": "supermarket"}}, {"type": "node", "id": 3701423811, "lat": 36.0234812, "lon": 27.9230789, "tags": {"amenity": "fast_food", "cuisine": "donut;ice_cream", "name": "Sweetheart", "opening_hours": "7:30-22:30", "phone": "22440445856941437578", "shop": "supermarket", "takeaway": "yes", "wheelchair": "limited"}}, {"type": "node", "id": 4331298792, "lat": 36.0237339, "lon": 27.9229684, "tags": {"amenity": "restaurant", "name": "Maria & Nikos Souvlaki Place"}}, {"type": "node", "id": 4479819505, "lat": 36.0222541, "lon": 27.9234649, "tags": {"amenity": "atm", "currency:EUR": "yes", "name": "ATM", "opening_hours": "24/7", "wheelchair": "yes"}}, {"type": "node", "id": 4479819507, "lat": 36.0228037, "lon": 27.9229849, "tags": {"amenity": "restaurant", "cuisine": "Regional,_pizza", "name": "Mama's Kitchen", "takeaway": "yes"}}, {"type": "node", "id": 4479819508, "lat": 36.0223454, "lon": 27.9235709, "tags": {"amenity": "restaurant", "cuisine": "regional;pizza", "name": "Sergio's", "takeaway": "only"}}, {"type": "node", "id": 6605746766, "lat": 36.0229575, "lon": 27.9231675, "tags": {"amenity": "restaurant", "name": "Μπυρασμοσ - Grill House \"Temptation\""}}, {"type": "node", "id": 6605746782, "lat": 36.0235821, "lon": 27.9230844, "tags": {"amenity": "restaurant", "description": "Yes, it is not \"7 dwarves\"", "name": "7 Dwarfs", "outdoor_seating": "yes"}}, {"type": "node", "id": 6605795503, "lat": 36.0232794, "lon": 27.9238291, "tags": {"amenity": "parking"}}, {"type": "node", "id": 6605795507, "lat": 36.0233073, "lon": 27.9230997, "tags": {"amenity": "restaurant", "name": "Zorbas"}}, {"type": "node", "id": 6611656065, "lat": 36.0249683, "lon": 27.9215403, "tags": {"natural": "spring"}}, {"type": "node", "id": 6611656076, "lat": 36.0245749, "lon": 27.9221393, "tags": {"name": "Olive Press", "tourism": "museum"}}, {"type": "node", "id": 6611656077, "lat": 36.0231522, "lon": 27.9227876, "tags": {"amenity": "parking"}}, {"type": "node", "id": 9124024917, "lat": 36.024572, "lon": 27.9225321, "tags": {"name": "Rhodes Summer House", "tourism": "guest_house"}}, {"type": "node", "id": 9129371814, "lat": 36.0243352, "lon": 27.9223099, "tags": {"amenity": "parking"}}, {"type": "node", "id": 9129768670, "lat": 36.0244406, "lon": 27.921579, "tags": {"amenity": "parking"}}, {"type": "node", "id": 9811332274, "lat": 36.0236295, "lon": 27.9232115, "tags": {"amenity": "fuel", "brand": "EKO", "brand:wikidata": "Q31283948", "name": "EKO", "operator": "ΧΑΤΖΗΛΑΖΑΡΟΥ Π. &ΥΙΟΙ"}}, {"type": "node", "id": 2462963812, "lat": 36.0240818, "lon": 27.9249703, "tags": {"email": "info@panoramahotel-rhodes.com", "internet_access": "wlan", "name": "Panorama Gennadi", "phone": "+30-22440-29309", "stars": "2", "tourism": "hotel", "website": "https://www.panoramahotel-rhodes.com/"}}, {"type": "node", "id": 3701424077, "lat": 36.0239068, "lon": 27.9254223, "tags": {"name": "Summer Breeze", "opening_hours": "24/7", "phone": "+302244043543", "tourism": "hotel", "website": "http://www.summerbreezehotel.gr"}}, {"type": "node", "id": 6612816393, "lat": 36.0223008, "lon": 27.9293766, "tags": {"name": "Ampelia Seaside Resort", "tourism": "hotel", "wheelchair": "limited"}}, {"type": "node", "id": 2357606163, "lat": 36.030973, "lon": 27.9314457, "tags": {"amenity": "fuel", "brand": "BP", "brand:wikidata": "Q152057", "brand:wikipedia": "en:BP", "fuel:octane_95": "yes", "fuel:octane_98": "yes", "name": "BP", "operator": "ΛΥΡΙΣΤΗΣ ΔΗΜ Κ ΣΙΑ Ο.Ε"}}, {"type": "node", "id": 5780122253, "lat": 36.0338569, "lon": 27.9370855, "tags": {"alt_name": "Atlantica Dreams", "name": "TUI Sensatori - Atlantica Dreams Resort & Spa", "name:en": "Atlantica Sensatori", "tourism": "hotel"}}, {"type": "node", "id": 12988578708, "lat": 36.0339989, "lon": 27.9363061, "tags": {"access": "yes", "addr:city": "Ρόδος", "addr:place": "Γεννάδι", "addr:postcode": "85109", "amenity": "charging_station", "authentication:app": "yes", "authentication:membership_card": "yes", "brand": "Chargespot", "capacity": "6", "contact:phone": "18311", "contact:website": "https://www.chargespot.gr/", "covered": "no", "fee": "yes", "lit": "yes", "manufacturer": "Chago", "motorcar": "yes", "name": "Chargespot - Atlantica Dreams Resort", "opening_hours": "24/7", "operator": "Atlantica Dreams Resort", "parking:fee": "no", "payment:app": "yes", "ref:EU:EVSE": "GR*WAV*E63541;GR*WAV*E63542;GR*WAV*E57781;GR*WAV*E57782;GR*WAV*E92311;GR*WAV*E92312", "ref:GR:IDRO": "GR-WAV-S30", "socket:type2": "6", "socket:type2:output": "22"}}, {"type": "node", "id": 8364044591, "lat": 36.05367, "lon": 27.9080938, "tags": {"natural": "spring"}}, {"type": "node", "id": 6612816395, "lat": 36.0357071, "lon": 27.9375058, "tags": {"amenity": "parking"}}, {"type": "node", "id": 2364155114, "lat": 36.0378302, "lon": 27.9383986, "tags": {"amenity": "restaurant", "int_name": "Angelaki Taverna", "name": "ταβέρνα του Αγγελάκη", "name:el": "ταβέρνα του Αγγελάκη"}}, {"type": "node", "id": 1260638417, "lat": 36.072806, "lon": 27.9304108, "tags": {"amenity": "restaurant"}}, {"type": "node", "id": 1260638419, "lat": 36.0718905, "lon": 27.930217, "tags": {"amenity": "parking", "parking": "surface"}}, {"type": "node", "id": 3658336001, "lat": 36.07173, "lon": 27.9299099, "tags": {"tourism": "museum"}}, {"type": "node", "id": 3658354436, "lat": 36.0716764, "lon": 27.9307436, "tags": {"amenity": "restaurant", "cuisine": "greek", "name": "Taverna", "name:el": "Restaurant Taverna Agapitos"}}, {"type": "node", "id": 3658354437, "lat": 36.0723871, "lon": 27.9305097, "tags": {"amenity": "restaurant", "check_date": "2024-10-11", "cuisine": "greek", "name": "Nikolas Taverna", "wheelchair": "no"}}, {"type": "node", "id": 457162795, "lat": 36.0713559, "lon": 27.9320946, "tags": {"tourism": "museum"}}, {"type": "node", "id": 1354236354, "lat": 36.073394, "lon": 27.9328479, "tags": {"alt_name": "Asklepio Castle", "castle_type": "castle", "historic": "castle", "historic:civilization": "medieval", "image": "https://www.kastra.eu/pics/asklip2.JPG", "name": "Κάστρο Ασκληπιειού", "name:de": "Festung von Asklipeio", "name:el": "Κάστρο Ασκληπιειού", "name:en": "Castle Of Asklipeiou;Βίγλα Πρασονησίου", "source": "https://www.kastra.eu/castlegr.php?kastro=asklipio", "tourism": "attraction"}}, {"type": "node", "id": 1354562071, "lat": 36.0729519, "lon": 27.9329223, "tags": {"amenity": "parking"}}, {"type": "node", "id": 9090930218, "lat": 36.073643, "lon": 27.9339274, "tags": {"name:en": "Castle view", "tourism": "viewpoint"}}, {"type": "node", "id": 1260633659, "lat": 36.047756, "lon": 27.9494786, "tags": {"int_name": "Sofos Supermarket", "name": "Σοφός Μάρκετ", "shop": "supermarket"}}, {"type": "node", "id": 5728022322, "lat": 36.0420825, "lon": 27.9477482, "tags": {"amenity": "restaurant", "name:de": "Leuchtturm Restaurant Kiotari", "name:en": "The Lighthouse Kiotari"}}, {"type": "node", "id": 1260633843, "lat": 36.0456595, "lon": 27.9536568, "tags": {"amenity": "restaurant", "int_name": "Paralia", "name": "Παραλία"}}, {"type": "node", "id": 1354097595, "lat": 36.0464439, "lon": 27.955306, "tags": {"amenity": "restaurant", "name": "Stefano"}}, {"type": "node", "id": 1354097596, "lat": 36.0463384, "lon": 27.955004, "tags": {"amenity": "restaurant", "name": "La Strada"}}, {"type": "node", "id": 12186706599, "lat": 36.0483377, "lon": 27.9513501, "tags": {"amenity": "restaurant", "outdoor_seating": "yes"}}, {"type": "node", "id": 1342070686, "lat": 36.0544181, "lon": 27.9705847, "tags": {"amenity": "pharmacy", "check_date": "2025-10-21", "dispensing": "yes", "healthcare": "pharmacy", "name": "Pharmacy Alexandros Nikolaidis", "wheelchair": "limited"}}, {"type": "node", "id": 2462134004, "lat": 36.0502202, "lon": 27.9692194, "tags": {"tourism": "viewpoint"}}, {"type": "node", "id": 2713580557, "lat": 36.0530601, "lon": 27.9688976, "tags": {"artwork_type": "sculpture", "tourism": "artwork"}}, {"type": "node", "id": 2940847156, "lat": 36.0511985, "lon": 27.9684447, "tags": {"amenity": "restaurant", "check_date": "2025-10-12", "cuisine": "greek", "name": "Dionysos"}}, {"type": "node", "id": 2940849893, "lat": 36.0510597, "lon": 27.9683748, "tags": {"amenity": "cafe", "check_date": "2025-10-13", "name": "Venus"}}, {"type": "node", "id": 2940849894, "lat": 36.0495352, "lon": 27.9685464, "tags": {"amenity": "cafe", "check_date": "2025-10-12", "cuisine": "pizza", "name": "Diogenis Beach Snack Restaurant"}}, {"type": "node", "id": 2942297753, "lat": 36.0530224, "lon": 27.9691098, "tags": {"amenity": "fast_food", "cuisine": "pizza", "name": "TAZ GRILL Kiotari"}}, {"type": "node", "id": 4316782689, "lat": 36.0493889, "lon": 27.9689574, "tags": {"tourism": "viewpoint"}}, {"type": "node", "id": 8944845726, "lat": 36.0527999, "lon": 27.9687486, "tags": {"amenity": "pharmacy", "healthcare": "pharmacy"}}, {"type": "node", "id": 11017989986, "lat": 36.0528517, "lon": 27.9689659, "tags": {"denotation": "water sports, souvenirs, tabacco, alcohol", "shop": "supermarket"}}, {"type": "node", "id": 1353951148, "lat": 36.0543428, "lon": 27.9708389, "tags": {"amenity": "atm", "cash_in": "no", "check_date": "2025-10-21", "operator": "Winbank"}}, {"type": "node", "id": 1267524122, "lat": 36.054743, "lon": 27.9712545, "tags": {"shop": "supermarket", "wheelchair": "limited"}}, {"type": "node", "id": 1353919655, "lat": 36.0551196, "lon": 27.9747641, "tags": {"amenity": "restaurant", "cuisine": "regional", "name": "Mourella"}}, {"type": "node", "id": 1353973792, "lat": 36.055351, "lon": 27.9746049, "tags": {"name": "Kardamis", "shop": "supermarket"}}, {"type": "node", "id": 5931868497, "lat": 36.0561097, "lon": 27.9747145, "tags": {"access": "customers", "amenity": "parking"}}, {"type": "node", "id": 5931868511, "lat": 36.057105, "lon": 27.9758021, "tags": {"amenity": "parking"}}, {"type": "node", "id": 8963642388, "lat": 36.0552012, "lon": 27.9742698, "tags": {"amenity": "atm", "name": "Euronet"}}, {"type": "node", "id": 12988565787, "lat": 36.058341, "lon": 27.9768472, "tags": {"access": "yes", "addr:city": "Ρόδος", "addr:place": "Κιοτάρι", "addr:postcode": "85109", "amenity": "charging_station", "authentication:app": "yes", "brand": "DEI Blue", "capacity": "8", "contact:phone": "+30 2112110900", "contact:website": "https://www.deiblue.gr/", "covered": "no", "fee": "yes", "manufacturer": "Phoenix Contact", "motorcar": "yes", "name": "DΕΙ blue - Princess Andriana Resort", "opening_hours": "24/7", "operator": "Princess Andriana Resort & Spa", "parking:fee": "no", "payment:app": "yes", "ref:EU:EVSE": "GR*PPC*EDEIBLUE*JNYY*67*1;GR*PPC*EDEIBLUE*JNYY*67*2", "ref:GR:IDRO": "GR-PPC-Scs38837-L", "socket:type2": "6", "socket:type2:output": "22", "socket:type2_combo": "2", "socket:type2_combo:current": "150", "socket:type2_combo:output": "60", "socket:type2_combo:voltage": "500"}}, {"type": "node", "id": 1373431389, "lat": 36.0594372, "lon": 27.978451, "tags": {"name": "Proton", "shop": "supermarket"}}, {"type": "node", "id": 2897613263, "lat": 36.0588657, "lon": 27.9805676, "tags": {"internet_access": "wlan", "internet_access:fee": "yes", "name": "Boutique 5 Hotel & Spa", "operator": "H Hotels Collection", "stars": "5", "tourism": "hotel", "website": "https://www.boutique5.gr/"}}, {"type": "node", "id": 12988565786, "lat": 36.059558, "lon": 27.9784764, "tags": {"access": "yes", "addr:city": "Ρόδος", "addr:place": "Κιοτάρι", "addr:postcode": "85109", "amenity": "charging_station", "authentication:app": "yes", "brand": "DEI Blue", "capacity": "1", "contact:phone": "+30 2112110900", "contact:website": "https://www.deiblue.gr/", "covered": "no", "fee": "yes", "manufacturer": "Phoenix Contact", "motorcar": "yes", "name": "DΕΙ blue - Kourtis Super Market", "opening_hours": "24/7", "operator": "Kourtis Super Market", "parking:fee": "no", "payment:app": "yes", "ref:EU:EVSE": "GR*PPC*E000100279*1", "ref:GR:IDRO": "GR-PPC-Scs42092-L", "socket:type2": "1", "socket:type2:output": "22"}}, {"type": "node", "id": 2461738495, "lat": 36.0632164, "lon": 27.9874306, "tags": {"addr:city": "Ρόδος", "addr:place": "Κιοτάρι", "addr:postcode": "85109", "fax": "+30-22440-47322", "internet_access": "yes", "name": "Miraluna Kiotari Seaside", "old_name": "Miraluna Kiotari Bay", "operator": "Blue Bay Group", "phone": "+30-22440-47380", "stars": "4", "tourism": "hotel", "website": "http://www.miralunakiotariseaside.gr/"}}, {"type": "node", "id": 2461738496, "lat": 36.0634012, "lon": 27.9874379, "tags": {"fax": "+30-22440-47322", "internet_access": "yes", "name": "Miraluna Village", "operator": "Blue Bay Group", "phone": "+30-22440-47380", "stars": "5", "tourism": "hotel", "website": "http://www.miralunavillageandspa.gr/"}}, {"type": "node", "id": 12169873959, "lat": 36.0622983, "lon": 27.986039, "tags": {"amenity": "restaurant", "bar": "no", "cuisine": "breakfast;international", "level": "-1", "name": "Waterfront Restaurant", "opening_hours": "Mo-Su 07:00-11:00,12:30-16:30,18:30-21:30; PH open", "operator": "Mayia Resort", "outdoor_seating": "yes", "self_service": "yes", "takeaway": "no"}}, {"type": "node", "id": 12169873975, "lat": 36.0621631, "lon": 27.9857427, "tags": {"amenity": "restaurant", "cuisine": "asian;sushi", "level": "2", "name": "Wasabi", "opening_hours": "Mo-Su 19:00-22:00; PH open", "operator": "Mayia Resort", "takeaway": "no"}}, {"type": "node", "id": 12169873987, "lat": 36.061817, "lon": 27.9870022, "tags": {"access": "customers", "amenity": "fast_food", "cuisine": "salad;sandwich", "indoor_seating": "no", "name": "Healthy Bits", "opening_hours": "Mo-Su 11:00-17:30; PH open", "operator": "Mayia Resort", "outdoor_seating": "yes", "takeaway": "yes"}}, {"type": "node", "id": 12169900014, "lat": 36.0617401, "lon": 27.9869119, "tags": {"access": "customers", "amenity": "cafe", "name": "Coffee Break", "operator": "Mayia Resort", "outdoor_seating": "yes"}}, {"type": "node", "id": 12174866451, "lat": 36.0618621, "lon": 27.9870375, "tags": {"access": "customers", "amenity": "fast_food", "indoor_seating": "no", "name": "Street Food Corner", "opening_hours": "Mo-Su 11:00-17:30; PH open", "operator": "Mayia Resort", "outdoor_seating": "yes"}}, {"type": "node", "id": 12988592082, "lat": 36.0629116, "lon": 27.9859653, "tags": {"access": "yes", "addr:city": "Ρόδος", "addr:place": "Κιοτάρι", "addr:postcode": "85109", "amenity": "charging_station", "authentication:app": "yes", "brand": "DEI Blue", "capacity": "2", "contact:phone": "+30 2112110900", "contact:website": "https://www.deiblue.gr/", "covered": "no", "fee": "yes", "manufacturer": "Phoenix Contact", "motorcar": "yes", "name": "DΕΙ blue - Mayia Exclusive Resort", "opening_hours": "24/7", "operator": "Mayia Exclusive Resort & Spa", "parking:fee": "no", "payment:app": "yes", "ref:EU:EVSE": "GR*PPC*E0002000837*1;GR*PPC*E0002000837*2", "ref:GR:IDRO": "GR-PPC-Scs38996-L", "socket:type2": "2", "socket:type2:output": "22"}}, {"type": "node", "id": 13204553219, "lat": 36.0631204, "lon": 27.9870889, "tags": {"access": "yes", "addr:city": "Ρόδος", "addr:place": "Κιοτάρι", "addr:postcode": "85109", "amenity": "charging_station", "authentication:app": "yes", "authentication:membership_card": "yes", "brand": "EKO Charge&Go", "capacity": "2", "contact:phone": "18198", "contact:website": "https://elpefuture.gr/", "covered": "no", "fee": "yes", "lit": "yes", "manufacturer": "ABB", "motorcar": "yes", "name": "EKO Charge&Go - Kiotari Bay", "opening_hours": "24/7", "operator": "Kiotari Bay", "parking:fee": "no", "payment:app": "yes", "ref:EU:EVSE": "GR*HEC*EKiotari*Bay*1*1;GR*HEC*EKiotari*Bay*2*1", "ref:GR:IDRO": "GR-HEC-SE043", "start_date": "2025-10-08"}}, {"type": "node", "id": 12988592083, "lat": 36.066831, "lon": 27.9914561, "tags": {"access": "yes", "addr:city": "Ρόδος", "addr:place": "Λάρδος", "addr:postcode": "85109", "amenity": "charging_station", "authentication:app": "yes", "authentication:membership_card": "yes", "brand": "nrg incharge", "capacity": "3", "contact:phone": "+30 2188818102", "contact:website": "https://www.nrgincharge.gr/", "covered": "no", "fee": "yes", "motorcar": "yes", "name": "nrg - Lindian Village", "note": "Στο μητρώο έχει τρεις σταθμούς για το ίδιο μέρος", "opening_hours": "24/7", "operator": "Lindian Village", "parking:fee": "no", "payment:app": "yes", "payment:website": "yes", "ref": "#1251;#1252;#1253", "ref:EU:EVSE": "GR*NRG*E1251*1;GR*NRG*E1252*1;GR*NRG*E1253*1", "ref:GR:IDRO": "GR-NRG-S689;GR-NRG-S690;GR-NRG-S691", "socket:type2": "3", "socket:type2:output": "22"}}, {"type": "node", "id": 1367485937, "lat": 36.0683819, "lon": 27.9912609, "tags": {"name": "Stafilia Mini-Market", "opening_hours": "Mo-Su 09:00-22:30", "shop": "convenience"}}, {"type": "node", "id": 2407347776, "lat": 36.0669661, "lon": 27.9994805, "tags": {"tourism": "viewpoint"}}, {"type": "node", "id": 6620977313, "lat": 36.1091304, "lon": 27.7307507, "tags": {"access": "yes", "amenity": "parking", "fee": "no", "parking": "surface"}}, {"type": "node", "id": 9950062287, "lat": 36.1220988, "lon": 27.7091981, "tags": {"castle_type": "fortress", "historic": "castle", "historic:civilization": "medieval", "image": "https://www.kastra.eu/pics/kasaro3.JPG", "name": "Βίγλα Κάσαρου", "name:el": "Βίγλα Κάσαρου", "name:en": "Watchtower at Cape Kasaro", "source": "https://www.kastra.eu/castlegr.php?kastro=kasaro"}}, {"type": "node", "id": 273449065, "lat": 36.124536, "lon": 27.7258353, "tags": {"tourism": "viewpoint"}}, {"type": "node", "id": 1377303663, "lat": 36.1236484, "lon": 27.7273993, "tags": {"amenity": "cafe", "check_date": "2025-10-21", "name": "The Castle"}}, {"type": "node", "id": 8944840885, "lat": 36.1206029, "lon": 27.7249269, "tags": {"amenity": "parking"}}, {"type": "node", "id": 9950041091, "lat": 36.1244176, "lon": 27.72597, "tags": {"castle_type": "fortress", "historic": "castle", "historic:civilization": "medieval", "image": "https://www.kastra.eu/pics/monolith13.jpg", "name": "Κάστρο Μονολίθου", "name:el": "Κάστρο Μονολίθου", "name:en": "Monolithos Castle", "source": "https://www.kastra.eu/castlegr.php?kastro=monolith", "start_date": "1476", "wikidata": "Q1004160", "wikipedia": "el:Μονόλιθος Ρόδου"}}, {"type": "node", "id": 11180658238, "lat": 36.1236705, "lon": 27.7273994, "tags": {"amenity": "cafe", "name": "The Castle"}}, {"type": "node", "id": 11180658347, "lat": 36.1235478, "lon": 27.7273594, "tags": {"amenity": "drinking_water"}}, {"type": "node", "id": 11180659249, "lat": 36.123696, "lon": 27.7274111, "tags": {"amenity": "fast_food", "name": "The Castle"}}, {"type": "node", "id": 1836215797, "lat": 36.1248293, "lon": 27.7296118, "tags": {"binoculars": "yes", "tourism": "viewpoint"}}, {"type": "node", "id": 1836216677, "lat": 36.1236487, "lon": 27.7291155, "tags": {"tourism": "viewpoint"}}, {"type": "node", "id": 2471636010, "lat": 36.1247664, "lon": 27.7295665, "tags": {"amenity": "drinking_water", "check_date": "2025-10-21", "ele": "308", "indoor": "no"}}, {"type": "node", "id": 3318397116, "lat": 36.1266385, "lon": 27.7311657, "tags": {"tourism": "viewpoint"}}, {"type": "node", "id": 8944878833, "lat": 36.1229226, "lon": 27.7285239, "tags": {"access": "yes", "amenity": "parking", "fee": "no", "parking": "surface"}}, {"type": "node", "id": 11180659245, "lat": 36.1250766, "lon": 27.7297332, "tags": {"amenity": "drinking_water", "ele": "315"}}, {"type": "node", "id": 11180658344, "lat": 36.1291898, "lon": 27.7299393, "tags": {"amenity": "drinking_water", "ele": "306"}}, {"type": "node", "id": 11180658345, "lat": 36.1293556, "lon": 27.7301481, "tags": {"name:en": "Place for tents in the forest", "tourism": "camp_site"}}, {"type": "node", "id": 11180659246, "lat": 36.1291914, "lon": 27.7298137, "tags": {"tourism": "picnic_site"}}, {"type": "node", "id": 1378319121, "lat": 36.1039011, "lon": 27.7371106, "tags": {"tourism": "viewpoint"}}, {"type": "node", "id": 9950062286, "lat": 36.1041788, "lon": 27.7370011, "tags": {"historic": "castle", "historic:civilization": "medieval", "image": "https://www.kastra.eu/pics/fournoi2.jpg", "name": "Βίγλα στο Ακρωτήριο Φούρνοι", "name:el": "Βίγλα στο Ακρωτήριο Φούρνοι", "name:en": "Watchtower at Cape Fournoi", "source": "https://www.kastra.eu/castlegr.php?kastro=fournoi"}}, {"type": "node", "id": 9093963217, "lat": 36.0877897, "lon": 27.7718545, "tags": {"name:en": "Sea view", "tourism": "viewpoint"}}, {"type": "node", "id": 1377303461, "lat": 36.1318305, "lon": 27.741254, "tags": {"amenity": "restaurant", "cuisine": "greek", "name": "Christos Corner", "phone": "+30-224460-61310", "tourism": "hotel", "website": "http://www.christos-corner.com/"}}, {"type": "node", "id": 1377303464, "lat": 36.1289966, "lon": 27.7362289, "tags": {"amenity": "restaurant", "cuisine": "greek", "name": "Panorama of Monolithos"}}, {"type": "node", "id": 2471636002, "lat": 36.1299113, "lon": 27.7389197, "tags": {"internet_access": "yes", "name": "Thomas", "tourism": "hotel", "website": "https://thomashotel.gr/"}}, {"type": "node", "id": 2471636417, "lat": 36.1315827, "lon": 27.7410789, "tags": {"amenity": "drinking_water", "ele": "315", "indoor": "no"}}, {"type": "node", "id": 2613141532, "lat": 36.1304881, "lon": 27.7411931, "tags": {"amenity": "restaurant", "check_date": "2024-10-12", "cuisine": "greek", "name": "Old Monolithos", "opening_hours": "Mo-Tu off; We-Th 12:00-18:00; Fr-Sa 12:00-22:30; Su 12:00-19:00"}}, {"type": "node", "id": 3318386516, "lat": 36.1321708, "lon": 27.7412227, "tags": {"shop": "convenience"}}, {"type": "node", "id": 3318397080, "lat": 36.1303191, "lon": 27.7373872, "tags": {"amenity": "restaurant", "cuisine": "regional", "name": "Limeri"}}, {"type": "node", "id": 8364045102, "lat": 36.1309609, "lon": 27.7398929, "tags": {"historic": "memorial", "memorial": "war_memorial"}}, {"type": "node", "id": 11180658348, "lat": 36.1296248, "lon": 27.7359599, "tags": {"amenity": "drinking_water", "ele": "329"}}, {"type": "node", "id": 8944875525, "lat": 36.1314797, "lon": 27.743088, "tags": {"amenity": "restaurant", "name": "Taverna"}}, {"type": "node", "id": 8752807319, "lat": 36.1378841, "lon": 27.7361759, "tags": {"historic": "memorial", "name": "Σπήλαιο Λιμέρι", "name:de": "Höhle Limeri", "name:el": "Σπήλαιο Λιμέρι"}}, {"type": "node", "id": 11180659255, "lat": 36.1378641, "lon": 27.7361522, "tags": {"name:en": "View point sea view", "tourism": "viewpoint"}}, {"type": "node", "id": 9192793821, "lat": 36.1381334, "lon": 27.745911, "tags": {"access": "yes", "amenity": "parking", "parking": "surface", "surface": "gravel"}}, {"type": "node", "id": 11204195037, "lat": 36.119661, "lon": 27.7723002, "tags": {"tourism": "viewpoint"}}, {"type": "node", "id": 11204194840, "lat": 36.1394931, "lon": 27.7687428, "tags": {"natural": "spring"}}, {"type": "node", "id": 11180658353, "lat": 36.1492121, "lon": 27.7326587, "tags": {"name:en": "Amazing views of the sea and Islands", "tourism": "viewpoint"}}, {"type": "node", "id": 11180659139, "lat": 36.1507803, "lon": 27.7354783, "tags": {"name:en": "Place for tents", "tourism": "camp_site"}}, {"type": "node", "id": 11180658239, "lat": 36.1497317, "lon": 27.7454793, "tags": {"name:en": "Large area flat good for camp", "tourism": "camp_site"}}, {"type": "node", "id": 8944871306, "lat": 36.1471354, "lon": 27.7585143, "tags": {"access": "yes", "amenity": "parking", "parking": "surface", "surface": "gravel"}}, {"type": "node", "id": 9192793817, "lat": 36.1467344, "lon": 27.7550387, "tags": {"access": "yes", "amenity": "parking", "parking": "surface", "surface": "gravel"}}, {"type": "node", "id": 11180659140, "lat": 36.1534813, "lon": 27.7499895, "tags": {"name:en": "Akramitis base camp", "tourism": "camp_site"}}, {"type": "node", "id": 11180659251, "lat": 36.1538997, "lon": 27.7541901, "tags": {"name:en": "Akramitis base camp", "tourism": "camp_site"}}, {"type": "node", "id": 11180658351, "lat": 36.1549098, "lon": 27.7580463, "tags": {"tourism": "viewpoint"}}, {"type": "node", "id": 9192793825, "lat": 36.1489275, "lon": 27.763387, "tags": {"access": "yes", "amenity": "parking", "parking": "surface", "surface": "gravel"}}, {"type": "node", "id": 9192793826, "lat": 36.1505249, "lon": 27.7674032, "tags": {"access": "yes", "amenity": "parking", "parking": "surface", "surface": "gravel"}}, {"type": "node", "id": 1491445672, "lat": 36.1527078, "lon": 27.7764775, "tags": {"shop": "convenience"}}, {"type": "node", "id": 11180658350, "lat": 36.1587346, "lon": 27.7629983, "tags": {"name:en": "Akramitis view point summit", "tourism": "viewpoint"}}, {"type": "node", "id": 1914057504, "lat": 36.1535227, "lon": 27.7786734, "tags": {"amenity": "restaurant", "name": "Manos"}}, {"type": "node", "id": 2474304083, "lat": 36.1532416, "lon": 27.7775549, "tags": {"name": "Martha's", "shop": "convenience"}}, {"type": "node", "id": 2474305059, "lat": 36.1530695, "lon": 27.7756084, "tags": {"amenity": "restaurant"}}, {"type": "node", "id": 2474305080, "lat": 36.1530785, "lon": 27.778134, "tags": {"addr:city": "Σιάνα", "addr:postcode": "85108", "amenity": "cafe", "name": "Sofia's Cafe Restaurant", "opening_hours": "Mo-Su 10:30-16:30", "outdoor_seating": "yes", "payment:credit_cards": "yes", "phone": "+302246061296"}}, {"type": "node", "id": 2474305256, "lat": 36.153564, "lon": 27.7780779, "tags": {"name:ru": "Мёд", "shop": "convenience"}}, {"type": "node", "id": 2474305280, "lat": 36.1536517, "lon": 27.7784463, "tags": {"amenity": "restaurant", "name": "Village Place"}}, {"type": "node", "id": 3318448123, "lat": 36.1529616, "lon": 27.7774984, "tags": {"amenity": "fast_food", "name": "Magasino"}}, {"type": "node", "id": 9950072974, "lat": 36.1563013, "lon": 27.7803412, "tags": {"castle_type": "castle", "historic": "castle", "historic:civilization": "medieval", "image": "https://www.kastra.eu/pics/sianna14.jpg", "name": "Κάστρο Σιάννων", "name:el": "Κάστρο Σιάννων", "name:en": "Castle of Sianna", "source": "https://www.kastra.eu/castlegr.php?kastro=sianna", "wikidata": "Q56450459"}}, {"type": "node", "id": 2872336507, "lat": 36.1585811, "lon": 27.7841835, "tags": {"amenity": "parking"}}, {"type": "node", "id": 8364045170, "lat": 36.1697764, "lon": 27.772281, "tags": {"drinking_water": "yes", "ele": "417", "natural": "spring"}}, {"type": "node", "id": 11180658342, "lat": 36.1701979, "lon": 27.7694698, "tags": {"amenity": "drinking_water", "ele": "401", "name:en": "Fire hydrant not locked. Can use for drink"}}, {"type": "node", "id": 9950074507, "lat": 36.1918065, "lon": 27.7694811, "tags": {"castle_type": "tower", "historic": "castle", "historic:civilization": "medieval", "image": "https://www.kastra.eu/pics/kymisal_q.jpg", "name": "Πύργος Κυμισάλας", "name:el": "Πύργος Κυμισάλας", "name:en": "Kymisala tower", "source": "https://www.kastra.eu/castlegr.php?kastro=kymisala", "start_date": "1476"}}, {"type": "node", "id": 3553826596, "lat": 36.099769, "lon": 27.7983547, "tags": {"amenity": "drinking_water", "check_date": "2023-01-22", "man_made": "water_tap"}}, {"type": "node", "id": 9155829217, "lat": 36.1019754, "lon": 27.7988554, "tags": {"amenity": "cafe", "name": "Rhodescape - outdoor activities", "website": "http://rhodescape.gr"}}, {"type": "node", "id": 5179661969, "lat": 36.1022669, "lon": 27.8044298, "tags": {"tourism": "viewpoint"}}, {"type": "node", "id": 5179661984, "lat": 36.103928, "lon": 27.8080293, "tags": {"tourism": "viewpoint"}}, {"type": "node", "id": 3554274892, "lat": 36.1103723, "lon": 27.829608, "tags": {"amenity": "drinking_water"}}, {"type": "node", "id": 3554275003, "lat": 36.1107582, "lon": 27.8291887, "tags": {"amenity": "restaurant"}}, {"type": "node", "id": 3554275023, "lat": 36.1106926, "lon": 27.8284943, "tags": {"amenity": "restaurant", "name": "Snack Bar"}}, {"type": "node", "id": 3554275028, "lat": 36.1109149, "lon": 27.8287078, "tags": {"historic": "memorial"}}, {"type": "node", "id": 3554275029, "lat": 36.1109998, "lon": 27.8285117, "tags": {"amenity": "drinking_water"}}, {"type": "node", "id": 3554275050, "lat": 36.1115949, "lon": 27.8293458, "tags": {"amenity": "cafe"}}, {"type": "node", "id": 13356285034, "lat": 36.1123409, "lon": 27.835657, "tags": {"tourism": "viewpoint"}}, {"type": "node", "id": 3554360776, "lat": 36.0993735, "lon": 27.8474857, "tags": {"information": "map", "tourism": "information"}}, {"type": "node", "id": 3554360777, "lat": 36.09943, "lon": 27.8474979, "tags": {"amenity": "drinking_water", "ele": "377"}}, {"type": "node", "id": 3554360785, "lat": 36.0994856, "lon": 27.8474671, "tags": {"amenity": "restaurant", "cuisine": "regional", "name": "To limeti tou listi"}}, {"type": "node", "id": 3554369588, "lat": 36.0984964, "lon": 27.8523608, "tags": {"amenity": "drinking_water", "ele": "334"}}, {"type": "node", "id": 8944838083, "lat": 36.1855942, "lon": 27.8019448, "tags": {"amenity": "parking"}}, {"type": "node", "id": 3554395986, "lat": 36.1647974, "lon": 27.8488746, "tags": {"tourism": "hostel"}}, {"type": "node", "id": 3554397993, "lat": 36.1656211, "lon": 27.8496659, "tags": {"amenity": "cafe", "cuisine": "greek", "name": "\"Aletro\" Snack Bar - Taverna", "phone": "6946562930"}}, {"type": "node", "id": 3554397994, "lat": 36.1659188, "lon": 27.8498287, "tags": {"amenity": "cafe"}}, {"type": "node", "id": 1914057491, "lat": 36.1661842, "lon": 27.8497507, "tags": {"amenity": "cafe", "name": "Ataviros"}}, {"type": "node", "id": 3554398006, "lat": 36.1664329, "lon": 27.8497605, "tags": {"amenity": "restaurant"}}, {"type": "node", "id": 3554398019, "lat": 36.1663913, "lon": 27.849946, "tags": {"amenity": "restaurant"}}, {"type": "node", "id": 3554398038, "lat": 36.1665401, "lon": 27.8498628, "tags": {"amenity": "drinking_water", "ele": "538"}}, {"type": "node", "id": 11162875806, "lat": 36.1686208, "lon": 27.8513243, "tags": {"amenity": "drinking_water", "ele": "530"}}, {"type": "node", "id": 11180658337, "lat": 36.1789634, "lon": 27.8491472, "tags": {"name:en": "Place for tents near the Water tank, protected from the wind", "tourism": "camp_site"}}, {"type": "node", "id": 11180659337, "lat": 36.1790093, "lon": 27.8491214, "tags": {"ele": "770", "man_made": "water_well"}}, {"type": "node", "id": 5181730101, "lat": 36.1987648, "lon": 27.7764614, "tags": {"tourism": "viewpoint"}}, {"type": "node", "id": 9950074508, "lat": 36.2091974, "lon": 27.7812258, "tags": {"castle_type": "tower", "historic": "castle", "historic:civilization": "medieval", "image": "https://www.kastra.eu/pics/kritikou.jpg", "name": "Πύργος Κρητικού", "name:el": "Πύργος Κρητικού", "name:en": "Watchtower Kritikou", "ruins": "yes", "source": "https://www.kastra.eu/castlegr.php?kastro=kritikou", "start_date": "1480"}}, {"type": "node", "id": 512103806, "lat": 36.1925762, "lon": 27.8038043, "tags": {"access": "yes", "amenity": "parking", "capacity": "4", "fee": "no", "opening_hours": "24/7", "parking": "surface"}}, {"type": "node", "id": 5834987886, "lat": 36.1938063, "lon": 27.8056089, "tags": {"tourism": "viewpoint"}}, {"type": "node", "id": 11180658339, "lat": 36.1932479, "lon": 27.8052414, "tags": {"name:en": "Jacobs Canyon", "tourism": "attraction"}}, {"type": "node", "id": 11180659254, "lat": 36.1925673, "lon": 27.8068687, "tags": {"information": "Steep steps in Jacobs Canyon", "name:en": "Caution, steep steps in Jacobs Canyon", "tourism": "information"}}, {"type": "node", "id": 9918026102, "lat": 36.1949968, "lon": 27.8084455, "tags": {"tourism": "viewpoint"}}, {"type": "node", "id": 2474389294, "lat": 36.2044145, "lon": 27.8089743, "tags": {"tourism": "viewpoint"}}, {"type": "node", "id": 2872145548, "lat": 36.2046178, "lon": 27.8091456, "tags": {"amenity": "parking"}}, {"type": "node", "id": 11180659240, "lat": 36.2001002, "lon": 27.8201639, "tags": {"name:en": "Place for tents", "tourism": "camp_site"}}, {"type": "node", "id": 11180658343, "lat": 36.2015821, "lon": 27.8383453, "tags": {"name:en": "Place for tents", "tourism": "camp_site"}}, {"type": "node", "id": 8364041411, "lat": 36.2150072, "lon": 27.8291785, "tags": {"ele": "371", "natural": "spring"}}, {"type": "node", "id": 9950077749, "lat": 36.2252565, "lon": 27.8021156, "tags": {"castle_type": "tower", "historic": "castle", "historic:civilization": "medieval", "image": "https://www.kastra.eu/pics/amartou17.JPG", "name": "Πύργος Αμάρτου", "name:el": "Πύργος Αμάρτου", "name:en": "Tower of Amartos", "source": "https://www.kastra.eu/castlegr.php?kastro=amartou", "wikidata": "Q56450506"}}, {"type": "node", "id": 13357192721, "lat": 36.2041907, "lon": 27.851645, "tags": {"tourism": "viewpoint"}}, {"type": "node", "id": 11180658340, "lat": 36.2090789, "lon": 27.844016, "tags": {"name:en": "Place for camp", "tourism": "camp_site"}}, {"type": "node", "id": 11180659137, "lat": 36.2130412, "lon": 27.844452, "tags": {"ele": "496", "natural": "spring"}}, {"type": "node", "id": 13314802681, "lat": 36.2128952, "lon": 27.8446065, "tags": {"amenity": "drinking_water", "ele": "496"}}, {"type": "node", "id": 11180659138, "lat": 36.2128938, "lon": 27.8470322, "tags": {"name:en": "Wild camp before climbing", "tourism": "camp_site"}}, {"type": "node", "id": 9950087020, "lat": 36.2068268, "lon": 27.8649851, "tags": {"castle_type": "fortification", "historic": "castle", "historic:civilization": "byzantine", "image": "https://www.kastra.eu/pics/attavyros4.jpg", "name": "Καστρομονάστηρο Ατταβύρου", "name:el": "Καστρομονάστηρο Ατταβύρου", "name:en": "Fortified monastery on Mt. Atávyros", "source": "https://www.kastra.eu/castlegr.php?kastro=atavyros"}}, {"type": "node", "id": 11180658240, "lat": 36.2099331, "lon": 27.8635552, "tags": {"name:en": "Attaviros summit view point", "tourism": "viewpoint"}}, {"type": "node", "id": 11180658352, "lat": 36.2072659, "lon": 27.8644499, "tags": {"tourism": "viewpoint"}}, {"type": "node", "id": 11180659253, "lat": 36.2143014, "lon": 27.8599946, "tags": {"name:en": "Very steep descent to Embonas village, be careful sleepery stones", "tourism": "information"}}, {"type": "node", "id": 6430561669, "lat": 36.2217594, "lon": 27.8522255, "tags": {"amenity": "restaurant", "email": "stheoulakis_96@hotmail.com", "name": "Empona’s View", "operator": "Theoulakis Kiriakos", "phone": "+30 22460 41152", "website": "www.emponaview.gr"}}, {"type": "node", "id": 2474549205, "lat": 36.2245031, "lon": 27.8554243, "tags": {"amenity": "restaurant", "cuisine": "regional", "name": "Attaviros"}}, {"type": "node", "id": 1803104897, "lat": 36.2278929, "lon": 27.855059, "tags": {"amenity": "restaurant", "cuisine": "greek", "name": "Ταβερνα Αλωνια", "name:el": "Ταβερνα Αλωνια", "name:en": "Taverna Alonia", "source": "survey"}}, {"type": "node", "id": 2476637479, "lat": 36.2269412, "lon": 27.8545935, "tags": {"amenity": "fuel", "brand": "Aegean", "brand:wikidata": "Q28146598", "name": "Aegean", "operator": "ΦΛΟΣΚΑΚΗΣ ΗΛΙΑΣ"}}, {"type": "node", "id": 2476637481, "lat": 36.2278748, "lon": 27.8546805, "tags": {"amenity": "cafe", "name": "Sweet Home"}}, {"type": "node", "id": 2476637482, "lat": 36.2279712, "lon": 27.8548099, "tags": {"historic": "memorial", "material": "stone", "memorial": "stele", "name": "To those who died for his country", "name:el": "Εις τους υπέρ πατρίδος πεσόντες", "name:en": "To those who died for his country", "name:ru": "Павшим за свою страну", "wikimedia_commons": "File:Emponas-Memorial-To those who died.jpg"}}, {"type": "node", "id": 2476637699, "lat": 36.226431, "lon": 27.8547338, "tags": {"shop": "supermarket"}}, {"type": "node", "id": 2476637827, "lat": 36.2273569, "lon": 27.8548929, "tags": {"amenity": "restaurant"}}, {"type": "node", "id": 2476637851, "lat": 36.2274357, "lon": 27.8550881, "tags": {"amenity": "restaurant", "name": "Savva's Taverna"}}, {"type": "node", "id": 2476637923, "lat": 36.2275939, "lon": 27.8550081, "tags": {"shop": "bakery"}}, {"type": "node", "id": 2476637999, "lat": 36.2277645, "lon": 27.8547468, "tags": {"amenity": "fast_food"}}, {"type": "node", "id": 2476638097, "lat": 36.227977, "lon": 27.8551866, "tags": {"shop": "supermarket"}}, {"type": "node", "id": 3555835244, "lat": 36.2270647, "lon": 27.8548175, "tags": {"name": "Kivotos", "shop": "convenience"}}, {"type": "node", "id": 3555835246, "lat": 36.2273335, "lon": 27.8546828, "tags": {"amenity": "fast_food", "name": "Burgers"}}, {"type": "node", "id": 3556047168, "lat": 36.2284395, "lon": 27.8575834, "tags": {"amenity": "pharmacy", "drive_through": "no", "healthcare": "pharmacy"}}, {"type": "node", "id": 3556047234, "lat": 36.2283889, "lon": 27.8589901, "tags": {"amenity": "restaurant", "cuisine": "regional", "name": "Bakis Taverna"}}, {"type": "node", "id": 3556047263, "lat": 36.2279723, "lon": 27.858475, "tags": {"amenity": "fuel", "brand": "Avin", "brand:wikidata": "Q22979634", "name": "AVIN", "operator": "ΦΛΟΣΚΑΚΗΣ ΗΛΙΑΣ"}}, {"type": "node", "id": 3556047265, "lat": 36.2276725, "lon": 27.8580031, "tags": {"shop": "convenience"}}, {"type": "node", "id": 3556047324, "lat": 36.226225, "lon": 27.8567901, "tags": {"shop": "convenience"}}, {"type": "node", "id": 3556047326, "lat": 36.2260248, "lon": 27.8567553, "tags": {"amenity": "restaurant", "cuisine": "regional", "name": "Bakis Brothers"}}, {"type": "node", "id": 3556047327, "lat": 36.2261024, "lon": 27.8566563, "tags": {"amenity": "restaurant"}}, {"type": "node", "id": 5098377921, "lat": 36.2268738, "lon": 27.8551997, "tags": {"amenity": "cafe", "cuisine": "ice_cream;coffee_shop", "name:en": "Creperie", "name:ru": "Крепери"}}, {"type": "node", "id": 5383758122, "lat": 36.2261339, "lon": 27.8564171, "tags": {"amenity": "restaurant", "name": "Бакис мясо"}}, {"type": "node", "id": 8944838082, "lat": 36.2272029, "lon": 27.8551966, "tags": {"amenity": "pharmacy", "healthcare": "pharmacy"}}, {"type": "node", "id": 8944861218, "lat": 36.2277708, "lon": 27.8549329, "tags": {"amenity": "atm", "brand": "Euronet", "brand:wikidata": "Q5412010", "name": "Euronet", "operator": "Euronet", "operator:wikidata": "Q5412010"}}, {"type": "node", "id": 8944868904, "lat": 36.2270668, "lon": 27.8550345, "tags": {"amenity": "atm", "brand": "Τράπεζα Πειραιώς", "brand:el": "Τράπεζα Πειραιώς", "brand:en": "Piraeus Bank", "brand:wikidata": "Q3312", "name": "Τράπεζα Πειραιώς", "name:el": "Τράπεζα Πειραιώς", "name:en": "Piraeus Bank", "operator": "Τράπεζα Πειραιώς", "operator:wikidata": "Q3312", "short_name": "Πειραιώς", "short_name:el": "Πειραιώς", "short_name:en": "Piraeus"}}, {"type": "node", "id": 11180659237, "lat": 36.226548, "lon": 27.8547662, "tags": {"amenity": "drinking_water", "ele": "421"}}, {"type": "node", "id": 11180659141, "lat": 36.2530168, "lon": 27.7961794, "tags": {"name:en": "\"Secret beach \"Not secret at all...", "tourism": "camp_site"}}, {"type": "node", "id": 11180658242, "lat": 36.2575343, "lon": 27.8027618, "tags": {"name:en": "Beach", "tourism": "information"}}, {"type": "node", "id": 263262911, "lat": 36.2641223, "lon": 27.8088945, "tags": {"alt_name": "Krithinia Castle", "description": "Castle, built 1472 to defend against Ottoma fleets.", "historic": "castle", "int_name": "Castle of Kritinia", "name": "Κάστρο Κρητηνίας", "name:el": "Κάστρο Κρητηνίας", "name:en": "Castle of Kritinia", "name:ru": "Замок Критиниа", "start_date": "1472", "tourism": "attraction", "wheelchair": "no", "wikidata": "Q6438577", "wikipedia": "en:Kritinia"}}, {"type": "node", "id": 5834990785, "lat": 36.2639943, "lon": 27.808724, "tags": {"description": "Best view from the Castle ruin", "name": "Kritinia Castle", "tourism": "viewpoint", "wheelchair": "no"}}, {"type": "node", "id": 6738205946, "lat": 36.2635111, "lon": 27.8097495, "tags": {"amenity": "cafe", "check_date": "2025-10-18", "cuisine": "greek;cafe", "name": "Café @ Kritinia Castle", "name:de": "Café an der Kritinia Burgruine", "outdoor_seating": "yes", "wheelchair": "no"}}, {"type": "node", "id": 3556376669, "lat": 36.2476665, "lon": 27.8291387, "tags": {"amenity": "shelter"}}, {"type": "node", "id": 6430179190, "lat": 36.2498706, "lon": 27.8310724, "tags": {"amenity": "cafe", "name": "Anaktora"}}, {"type": "node", "id": 6430209075, "lat": 36.2462666, "lon": 27.829125, "tags": {"amenity": "restaurant", "name": "Kalamaris"}}, {"type": "node", "id": 6430209076, "lat": 36.2496255, "lon": 27.8308139, "tags": {"amenity": "restaurant", "name": "Obelistiria"}}, {"type": "node", "id": 6430209078, "lat": 36.249894, "lon": 27.8307306, "tags": {"amenity": "restaurant", "name": "Piatsa"}}, {"type": "node", "id": 11180659256, "lat": 36.2498393, "lon": 27.8308444, "tags": {"amenity": "drinking_water", "name:en": "Fontain"}}, {"type": "node", "id": 3556117533, "lat": 36.2504394, "lon": 27.8331986, "tags": {"name": "Proton", "shop": "supermarket"}}, {"type": "node", "id": 9950102528, "lat": 36.2517953, "lon": 27.8324644, "tags": {"castle_type": "castle", "historic": "castle", "historic:civilization": "medieval", "image": "https://www.kastra.eu/pics/kritonia-losse2.JPG", "name": "Κάστρο Κρητηνίας-2", "name:el": "Κάστρο Κρητηνίας-2", "name:en": "Castle of Kritinia-2", "source": "https://www.kastra.eu/castlegr.php?kastro=kritinia2", "wikidata": "Q116150830"}}, {"type": "node", "id": 2872146276, "lat": 36.2536852, "lon": 27.8346477, "tags": {"name": "Folklore Museum", "tourism": "museum"}}, {"type": "node", "id": 6430227654, "lat": 36.2535923, "lon": 27.8344868, "tags": {"amenity": "restaurant", "name": "Milos"}}, {"type": "node", "id": 6481207585, "lat": 36.2536837, "lon": 27.8346287, "tags": {"name:en": "Museum of popular art Kritinia", "tourism": "museum"}}, {"type": "node", "id": 4217517671, "lat": 36.2624694, "lon": 27.8161587, "tags": {"tourism": "viewpoint"}}, {"type": "node", "id": 946054364, "lat": 36.2685381, "lon": 27.8141067, "tags": {"name": "Kalopetri", "tourism": "hotel"}}, {"type": "node", "id": 2872146190, "lat": 36.2665509, "lon": 27.8189598, "tags": {"tourism": "viewpoint"}}, {"type": "node", "id": 2872146309, "lat": 36.2665753, "lon": 27.8190618, "tags": {"amenity": "parking"}}, {"type": "node", "id": 3556398384, "lat": 36.2718901, "lon": 27.8184374, "tags": {"amenity": "restaurant", "cuisine": "greek", "internet_access": "wlan", "internet_access:fee": "no", "name": "Johnny's Grill Taverna", "opening_hours": "10:00 - 22:00", "outdoor_seating": "yes", "phone": "22460 31342", "smoking": "outside"}}, {"type": "node", "id": 462225849, "lat": 36.2710852, "lon": 27.8252592, "tags": {"amenity": "restaurant"}}, {"type": "node", "id": 946045833, "lat": 36.2721974, "lon": 27.8245923, "tags": {"amenity": "restaurant", "name": "Loukas", "phone": "+30 22460 31271"}}, {"type": "node", "id": 2375002837, "lat": 36.2719055, "lon": 27.8253222, "tags": {"amenity": "restaurant", "name": "Athemenis"}}, {"type": "node", "id": 2496146313, "lat": 36.2727958, "lon": 27.8307766, "tags": {"addr:city": "Rhodos", "addr:housename": "Kamiros Skala", "addr:postcode": "85108", "amenity": "restaurant", "contact:email": "liros@otenet.gr", "contact:facebook": "https://www.facebook.com/www.liros.gr/", "contact:phone": "+30 22460 312 64", "contact:website": "http://www.liros.gr/", "cuisine": "greek;seafood", "name": "Pension Restaurant LIROS"}}, {"type": "node", "id": 2872079868, "lat": 36.2719154, "lon": 27.8292263, "tags": {"amenity": "fuel", "brand": "Aegean", "brand:wikidata": "Q28146598", "name": "AEGEAN", "operator": "ΝΙΚΟΛΟΥΔΑΚΗΣ ΑΛΕΞΑΝΔΡΟΣ"}}, {"type": "node", "id": 9950132739, "lat": 36.2545638, "lon": 27.8833006, "tags": {"castle_type": "castle", "historic": "castle", "historic:civilization": "byzantine", "image": "https://www.kastra.eu/pics/kitala5.JPG", "name": "Κάστρο Έμπωνα", "name:el": "Κάστρο Έμπωνα", "name:en": "Watchtower Embonas", "ruins": "yes", "source": "https://www.kastra.eu/castlegr.php?kastro=ebonas"}}, {"type": "node", "id": 2870344148, "lat": 36.2931253, "lon": 27.8595828, "tags": {"amenity": "fuel", "brand": "ΕΛΙΝΟΙΛ", "brand:wikidata": "Q12876543", "name": "ΕΛΙΝΟΙΛ", "operator": "ΔΙΑΚΟΣΤΕΡΓΑΚΗΣ ΙΩΑΝΝΗΣ"}}, {"type": "node", "id": 11180658354, "lat": 36.2792757, "lon": 27.8757828, "tags": {"name:en": "Place for tents", "tourism": "camp_site"}}, {"type": "node", "id": 4588789263, "lat": 36.1326264, "lon": 27.9169008, "tags": {"drinking_water": "yes", "natural": "spring"}}, {"type": "node", "id": 4931154542, "lat": 36.1546689, "lon": 27.9379049, "tags": {"shop": "convenience"}}, {"type": "node", "id": 4931154546, "lat": 36.1547091, "lon": 27.9370431, "tags": {"amenity": "restaurant", "cuisine": "greek", "internet_access": "wlan", "name": "Takis Taverna Platanos", "self_service": "no"}}, {"type": "node", "id": 4931154551, "lat": 36.1542795, "lon": 27.9368593, "tags": {"amenity": "restaurant", "cuisine": "regional;greek", "name": "Restaurant Ingos", "outdoor_seating": "yes"}}, {"type": "node", "id": 4931154574, "lat": 36.154922, "lon": 27.9379371, "tags": {"amenity": "cafe"}}, {"type": "node", "id": 4931160783, "lat": 36.1543938, "lon": 27.9388654, "tags": {"amenity": "restaurant"}}, {"type": "node", "id": 7775503385, "lat": 36.1543879, "lon": 27.9391684, "tags": {"addr:street": "Λάρδος - Λάερμα", "amenity": "restaurant", "email": "alexpatounas@hotmail.gr", "internet_access": "wlan", "name:en": "To Anoi Tou Patouna", "phone": "+302244061107"}}, {"type": "node", "id": 11162833206, "lat": 36.1551857, "lon": 27.9395376, "tags": {"amenity": "drinking_water"}}, {"type": "node", "id": 9942118626, "lat": 36.1809584, "lon": 27.8991157, "tags": {"tourism": "viewpoint"}}, {"type": "node", "id": 12565366604, "lat": 36.1509826, "lon": 27.9447016, "tags": {"historic": "memorial"}}, {"type": "node", "id": 9152745917, "lat": 36.1578609, "lon": 27.9847113, "tags": {"tourism": "viewpoint"}}, {"type": "node", "id": 11180658338, "lat": 36.1659487, "lon": 27.9887571, "tags": {"name:en": "Wild camp around the lake", "tourism": "camp_site"}}, {"type": "node", "id": 9152712118, "lat": 36.1813724, "lon": 27.9595238, "tags": {"tourism": "viewpoint"}}, {"type": "node", "id": 9152745817, "lat": 36.1680232, "lon": 27.9728592, "tags": {"tourism": "viewpoint"}}, {"type": "node", "id": 5832528687, "lat": 36.1572108, "lon": 27.9989173, "tags": {"tourism": "viewpoint"}}, {"type": "node", "id": 9950082951, "lat": 36.2195606, "lon": 27.9196466, "tags": {"castle_type": "castle", "historic": "castle", "historic:civilization": "byzantine", "image": "https://www.kastra.eu/pics/kastrelia1.JPG", "name": "Καστρέλια Ρόδου", "name:el": "Καστρέλια Ρόδου", "name:en": "Watchtower at Rhodos", "ruins": "yes", "source": "https://www.kastra.eu/castlegr.php?kastro=kastreliarodo"}}, {"type": "node", "id": 8948353917, "lat": 36.2163724, "lon": 27.9596412, "tags": {"name:en": "old bridge under new bridge", "name:ru": "мост над мостом", "tourism": "attraction"}}, {"type": "node", "id": 9152745717, "lat": 36.2157308, "lon": 27.9601263, "tags": {"tourism": "viewpoint"}}, {"type": "node", "id": 9152745617, "lat": 36.2419493, "lon": 27.9755482, "tags": {"tourism": "viewpoint"}}, {"type": "node", "id": 11180658356, "lat": 36.2679117, "lon": 27.9119083, "tags": {"ele": "500", "name:en": "Water spring along the road, good water", "natural": "spring"}}, {"type": "node", "id": 8944845724, "lat": 36.2557705, "lon": 27.9373328, "tags": {"ele": "353", "natural": "spring", "note": "dry spring"}}, {"type": "node", "id": 3422263128, "lat": 36.2655657, "lon": 27.9332682, "tags": {"int_name": "Camp", "name": "Κατασκηνώσεις Προφήτη Ηλία", "name:el": "Κατασκηνώσεις Προφήτη Ηλία", "name:en": "Camp", "name:it": "ex Campeggio Ave Dux", "tourism": "camp_site"}}, {"type": "node", "id": 1914057506, "lat": 36.2717403, "lon": 27.9033379, "tags": {"amenity": "restaurant"}}, {"type": "node", "id": 11180658244, "lat": 36.2718767, "lon": 27.90339, "tags": {"amenity": "drinking_water", "ele": "312", "name:en": "Water behind the building"}}, {"type": "node", "id": 11180662538, "lat": 36.2736931, "lon": 27.9373547, "tags": {"name:en": "Place for tents", "tourism": "camp_site"}}, {"type": "node", "id": 1788741452, "lat": 36.2730007, "lon": 27.9407397, "tags": {"tourism": "viewpoint"}}, {"type": "node", "id": 1788741453, "lat": 36.2732907, "lon": 27.9400926, "tags": {"tourism": "viewpoint"}}, {"type": "node", "id": 2477076294, "lat": 36.276622, "lon": 27.9444454, "tags": {"check_date": "2023-04-17", "information": "map", "map_type": "topo", "tourism": "information"}}, {"type": "node", "id": 2477076298, "lat": 36.2766322, "lon": 27.9444184, "tags": {"check_date": "2023-04-17", "hiking": "yes", "information": "map", "map_type": "scheme", "tourism": "information"}}, {"type": "node", "id": 4217413216, "lat": 36.2770279, "lon": 27.943784, "tags": {"amenity": "cafe"}}, {"type": "node", "id": 4217413217, "lat": 36.2770665, "lon": 27.9435186, "tags": {"amenity": "restaurant", "capacity": "80", "cuisine": "regional", "delivery": "no", "smoking": "outside", "takeaway": "no"}}, {"type": "node", "id": 4318090398, "lat": 36.2764951, "lon": 27.9437594, "tags": {"amenity": "cafe", "internet_access": "wlan", "name": "Elafaki"}}, {"type": "node", "id": 11180658358, "lat": 36.2770526, "lon": 27.9441579, "tags": {"amenity": "drinking_water", "ele": "603"}}, {"type": "node", "id": 11180662539, "lat": 36.2736344, "lon": 27.9434578, "tags": {"name:en": "Place for tents", "tourism": "camp_site"}}, {"type": "node", "id": 11180663037, "lat": 36.2770164, "lon": 27.9443639, "tags": {"name:en": "Place for tents around the church", "tourism": "camp_site"}}, {"type": "node", "id": 4946937443, "lat": 36.2901867, "lon": 27.9427724, "tags": {"shop": "convenience"}}, {"type": "node", "id": 4946937444, "lat": 36.2899335, "lon": 27.9434539, "tags": {"name": "Super Market Maria", "shop": "convenience"}}, {"type": "node", "id": 4946937445, "lat": 36.2897716, "lon": 27.9434693, "tags": {"amenity": "restaurant", "cuisine": "greek", "name": "Καφενείο το Σιντριβάνι"}}, {"type": "node", "id": 4946937452, "lat": 36.2897061, "lon": 27.9436011, "tags": {"amenity": "restaurant", "cuisine": "greek", "name": "La Piazza", "name:en": "La Piazza"}}, {"type": "node", "id": 4946937455, "lat": 36.2896431, "lon": 27.9437177, "tags": {"amenity": "restaurant"}}, {"type": "node", "id": 4946937456, "lat": 36.2897951, "lon": 27.9437346, "tags": {"amenity": "restaurant", "internet_access": "wlan", "name": "Τα κίταλα", "name:el": "Τα κίταλα", "name:en": "Ta Kitala"}}, {"type": "node", "id": 9950146336, "lat": 36.2894441, "lon": 27.9437638, "tags": {"castle_type": "castle", "historic": "castle", "historic:civilization": "medieval", "image": "https://www.kastra.eu/pics/salakos4.JPG", "name": "Κάστρο Σαλάκου", "name:el": "Κάστρο Σαλάκου", "name:en": "Castle of Salakos", "source": "https://www.kastra.eu/castlegr.php?kastro=salakos", "wikidata": "Q108751441"}}, {"type": "node", "id": 10994018028, "lat": 36.2897913, "lon": 27.9434209, "tags": {"amenity": "cafe", "name": "Piede"}}, {"type": "node", "id": 1326693613, "lat": 36.2604037, "lon": 27.9652029, "tags": {"amenity": "restaurant", "cuisine": "greek", "int_name": "Paspallas", "name": "Πασπαλλάς"}}, {"type": "node", "id": 2915819715, "lat": 36.2609103, "lon": 27.9653664, "tags": {"amenity": "restaurant", "cuisine": "greek", "int_name": "Panorama", "name": "Πανόραμα"}}, {"type": "node", "id": 2915819725, "lat": 36.2602986, "lon": 27.9658388, "tags": {"amenity": "cafe", "int_name": "Pernos", "name": "Περνός"}}, {"type": "node", "id": 2915819726, "lat": 36.2602541, "lon": 27.9660452, "tags": {"amenity": "cafe", "name": "Pallasio di Giovani"}}, {"type": "node", "id": 2915819728, "lat": 36.2599262, "lon": 27.9694287, "tags": {"amenity": "cafe"}}, {"type": "node", "id": 2915819729, "lat": 36.2605294, "lon": 27.9677352, "tags": {"amenity": "restaurant", "cuisine": "greek", "name": "Paraga"}}, {"type": "node", "id": 2932868992, "lat": 36.2598641, "lon": 27.9669705, "tags": {"amenity": "fast_food", "cuisine": "steak_house", "name": "Filiki gonia"}}, {"type": "node", "id": 2932868993, "lat": 36.2597142, "lon": 27.9685022, "tags": {"amenity": "fuel", "brand": "EKO", "brand:wikidata": "Q31283948", "name": "EKO", "operator": "ΣΕΝΤΟΝΑΣ ΣΤΑΥΡΟΣ"}}, {"type": "node", "id": 2932868994, "lat": 36.259146, "lon": 27.9668578, "tags": {"amenity": "cafe"}}, {"type": "node", "id": 2932868996, "lat": 36.2603442, "lon": 27.9653692, "tags": {"shop": "convenience"}}, {"type": "node", "id": 2932868997, "lat": 36.2592001, "lon": 27.9668632, "tags": {"amenity": "fast_food"}}, {"type": "node", "id": 2932868998, "lat": 36.2600652, "lon": 27.9663241, "tags": {"amenity": "pharmacy", "healthcare": "pharmacy"}}, {"type": "node", "id": 2932869204, "lat": 36.2598329, "lon": 27.967054, "tags": {"shop": "convenience"}}, {"type": "node", "id": 6535212985, "lat": 36.2604871, "lon": 27.9653313, "tags": {"amenity": "restaurant", "name": "Yiarenis"}}, {"type": "node", "id": 9061580517, "lat": 36.2607896, "lon": 27.9698156, "tags": {"amenity": "cafe", "name:en": "Mageirotechneio Taverna Paraga"}}, {"type": "node", "id": 9950132740, "lat": 36.2595748, "lon": 27.9667195, "tags": {"castle_type": "fortress", "historic": "castle", "historic:civilization": "medieval", "image": "https://www.kastra.eu/pics/apollona3.jpg", "name": "Κάστρο Απολλώνων", "name:el": "Κάστρο Απολλώνων", "name:en": "Castle of Apollona", "source": "https://www.kastra.eu/castlegr.php?kastro=apollon", "wikidata": "Q108817013"}}, {"type": "node", "id": 8944851999, "lat": 36.261889, "lon": 27.974793, "tags": {"ele": "324", "natural": "spring"}}, {"type": "node", "id": 9950132741, "lat": 36.2590354, "lon": 27.9893726, "tags": {"castle_type": "castle", "historic": "castle", "historic:civilization": "byzantine", "image": "https://www.kastra.eu/pics/erimokastro-street.jpg", "name": "Ερημόκαστρο Απολλώνων", "name:el": "Ερημόκαστρο Απολλώνων", "name:en": "Erimokastro of Apollona", "source": "https://www.kastra.eu/castlegr.php?kastro=erimokapollon"}}, {"type": "node", "id": 5833903107, "lat": 36.272958, "lon": 27.9464221, "tags": {"name:de": "Ruinen", "tourism": "chalet"}}, {"type": "node", "id": 10973850364, "lat": 36.2797149, "lon": 27.9452101, "tags": {"tourism": "viewpoint"}}, {"type": "node", "id": 11180659259, "lat": 36.2785133, "lon": 27.9459521, "tags": {"tourism": "picnic_site"}}, {"type": "node", "id": 11180659260, "lat": 36.278401, "lon": 27.9460799, "tags": {"name:en": "Big area for camp", "tourism": "camp_site"}}, {"type": "node", "id": 11180662937, "lat": 36.2788006, "lon": 27.9451581, "tags": {"name:en": "Place for tents", "tourism": "camp_site"}}, {"type": "node", "id": 8888184414, "lat": 36.2849418, "lon": 27.9479755, "tags": {"drinking_water": "yes", "fixme": "Greek name missing; exact position missing", "name:de": "Nymph", "natural": "spring"}}, {"type": "node", "id": 10973850363, "lat": 36.2847529, "lon": 27.9469209, "tags": {"amenity": "drinking_water"}}, {"type": "node", "id": 11180659142, "lat": 36.2849654, "lon": 27.9472222, "tags": {"tourism": "picnic_site"}}, {"type": "node", "id": 11188184138, "lat": 36.2849631, "lon": 27.9472885, "tags": {"name:en": "Parking", "tourism": "caravan_site"}}, {"type": "node", "id": 1273082676, "lat": 36.2742616, "lon": 27.9974747, "tags": {"amenity": "drinking_water", "check_date": "2023-04-15", "ele": "330", "fountain": "drinking"}}, {"type": "node", "id": 2478287954, "lat": 36.2742772, "lon": 27.9971331, "tags": {"fireplace": "yes", "tourism": "picnic_site"}}, {"type": "node", "id": 3658354438, "lat": 36.2742972, "lon": 27.9972628, "tags": {"access": "yes", "amenity": "parking", "fee": "no", "name": "Αγιοσ Νικολαοσ Φουντουκλι", "name:el": "Αγιοσ Νικολαοσ Φουντουκλι", "name:en": "Agios Nikolaos Foundoukli", "parking": "surface"}}, {"type": "node", "id": 9950147810, "lat": 36.3182291, "lon": 27.9355748, "tags": {"castle_type": "towerhouse", "historic": "castle", "historic:civilization": "medieval", "image": "https://www.kastra.eu/pics/myrtonas2.JPG", "name": "Πυργόσπιτο Αγίας Άννας", "name:el": "Πυργόσπιτο Αγίας Άννας", "name:en": "Towerhouse of Agia Anna", "source": "https://www.kastra.eu/castlegr.php?kastro=aganna", "wikidata": "Q108612367"}}, {"type": "node", "id": 1267523486, "lat": 36.341939, "lon": 27.9156298, "tags": {"amenity": "restaurant", "cuisine": "greek", "internet_access": "wlan", "name": "Porto Antico", "opening_hours": "Mo-Su 09:00-21:00", "website": "https://www.portoantico.gr/index.php/ru/"}}, {"type": "node", "id": 1267524048, "lat": 36.3419719, "lon": 27.9169438, "tags": {"amenity": "restaurant", "cuisine": "greek", "name": "Old Kamiros"}}, {"type": "node", "id": 1836289337, "lat": 36.3371475, "lon": 27.9201368, "tags": {"amenity": "shelter"}}, {"type": "node", "id": 1836289418, "lat": 36.3372642, "lon": 27.9200966, "tags": {"amenity": "drinking_water"}}, {"type": "node", "id": 260604494, "lat": 36.3443592, "lon": 27.9267365, "tags": {"amenity": "restaurant", "cuisine": "greek;fish", "name": "Akrogiali", "opening_hours": "Mo-Su 10:00-21:00", "phone": "00302241040038"}}, {"type": "node", "id": 260604493, "lat": 36.345708, "lon": 27.9344438, "tags": {"amenity": "restaurant", "cuisine": "greek", "name": "Dionysos Steki"}}, {"type": "node", "id": 10982399827, "lat": 36.3454375, "lon": 27.9333785, "tags": {"amenity": "restaurant", "cuisine": "greek", "name": "Τα Φιλαράκια"}}, {"type": "node", "id": 1400254425, "lat": 36.3419192, "lon": 27.9474786, "tags": {"amenity": "fuel", "brand": "SILKOIL", "name": "SILKOIL", "operator": "ΠΟΝΗΡΗ ΜΑΡΙΑ"}}, {"type": "node", "id": 6433644971, "lat": 36.3396786, "lon": 27.9486076, "tags": {"amenity": "cafe", "name": "StoneCafé"}}, {"type": "node", "id": 6761414686, "lat": 36.3409514, "lon": 27.9464945, "tags": {"amenity": "restaurant"}}, {"type": "node", "id": 6762322752, "lat": 36.3398677, "lon": 27.9484419, "tags": {"amenity": "restaurant"}}, {"type": "node", "id": 6762322753, "lat": 36.3397792, "lon": 27.9482036, "tags": {"shop": "convenience"}}, {"type": "node", "id": 259196189, "lat": 36.34325, "lon": 27.948798, "tags": {"created_by": "JOSM", "name": "Vouras", "tourism": "hotel"}}, {"type": "node", "id": 881849474, "lat": 36.3492912, "lon": 27.9493744, "tags": {"amenity": "restaurant", "cuisine": "greek", "name": "Nikos Surf House"}}, {"type": "node", "id": 1387637708, "lat": 36.349045, "lon": 27.9485483, "tags": {"amenity": "restaurant", "cuisine": "fish", "name": "Sea House"}}, {"type": "node", "id": 1400199184, "lat": 36.3486943, "lon": 27.9486695, "tags": {"access": "customers", "amenity": "parking", "capacity": "20", "fee": "no"}}, {"type": "node", "id": 1400199188, "lat": 36.3490183, "lon": 27.9494742, "tags": {"access": "yes", "amenity": "parking", "capacity": "10", "fee": "no", "parking": "surface"}}, {"type": "node", "id": 1400256034, "lat": 36.3491911, "lon": 27.9494259, "tags": {"name": "Nikos Surf House", "tourism": "hotel", "wheelchair": "no"}}, {"type": "node", "id": 1400253155, "lat": 36.3441964, "lon": 27.9535136, "tags": {"amenity": "pharmacy", "healthcare": "pharmacy"}}, {"type": "node", "id": 1400253159, "lat": 36.3441618, "lon": 27.9532937, "tags": {"amenity": "restaurant", "name": "Grill"}}, {"type": "node", "id": 1400219096, "lat": 36.346753, "lon": 27.9628631, "tags": {"amenity": "fuel", "brand": "EKO", "brand:wikidata": "Q31283948", "name": "EKO", "operator": "ΠΑΠΑΘΕΟΔΩΡΟΥ ΙΩΑΝΝΗΣ"}}, {"type": "node", "id": 12144151959, "lat": 36.3479499, "lon": 27.9660639, "tags": {"amenity": "restaurant", "cuisine": "fish", "name": "Kalamaki fish restaurant", "opening_hours": "Mo-Su 08:00-22:00"}}, {"type": "node", "id": 1342038416, "lat": 36.3533367, "lon": 27.9609807, "tags": {"amenity": "parking"}}, {"type": "node", "id": 10907606561, "lat": 36.3505373, "lon": 27.9581674, "tags": {"addr:city": "Fanes", "addr:postcode": "85106", "email": "villaeos@outlook.com", "name": "Villa Eos", "tourism": "chalet"}}, {"type": "node", "id": 10034976964, "lat": 36.349976, "lon": 27.9787335, "tags": {"amenity": "fuel", "brand": "Aegean", "brand:wikidata": "Q28146598", "name": "AEGEAN", "operator": "ΝΙΚΟΛΙΤΣΗ ΑΙΚΑΤΕΡΙΝΗ"}}, {"type": "node", "id": 2451542952, "lat": 36.3610382, "lon": 27.9734874, "tags": {"internet_access": "wlan", "name": "Hotel Taverna Delphini", "tourism": "hotel"}}, {"type": "node", "id": 6696418485, "lat": 36.3624828, "lon": 27.9756241, "tags": {"amenity": "cafe", "name:en": "akrogiali"}}, {"type": "node", "id": 946042402, "lat": 36.3600402, "lon": 27.979222, "tags": {"name": "Mike's", "tourism": "guest_house"}}, {"type": "node", "id": 2451546479, "lat": 36.3612541, "lon": 27.9776822, "tags": {"name": "Appartements Litsa", "tourism": "hotel"}}, {"type": "node", "id": 1400226697, "lat": 36.3547825, "lon": 27.9850478, "tags": {"amenity": "pharmacy", "healthcare": "pharmacy"}}, {"type": "node", "id": 1400226710, "lat": 36.3554206, "lon": 27.9856202, "tags": {"name": "EASD Supermarket", "payment:cash": "yes", "payment:contactless": "yes", "payment:debit_cards": "yes", "shop": "supermarket"}}, {"type": "node", "id": 2872519204, "lat": 36.3540186, "lon": 27.9847752, "tags": {"amenity": "fuel", "brand": "SILKOIL", "name": "SILKOIL", "operator": "ΑΡΦΑΡΑΣ ΝΙΚΗΤΑΣ"}}, {"type": "node", "id": 4383839889, "lat": 36.363077, "lon": 27.9757928, "tags": {"amenity": "cafe", "internet_access": "wlan", "name:en": "zicina"}}, {"type": "node", "id": 881848296, "lat": 36.3637187, "lon": 27.9777033, "tags": {"amenity": "parking", "fee": "no", "park_ride": "no", "parking": "surface"}}, {"type": "node", "id": 4171775794, "lat": 36.3643213, "lon": 27.9801024, "tags": {"shop": "convenience"}}, {"type": "node", "id": 4756148322, "lat": 36.3641794, "lon": 27.977513, "tags": {"name": "prieplauka", "tourism": "viewpoint"}}, {"type": "node", "id": 1400226713, "lat": 36.3580954, "lon": 27.9970137, "tags": {"amenity": "restaurant", "cuisine": "italian"}}, {"type": "node", "id": 2872520253, "lat": 36.3619452, "lon": 27.998126, "tags": {"amenity": "drinking_water"}}, {"type": "node", "id": 5692463921, "lat": 36.3708478, "lon": 27.9978896, "tags": {"amenity": "restaurant", "name": "Ελένη", "name:el": "Ελένη", "name:en": "Eleni"}}, {"type": "node", "id": 4946986430, "lat": 36.5656251, "lon": 27.1380533, "tags": {"information": "guidepost", "name": "red arrow and blue dot", "tourism": "information"}}, {"type": "node", "id": 4946986425, "lat": 36.5663216, "lon": 27.1344052, "tags": {"tourism": "viewpoint"}}, {"type": "node", "id": 4946986471, "lat": 36.5660782, "lon": 27.1413092, "tags": {"information": "guidepost", "name": "D", "tourism": "information"}}, {"type": "node", "id": 4946986697, "lat": 36.5786565, "lon": 27.1470317, "tags": {"information": "guidepost", "note": "blue arrow old mark and cairn marked trail", "tourism": "information"}}, {"type": "node", "id": 4946410069, "lat": 36.5743555, "lon": 27.1550193, "tags": {"amenity": "parking"}}, {"type": "node", "id": 9951597837, "lat": 36.5741614, "lon": 27.1557604, "tags": {"castle_type": "castle", "historic": "castle", "historic:civilization": "ancient_greek", "image": "https://www.kastra.eu/pics/argonisyros02.JPG", "name": "Κάστρο Άργους Νισύρου", "name:el": "Κάστρο Άργους Νισύρου", "name:en": "Kokkinokastro of Symi", "source": "https://www.kastra.eu/castlegr.php?kastro=argonisyro"}}, {"type": "node", "id": 4946414659, "lat": 36.6045277, "lon": 27.1318826, "tags": {"information": "guidepost", "name": "MANDRAKI", "tourism": "information"}}, {"type": "node", "id": 4946414660, "lat": 36.6044561, "lon": 27.1318772, "tags": {"information": "guidepost", "name": "KASTRO, MONASTERY", "tourism": "information"}}, {"type": "node", "id": 1473231681, "lat": 36.6064431, "lon": 27.1308499, "tags": {"name": "Ancient Castle", "name:de": "Akropolis von Mandraki", "tourism": "attraction"}}, {"type": "node", "id": 4941126426, "lat": 36.6107341, "lon": 27.1302974, "tags": {"amenity": "shelter"}}, {"type": "node", "id": 4941204370, "lat": 36.6056097, "lon": 27.1291803, "tags": {"name": "Profiti Ilias view", "tourism": "viewpoint"}}, {"type": "node", "id": 4946414654, "lat": 36.6106189, "lon": 27.1318129, "tags": {"information": "guidepost", "tourism": "information"}}, {"type": "node", "id": 4946414655, "lat": 36.610494, "lon": 27.131597, "tags": {"information": "guidepost", "tourism": "information"}}, {"type": "node", "id": 4946414657, "lat": 36.6063988, "lon": 27.1308265, "tags": {"board_type": "history", "check_date": "2023-07-25", "information": "board", "name": "historic church", "tourism": "information"}}, {"type": "node", "id": 4946414658, "lat": 36.6060479, "lon": 27.1315802, "tags": {"board_type": "history", "check_date": "2023-07-25", "information": "board", "name": "acient city wall of Nisyros", "tourism": "information"}}, {"type": "node", "id": 5766323754, "lat": 36.6060013, "lon": 27.1301861, "tags": {"historic": "castle", "name": "Παλαιόκαστρο"}}, {"type": "node", "id": 7736649785, "lat": 36.6108998, "lon": 27.130793, "tags": {"amenity": "restaurant", "name:de": "Oxos"}}, {"type": "node", "id": 8989651417, "lat": 36.6114252, "lon": 27.1317494, "tags": {"tourism": "viewpoint"}}, {"type": "node", "id": 9951594277, "lat": 36.6108762, "lon": 27.1304587, "tags": {"castle_type": "fortification", "historic": "castle", "historic:civilization": "medieval_christianity", "image": "https://www.kastra.eu/pics/niayroa0.jpg", "name": "Κοκκινόκαστρο Σύμης", "name:el": "Κοκκινόκαστρο Σύμης", "name:en": "Mandraki Castle", "source": "https://www.kastra.eu/castlegr.php?kastro=mandraki", "start_date": "1315", "wikidata": "Q108752007"}}, {"type": "node", "id": 4946405850, "lat": 36.5931573, "lon": 27.1372265, "tags": {"information": "guidepost", "note": "red dot marked trail", "tourism": "information"}}, {"type": "node", "id": 4946405299, "lat": 36.5890899, "lon": 27.1451059, "tags": {"information": "guidepost", "name": "S", "tourism": "information"}}, {"type": "node", "id": 4946405749, "lat": 36.5857894, "lon": 27.1469499, "tags": {"information": "guidepost", "name": "Trailhead PR", "tourism": "information"}}, {"type": "node", "id": 2945490071, "lat": 36.5912839, "lon": 27.1552587, "tags": {"information": "guidepost", "name": "red arrow", "tourism": "information"}}, {"type": "node", "id": 4942805654, "lat": 36.587984, "lon": 27.1576774, "tags": {"name": "Caldera view", "tourism": "viewpoint"}}, {"type": "node", "id": 2945457112, "lat": 36.5979737, "lon": 27.1508092, "tags": {"information": "guidepost", "tourism": "information"}}, {"type": "node", "id": 4946405249, "lat": 36.5924323, "lon": 27.1451797, "tags": {"information": "guidepost", "name": "S", "tourism": "information"}}, {"type": "node", "id": 2945457127, "lat": 36.5954412, "lon": 27.1520376, "tags": {"information": "guidepost", "tourism": "information"}}, {"type": "node", "id": 2945490046, "lat": 36.5938924, "lon": 27.1539919, "tags": {"description": "to Profiti Ilias or to Nymphios", "information": "guidepost", "tourism": "information"}},