{"id": "32--85", "latMin": 32, "lonMin": -85, "latMax": 33, "lonMax": -84, "generated": "2026-04-16T18:39:07.283Z", "count": 6, "pois": [{"type": "node", "id": 9438348817, "lat": 32.533515, "lon": -84.971339, "tags": {"amenity": "charging_station", "name": "EV Charging Station", "_source": "worldwide"}}, {"type": "node", "id": 12614934361, "lat": 32.09046, "lon": -84.66677, "tags": {"amenity": "charging_station", "access": "yes", "brand": "ChargePoint", "operator": "ChargePoint", "name": "ChargePoint", "_source": "worldwide"}}, {"type": "node", "id": 12877040855, "lat": 32.531644, "lon": -84.970331, "tags": {"amenity": "charging_station", "fee": "yes", "opening_hours": "24/7", "brand": "ChargePoint", "network": "ChargePoint", "operator": "Georgia Power", "name": "ChargePoint", "_source": "worldwide"}}, {"type": "node", "id": 12877040856, "lat": 32.506085, "lon": -84.94133, "tags": {"amenity": "charging_station", "fee": "yes", "brand": "ChargePoint", "network": "ChargePoint", "operator": "Georgia Power", "name": "ChargePoint", "_source": "worldwide"}}, {"type": "node", "id": 12887297492, "lat": 32.44395, "lon": -84.9717, "tags": {"amenity": "charging_station", "fee": "yes", "access": "yes", "opening_hours": "24/7", "brand": "Circle K", "network": "Circle K Charge", "name": "Circle K Charge", "addr:street": "South Georgia Parkway West", "addr:housenumber": "1736", "addr:postcode": "31909", "addr:city": "Columbus", "addr:country": "US", "socket:type1_combo": "4", "capacity": "4", "_source": "worldwide"}}, {"type": "node", "id": 12887833879, "lat": 32.48004, "lon": -84.94332, "tags": {"amenity": "charging_station", "fee": "yes", "access": "yes", "opening_hours": "24/7", "brand": "Tesla Supercharger", "network": "Supercharger", "operator": "Tesla, Inc.", "name": "Tesla Supercharger", "addr:street": "Macon Road", "addr:housenumber": "3172", "addr:postcode": "31906", "addr:city": "Columbus", "addr:country": "US", "capacity": "8", "_source": "worldwide"}}]}