{"id": "33-120", "latMin": 33, "lonMin": 120, "latMax": 34, "lonMax": 121, "generated": "2026-04-16T18:39:07.292Z", "count": 6, "pois": [{"type": "node", "id": 13026952928, "lat": 33.388379, "lon": 120.232919, "tags": {"amenity": "charging_station", "brand": "小鹏", "name": "小鹏超充站", "_source": "worldwide"}}, {"type": "node", "id": 13033632528, "lat": 33.55598, "lon": 120.203943, "tags": {"amenity": "charging_station", "brand": "NIO Power", "name": "蔚来超充站", "_source": "worldwide"}}, {"type": "node", "id": 13343864535, "lat": 33.396134, "lon": 120.243482, "tags": {"amenity": "charging_station", "name": "盐城奕电新能源科技有限公司充电站", "_source": "worldwide"}}, {"type": "node", "id": 13432604781, "lat": 33.188146, "lon": 120.396902, "tags": {"amenity": "charging_station", "name": "盐城市大丰区老鸿安物流有限公司充电站", "_source": "worldwide"}}, {"type": "node", "id": 13437899155, "lat": 33.423458, "lon": 120.081915, "tags": {"amenity": "charging_station", "name": "盐城市瑞程祥新能源科技有限公司充电站", "_source": "worldwide"}}, {"type": "node", "id": 13720991310, "lat": 33.524477, "lon": 120.006208, "tags": {"amenity": "charging_station", "brand": "石化易电", "name": "石化易电", "_source": "worldwide"}}]}