{"id": "39--105", "latMin": 39, "lonMin": -105, "latMax": 40, "lonMax": -104, "generated": "2026-04-16T18:39:07.702Z", "count": 82, "pois": [{"type": "node", "id": 38522, "lat": 39.843886, "lon": -104.771138, "tags": {"amenity": "charging_station", "access": "public", "fee": "yes", "opening_hours": "24 hours daily; pay lot", "status": "E", "operator": "P", "name": "Denver International Airport - Canopy Airport Parking", "addr:street": "8100 Tower Rd", "addr:postcode": "80022", "addr:city": "Commerce City", "addr:country": "US", "socket:chademo": "1", "socket:chademo:output": "50 kW", "socket:type1": "1", "socket:type1:output": "7.2 kW", "charging_station:output": "50 kW", "capacity": "28", "_source": "worldwide"}}, {"type": "node", "id": 3687502335, "lat": 39.528405, "lon": -104.940871, "tags": {"amenity": "charging_station", "fee": "yes", "brand": "Blink", "operator": "Blink", "name": "Blink", "socket:type1": "1", "capacity": "1", "_source": "worldwide"}}, {"type": "node", "id": 3687506828, "lat": 39.541921, "lon": -104.912539, "tags": {"amenity": "charging_station", "fee": "yes", "brand": "Blink", "operator": "Blink", "name": "Blink", "socket:type1": "1", "capacity": "1", "_source": "worldwide"}}, {"type": "node", "id": 3687507431, "lat": 39.549812, "lon": -104.99266, "tags": {"amenity": "charging_station", "fee": "yes", "brand": "Blink", "operator": "Blink", "name": "Blink", "socket:type1": "1", "capacity": "1", "_source": "worldwide"}}, {"type": "node", "id": 3687509823, "lat": 39.702366, "lon": -104.865222, "tags": {"amenity": "charging_station", "brand": "eVgo", "operator": "eVgo", "name": "eVgo", "socket:chademo": "1", "socket:type1": "2", "socket:type1_combo": "1", "capacity": "4", "_source": "worldwide"}}, {"type": "node", "id": 3687514957, "lat": 39.697275, "lon": -104.847635, "tags": {"amenity": "charging_station", "fee": "yes", "opening_hours": "24/7", "name": "SemaCharge", "socket:type1": "1", "capacity": "1", "_source": "worldwide"}}, {"type": "node", "id": 3687516539, "lat": 39.691963, "lon": -104.827853, "tags": {"amenity": "charging_station", "fee": "no", "name": "GE WattStation", "socket:type1": "1", "capacity": "1", "_source": "worldwide"}}, {"type": "node", "id": 3687518191, "lat": 39.675417, "lon": -104.809412, "tags": {"amenity": "charging_station", "fee": "yes", "opening_hours": "24/7", "name": "SemaCharge", "socket:type1": "1", "capacity": "1", "_source": "worldwide"}}, {"type": "node", "id": 3687519805, "lat": 39.652561, "lon": -104.905275, "tags": {"amenity": "charging_station", "fee": "yes", "brand": "Blink", "operator": "Blink", "name": "Blink", "socket:type1": "1", "capacity": "1", "_source": "worldwide"}}, {"type": "node", "id": 3687524856, "lat": 39.696147, "lon": -104.97953, "tags": {"amenity": "charging_station", "brand": "ChargePoint", "operator": "ChargePoint", "name": "ChargePoint", "socket:type1": "2", "capacity": "2", "_source": "worldwide"}}, {"type": "node", "id": 3728458593, "lat": 39.77514, "lon": -104.79468, "tags": {"amenity": "charging_station", "fee": "yes", "access": "customers", "opening_hours": "24/7", "brand": "Tesla Supercharger", "network": "Supercharger", "operator": "Tesla", "name": "Tesla Supercharger", "addr:street": "Airport Way", "addr:housenumber": "4310", "addr:postcode": "80239", "addr:city": "Denver", "addr:country": "US", "capacity": "6", "_source": "worldwide"}}, {"type": "node", "id": 3728603328, "lat": 39.56273, "lon": -104.87343, "tags": {"amenity": "charging_station", "fee": "yes", "access": "customers", "opening_hours": "24/7", "brand": "Tesla Supercharger", "network": "Supercharger", "operator": "Tesla", "name": "Lone Tree Supercharger", "addr:street": "Park Meadows Center Drive", "addr:housenumber": "8401", "addr:postcode": "80124-5128", "addr:city": "Lone Tree", "addr:country": "US", "capacity": "10", "_source": "worldwide"}}, {"type": "node", "id": 4149053421, "lat": 39.626511, "lon": -104.896104, "tags": {"amenity": "charging_station", "fee": "no", "access": "customers", "opening_hours": "24/7", "brand": "Tesla", "operator": "Hampden Inn & Suites Denver Tech Center", "name": "Tesla Destination Charger", "addr:street": "South Ulster Street", "addr:housenumber": "5001", "addr:postcode": "80237", "addr:city": "Denver", "addr:country": "US", "capacity": "1", "_source": "worldwide"}}, {"type": "node", "id": 4404165620, "lat": 39.757889, "lon": -104.998092, "tags": {"amenity": "charging_station", "opening_hours": "24/7", "operator": "City of Denver", "name": "Chestnut Public Parking Lot", "addr:street": "Chestnut Place", "addr:housenumber": "2004", "addr:postcode": "80202", "addr:city": "Denver", "_source": "worldwide"}}, {"type": "node", "id": 5780722892, "lat": 39.719667, "lon": -104.897234, "tags": {"amenity": "charging_station", "name": "EV Charging Station", "_source": "worldwide"}}, {"type": "node", "id": 7065463682, "lat": 39.961696, "lon": -104.991197, "tags": {"amenity": "charging_station", "fee": "yes", "access": "yes", "brand": "eVgo", "operator": "eVgo", "name": "eVgo", "_source": "worldwide"}}, {"type": "node", "id": 7065463683, "lat": 39.963152, "lon": -104.989931, "tags": {"amenity": "charging_station", "fee": "yes", "access": "yes", "brand": "EVgo", "operator": "EVgo", "name": "eVgo", "_source": "worldwide"}}, {"type": "node", "id": 7631030921, "lat": 39.914824, "lon": -104.986678, "tags": {"amenity": "charging_station", "fee": "yes", "access": "yes", "opening_hours": "24/7", "brand": "Tesla Supercharger", "network": "Supercharger", "operator": "Tesla", "name": "Tesla Supercharger", "addr:street": "East 120th Avenue", "addr:housenumber": "237", "addr:postcode": "80233", "addr:city": "Thornton", "addr:country": "US", "capacity": "8", "_source": "worldwide"}}, {"type": "node", "id": 7667951801, "lat": 39.698606, "lon": -104.912088, "tags": {"amenity": "charging_station", "brand": "eVgo", "operator": "eVgo", "name": "eVgo", "_source": "worldwide"}}, {"type": "node", "id": 8143811845, "lat": 39.613564, "lon": -104.813199, "tags": {"amenity": "charging_station", "fee": "yes", "access": "yes", "brand": "Electrify America", "operator": "Electrify America", "name": "Electrify America Walmart 1689", "socket:type1_combo": "4", "capacity": "4", "_source": "worldwide"}}, {"type": "node", "id": 8597035053, "lat": 39.775029, "lon": -104.795136, "tags": {"amenity": "charging_station", "fee": "no", "operator": "Hampton Inn", "name": "Hampton Inn", "capacity": "2", "_source": "worldwide"}}, {"type": "node", "id": 8597035054, "lat": 39.7746, "lon": -104.795608, "tags": {"amenity": "charging_station", "fee": "no", "operator": "Hampton Inn", "name": "Hampton Inn", "capacity": "2", "_source": "worldwide"}}, {"type": "node", "id": 8597035056, "lat": 39.774806, "lon": -104.795639, "tags": {"amenity": "charging_station", "fee": "no", "operator": "Hampton Inn", "name": "Hampton Inn", "capacity": "2", "_source": "worldwide"}}, {"type": "node", "id": 8633508320, "lat": 39.605822, "lon": -104.706381, "tags": {"amenity": "charging_station", "fee": "yes", "access": "yes", "brand": "Electrify America", "operator": "Electrify America", "name": "Electrify America Walmart 5137", "socket:chademo": "1", "capacity": "1", "_source": "worldwide"}}, {"type": "node", "id": 8872812831, "lat": 39.971945, "lon": -104.748552, "tags": {"amenity": "charging_station", "fee": "yes", "access": "yes", "opening_hours": "24/7", "brand": "Tesla Supercharger", "network": "Supercharger", "operator": "Tesla", "name": "Tesla Supercharger", "addr:street": "East Bromley Lane", "addr:housenumber": "5112", "addr:postcode": "80603", "addr:city": "Brighton", "addr:country": "US", "capacity": "8", "_source": "worldwide"}}, {"type": "node", "id": 8872812832, "lat": 39.971395, "lon": -104.748726, "tags": {"amenity": "charging_station", "brand": "ChargePoint", "operator": "ChargePoint", "name": "ChargePoint", "_source": "worldwide"}}, {"type": "node", "id": 9010663646, "lat": 39.0923, "lon": -104.85254, "tags": {"amenity": "charging_station", "fee": "yes", "access": "yes", "opening_hours": "24/7", "brand": "Tesla Supercharger", "network": "Supercharger", "operator": "Tesla", "name": "Monument Supercharger", "addr:street": "Knollwood Drive", "addr:housenumber": "17970", "addr:postcode": "80132", "addr:city": "Monument", "addr:country": "US", "capacity": "8", "_source": "worldwide"}}, {"type": "node", "id": 9021414085, "lat": 39.56722, "lon": -104.87793, "tags": {"amenity": "charging_station", "fee": "yes", "access": "yes", "opening_hours": "24/7", "brand": "Tesla Supercharger", "network": "Supercharger", "operator": "Tesla", "name": "Centennial Supercharger", "addr:street": "East County Line Road", "addr:housenumber": "9535", "addr:postcode": "80112", "addr:city": "Centennial", "addr:country": "US", "capacity": "12", "_source": "worldwide"}}, {"type": "node", "id": 9025785769, "lat": 39.626304, "lon": -104.901239, "tags": {"amenity": "charging_station", "fee": "no", "name": "EV Charging Station", "_source": "worldwide"}}, {"type": "node", "id": 9188371096, "lat": 39.718413, "lon": -104.72529, "tags": {"amenity": "charging_station", "access": "yes", "brand": "ChargePoint", "operator": "ChargePoint", "name": "ChargePoint", "_source": "worldwide"}}, {"type": "node", "id": 9202939622, "lat": 39.637147, "lon": -104.6853, "tags": {"amenity": "charging_station", "fee": "yes", "access": "permissive", "brand": "ChargePoint", "operator": "ChargePoint", "name": "ChargePoint", "_source": "worldwide"}}, {"type": "node", "id": 9211175857, "lat": 39.770645, "lon": -104.898636, "tags": {"amenity": "charging_station", "fee": "yes", "access": "yes", "brand": "Electrify America", "operator": "Electrify America", "name": "Electrify America Walmart 3533", "socket:type1_combo": "6", "capacity": "6", "_source": "worldwide"}}, {"type": "node", "id": 9429713001, "lat": 39.407527, "lon": -104.857413, "tags": {"amenity": "charging_station", "fee": "yes", "access": "yes", "brand": "Electrify America", "operator": "Electrify America", "name": "Electrify America Target T1326", "socket:type1_combo": "4", "capacity": "4", "_source": "worldwide"}}, {"type": "node", "id": 9701994161, "lat": 39.672553, "lon": -104.79073, "tags": {"amenity": "charging_station", "access": "yes", "brand": "eVgo", "operator": "eVgo", "name": "eVgo", "_source": "worldwide"}}, {"type": "node", "id": 9750221245, "lat": 39.914061, "lon": -104.809597, "tags": {"amenity": "charging_station", "fee": "yes", "access": "yes", "brand": "ChargePoint", "operator": "ChargePoint", "name": "ChargePoint", "_source": "worldwide"}}, {"type": "node", "id": 9767472346, "lat": 39.887458, "lon": -104.813, "tags": {"amenity": "charging_station", "fee": "yes", "access": "yes", "brand": "Electrify America", "operator": "Electrify America", "name": "Electrify America Kroger King Soopers 114", "socket:type1_combo": "4", "capacity": "4", "_source": "worldwide"}}, {"type": "node", "id": 9839682839, "lat": 39.775351, "lon": -104.794627, "tags": {"amenity": "charging_station", "name": "EV Charging Station", "capacity": "2", "_source": "worldwide"}}, {"type": "node", "id": 9873220861, "lat": 39.808055, "lon": -104.78325, "tags": {"amenity": "charging_station", "name": "EV Charging Station", "_source": "worldwide"}}, {"type": "node", "id": 9890330093, "lat": 39.534205, "lon": -104.88255, "tags": {"amenity": "charging_station", "fee": "yes", "access": "yes", "brand": "ChargePoint", "operator": "ChargePoint", "name": "ChargePoint", "_source": "worldwide"}}, {"type": "node", "id": 9917786421, "lat": 39.978636, "lon": -104.741833, "tags": {"amenity": "charging_station", "access": "yes", "brand": "ChargePoint", "operator": "ChargePoint", "name": "ChargePoint Charging Station", "_source": "worldwide"}}, {"type": "node", "id": 10093439094, "lat": 39.552397, "lon": -104.881044, "tags": {"amenity": "charging_station", "fee": "no", "access": "customers", "brand": "ChargePoint", "operator": "ChargePoint", "name": "ChargePoint", "_source": "worldwide"}}, {"type": "node", "id": 10135801994, "lat": 39.740304, "lon": -104.812487, "tags": {"amenity": "charging_station", "brand": "EVgo", "operator": "EVgo", "name": "eVgo", "_source": "worldwide"}}, {"type": "node", "id": 10138385672, "lat": 39.774731, "lon": -104.882574, "tags": {"amenity": "charging_station", "brand": "ChargePoint", "operator": "ChargePoint", "name": "ChargePoint", "_source": "worldwide"}}, {"type": "node", "id": 10568287332, "lat": 39.799963, "lon": -104.771109, "tags": {"amenity": "charging_station", "fee": "yes", "access": "yes", "brand": "Electrify America", "operator": "Electrify America", "name": "Electrify America Evergreen 56th and Tower", "socket:type1_combo": "6", "capacity": "6", "_source": "worldwide"}}, {"type": "node", "id": 10763207825, "lat": 39.938052, "lon": -104.751048, "tags": {"amenity": "charging_station", "fee": "no", "access": "yes", "brand": "Rivian", "name": "Rivian", "_source": "worldwide"}}, {"type": "node", "id": 10798189001, "lat": 39.764332, "lon": -104.848784, "tags": {"amenity": "charging_station", "name": "EV Charging Station", "_source": "worldwide"}}, {"type": "node", "id": 10798189605, "lat": 39.764609, "lon": -104.848684, "tags": {"amenity": "charging_station", "name": "EV Charging Station", "_source": "worldwide"}}, {"type": "node", "id": 10947711370, "lat": 39.655176, "lon": -104.98911, "tags": {"amenity": "charging_station", "fee": "yes", "access": "yes", "brand": "Electrify America", "network": "Electrify America", "operator": "Electrify America", "name": "Electrify America Kroger King Soopers 65", "socket:type1_combo": "4", "capacity": "4", "_source": "worldwide"}}, {"type": "node", "id": 11013130300, "lat": 39.80408, "lon": -104.77087, "tags": {"amenity": "charging_station", "fee": "yes", "access": "yes", "opening_hours": "24/7", "brand": "Tesla Supercharger", "network": "Supercharger", "operator": "Tesla", "name": "Tesla Supercharger", "addr:street": "Tower Road", "addr:housenumber": "5940", "addr:postcode": "80249", "addr:city": "Denver", "addr:country": "US", "capacity": "16", "_source": "worldwide"}}, {"type": "node", "id": 11013141470, "lat": 39.77831, "lon": -104.848532, "tags": {"amenity": "charging_station", "fee": "yes", "access": "yes", "opening_hours": "24/7", "brand": "Tesla Supercharger", "network": "Supercharger", "operator": "Tesla", "name": "Tesla Supercharger", "addr:street": "East 45th Avenue", "addr:housenumber": "12075", "addr:postcode": "80239", "addr:city": "Denver", "addr:country": "US", "capacity": "8", "_source": "worldwide"}}, {"type": "node", "id": 11189299576, "lat": 39.780835, "lon": -104.795974, "tags": {"amenity": "charging_station", "fee": "yes", "access": "yes", "brand": "Electrify America", "operator": "Electrify America", "name": "Electrify America Costco Denver", "socket:type1_combo": "6", "capacity": "6", "_source": "worldwide"}}, {"type": "node", "id": 11200155596, "lat": 39.608369, "lon": -104.707157, "tags": {"amenity": "charging_station", "fee": "no", "operator": "Volta", "name": "Volta", "_source": "worldwide"}}, {"type": "node", "id": 11286180934, "lat": 39.889393, "lon": -104.990339, "tags": {"amenity": "charging_station", "fee": "yes", "access": "yes", "opening_hours": "24/7", "brand": "Tesla Supercharger", "network": "Supercharger", "operator": "Tesla", "name": "Northglenn Supercharger", "addr:street": "West 104th Avenue", "addr:housenumber": "261", "addr:postcode": "80234", "addr:city": "Northglenn", "addr:country": "US", "socket:type1_combo": "16", "capacity": "32", "_source": "worldwide"}}, {"type": "node", "id": 11374525974, "lat": 39.709371, "lon": -104.933136, "tags": {"amenity": "charging_station", "fee": "yes", "access": "yes", "brand": "Electrify America", "operator": "Electrify America", "name": "Electrify America Kroger King Soopers 124", "socket:type1_combo": "4", "capacity": "4", "_source": "worldwide"}}, {"type": "node", "id": 11393212671, "lat": 39.593639, "lon": -104.882609, "tags": {"amenity": "charging_station", "fee": "yes", "access": "yes", "brand": "Electrify America", "operator": "Electrify America", "name": "Electrify America Target T0147", "socket:type1": "1", "socket:type1_combo": "3", "capacity": "4", "_source": "worldwide"}}, {"type": "node", "id": 11495528360, "lat": 39.775614, "lon": -104.800209, "tags": {"amenity": "charging_station", "brand": "Blink", "operator": "Blink", "name": "Blink", "_source": "worldwide"}}, {"type": "node", "id": 11522153486, "lat": 39.738787, "lon": -104.814205, "tags": {"amenity": "charging_station", "brand": "ChargePoint", "operator": "ChargePoint", "name": "ChargePoint", "_source": "worldwide"}}, {"type": "node", "id": 11829298257, "lat": 39.941227, "lon": -104.991949, "tags": {"amenity": "charging_station", "fee": "yes", "access": "yes", "brand": "Electrify America", "operator": "Electrify America", "name": "Electrify America Walmart 3867", "socket:chademo": "1", "socket:type1_combo": "3", "capacity": "4", "_source": "worldwide"}}, {"type": "node", "id": 11829298262, "lat": 39.942626, "lon": -104.979318, "tags": {"amenity": "charging_station", "brand": "ChargePoint", "operator": "ChargePoint", "name": "ChargePoint", "_source": "worldwide"}}, {"type": "node", "id": 12026884704, "lat": 39.442131, "lon": -104.967681, "tags": {"amenity": "charging_station", "brand": "ChargePoint", "operator": "ChargePoint", "name": "ChargePoint", "_source": "worldwide"}}, {"type": "node", "id": 12032016862, "lat": 39.443018, "lon": -104.966533, "tags": {"amenity": "charging_station", "operator": "EVCS", "name": "EVCS", "_source": "worldwide"}}, {"type": "node", "id": 12212317074, "lat": 39.817784, "lon": -104.773302, "tags": {"amenity": "charging_station", "fee": "yes", "access": "yes", "opening_hours": "24/7", "brand": "Tesla Supercharger", "network": "Supercharger", "operator": "Tesla", "name": "Tesla Supercharger", "addr:street": "Tower Road", "addr:housenumber": "6691", "addr:postcode": "80249", "addr:city": "Denver", "addr:country": "US", "capacity": "8", "_source": "worldwide"}}, {"type": "node", "id": 12437909439, "lat": 39.717857, "lon": -104.905874, "tags": {"amenity": "charging_station", "fee": "yes", "access": "yes", "opening_hours": "24/7", "brand": "Tesla Supercharger", "network": "Supercharger", "operator": "Tesla", "name": "Tesla Supercharger", "addr:street": "North Pontiac Street", "addr:housenumber": "44", "addr:postcode": "80224", "addr:city": "Denver", "addr:country": "US", "capacity": "16", "_source": "worldwide"}}, {"type": "node", "id": 12543215830, "lat": 39.945752, "lon": -104.984008, "tags": {"amenity": "charging_station", "fee": "yes", "access": "yes", "opening_hours": "Mo-Su 05:00-23:00", "brand": "Electrify America", "operator": "Electrify America", "name": "Electrify America Simon Denver Premium Outlets", "socket:type1_combo": "8", "capacity": "8", "_source": "worldwide"}}, {"type": "node", "id": 12583192501, "lat": 39.716456, "lon": -104.95029, "tags": {"amenity": "charging_station", "fee": "yes", "access": "yes", "opening_hours": "24/7", "brand": "Electrify America", "operator": "Electrify America", "name": "Electrify America Taubman Cherry Creek Mall", "addr:street": "East 1st Avenue", "addr:housenumber": "3000", "addr:postcode": "80206", "socket:type1_combo": "6", "capacity": "6", "_source": "worldwide"}}, {"type": "node", "id": 12601546561, "lat": 39.704012, "lon": -104.224381, "tags": {"amenity": "charging_station", "brand": "Blink", "operator": "Blink", "name": "Blink", "_source": "worldwide"}}, {"type": "node", "id": 12604453965, "lat": 39.66659, "lon": -104.86253, "tags": {"amenity": "charging_station", "fee": "yes", "access": "yes", "opening_hours": "24/7", "brand": "Tesla Supercharger", "network": "Supercharger", "operator": "Tesla", "name": "Aurora Supercharger", "addr:street": "South Parker Road", "addr:housenumber": "2751", "addr:postcode": "80014", "addr:city": "Aurora", "addr:country": "US", "socket:type1_combo": "16", "capacity": "32", "_source": "worldwide"}}, {"type": "node", "id": 12608549903, "lat": 39.742586, "lon": -104.43038, "tags": {"amenity": "charging_station", "fee": "yes", "brand": "ChargePoint", "operator": "ChargePoint", "name": "ChargePoint", "_source": "worldwide"}}, {"type": "node", "id": 12656867528, "lat": 39.559491, "lon": -104.783778, "tags": {"amenity": "charging_station", "fee": "yes", "access": "yes", "brand": "Electrify America", "operator": "Electrify America", "name": "Electrify America Kroger King Soopers 126", "socket:chademo": "1", "socket:type1_combo": "4", "capacity": "5", "_source": "worldwide"}}, {"type": "node", "id": 12774493698, "lat": 39.408037, "lon": -104.862984, "tags": {"amenity": "charging_station", "fee": "yes", "access": "yes", "opening_hours": "24/7", "brand": "Tesla Supercharger", "network": "Supercharger", "operator": "Tesla", "name": "Castle Rock Supercharger", "addr:street": "Milestone Lane", "addr:housenumber": "4612", "addr:postcode": "80104", "addr:city": "Castle Rock", "addr:country": "US", "capacity": "16", "_source": "worldwide"}}, {"type": "node", "id": 12776206859, "lat": 39.55597, "lon": -104.864641, "tags": {"amenity": "charging_station", "name": "EV Charging Station", "_source": "worldwide"}}, {"type": "node", "id": 12794590071, "lat": 39.557141, "lon": -104.863314, "tags": {"amenity": "charging_station", "name": "EV Charging Station", "_source": "worldwide"}}, {"type": "node", "id": 12794862208, "lat": 39.557809, "lon": -104.864179, "tags": {"amenity": "charging_station", "name": "EV Charging Station", "_source": "worldwide"}}, {"type": "node", "id": 12917566717, "lat": 39.95641, "lon": -104.98376, "tags": {"amenity": "charging_station", "opening_hours": "24/7", "brand": "Mercedez-Benz", "network": "Mercedes-Benz High-Power Charging", "name": "Mercedez-Benz", "addr:street": "Lincoln Street", "addr:housenumber": "14384", "addr:postcode": "80023", "addr:city": "Thornton", "addr:country": "US", "socket:type1_combo": "9", "capacity": "9", "_source": "worldwide"}}, {"type": "node", "id": 13037623200, "lat": 39.997608, "lon": -104.978517, "tags": {"amenity": "charging_station", "brand": "EVgo", "operator": "EVgo", "name": "EVgo", "_source": "worldwide"}}, {"type": "node", "id": 13058803893, "lat": 39.554389, "lon": -104.876091, "tags": {"amenity": "charging_station", "fee": "no", "access": "customers", "opening_hours": "24/7", "brand": "Tesla", "name": "Tesla Destination Charger", "_source": "worldwide"}}, {"type": "node", "id": 13141622339, "lat": 39.59205, "lon": -104.878367, "tags": {"amenity": "charging_station", "fee": "yes", "access": "yes", "opening_hours": "24/7", "brand": "Tesla Supercharger", "network": "Supercharger", "operator": "Tesla", "name": "Greenwood Village Supercharger", "addr:street": "South Clinton Street", "addr:housenumber": "6880", "addr:postcode": "80112", "addr:city": "Greenwood Village", "addr:country": "US", "capacity": "12", "_source": "worldwide"}}, {"type": "node", "id": 13326849609, "lat": 39.561685, "lon": -104.912291, "tags": {"amenity": "charging_station", "fee": "yes", "access": "yes", "brand": "Electrify America", "operator": "Electrify America", "name": "Electrify America Walmart 1252", "socket:type1_combo": "4", "capacity": "4", "_source": "worldwide"}}, {"type": "node", "id": 13448821577, "lat": 39.579299, "lon": -104.962026, "tags": {"amenity": "charging_station", "fee": "yes", "access": "yes", "brand": "Electrify America", "operator": "Electrify America", "name": "Electrify America Regency Cherrywood SC", "socket:type1_combo": "4", "capacity": "4", "_source": "worldwide"}}, {"type": "node", "id": 13448930359, "lat": 39.625708, "lon": -104.884968, "tags": {"amenity": "charging_station", "fee": "yes", "access": "yes", "brand": "Electrify America", "operator": "Electrify America", "name": "Electrify America Regency Belleview Square", "socket:type1_combo": "6", "capacity": "6", "_source": "worldwide"}}, {"type": "node", "id": 13448930360, "lat": 39.703164, "lon": -104.825682, "tags": {"amenity": "charging_station", "fee": "yes", "access": "yes", "brand": "Electrify America", "operator": "Electrify America", "name": "Electrify America Walmart 1492", "socket:type1": "1", "socket:type1_combo": "3", "capacity": "4", "_source": "worldwide"}}, {"type": "node", "id": 13512815661, "lat": 39.875687, "lon": -104.984517, "tags": {"amenity": "charging_station", "fee": "yes", "access": "yes", "brand": "Electrify America", "operator": "Electrify America", "name": "Electrify America Walmart 1231", "socket:type1_combo": "4", "capacity": "4", "_source": "worldwide"}}]}