{"id": "23-121", "latMin": 23, "lonMin": 121, "latMax": 24, "lonMax": 122, "generated": "2026-04-16T18:39:07.245Z", "count": 16, "pois": [{"type": "node", "id": 7362267909, "lat": 23.120852, "lon": 121.212798, "tags": {"amenity": "charging_station", "brand": "Gogoro 電池交換站", "operator": "Gogoro 電池交換站", "name": "Gogoro 電池交換站", "addr:street": "中山路", "addr:housenumber": "25", "addr:city": "臺東縣", "addr:country": "TW", "_source": "worldwide"}}, {"type": "node", "id": 7362267910, "lat": 23.182739, "lon": 121.252214, "tags": {"amenity": "charging_station", "brand": "Gogoro Network", "operator": "英屬開曼群島商睿能新動力股份有限公司台灣分公司", "name": "Gogoro 電池交換站", "addr:street": "中興路", "addr:housenumber": "85", "addr:city": "花蓮縣", "addr:country": "TW", "_source": "worldwide"}}, {"type": "node", "id": 7362267911, "lat": 23.333666, "lon": 121.312406, "tags": {"amenity": "charging_station", "brand": "Gogoro 電池交換站", "operator": "Gogoro 電池交換站", "name": "Gogoro 電池交換站", "addr:street": "大同路", "addr:housenumber": "219", "addr:city": "花蓮縣", "addr:country": "TW", "_source": "worldwide"}}, {"type": "node", "id": 7362267912, "lat": 23.491184, "lon": 121.376138, "tags": {"amenity": "charging_station", "brand": "Gogoro 電池交換站", "operator": "Gogoro 電池交換站", "name": "Gogoro 電池交換站", "addr:street": "中正南路一段", "addr:housenumber": "105", "addr:city": "花蓮縣", "addr:country": "TW", "_source": "worldwide"}}, {"type": "node", "id": 7362267913, "lat": 23.653409, "lon": 121.417821, "tags": {"amenity": "charging_station", "brand": "Gogoro Network", "operator": "英屬開曼群島商睿能新動力股份有限公司台灣分公司", "name": "Gogoro 電池交換站", "addr:street": "中山路一段", "addr:housenumber": "232", "addr:city": "花蓮縣", "addr:country": "TW", "_source": "worldwide"}}, {"type": "node", "id": 7362267914, "lat": 23.867373, "lon": 121.508743, "tags": {"amenity": "charging_station", "brand": "Gogoro 電池交換站", "operator": "Gogoro 電池交換站", "name": "Gogoro 電池交換站", "addr:street": "壽豐路", "addr:housenumber": "1", "addr:city": "花蓮縣", "addr:country": "TW", "_source": "worldwide"}}, {"type": "node", "id": 7362267915, "lat": 23.953571, "lon": 121.550204, "tags": {"amenity": "charging_station", "brand": "Gogoro Network", "operator": "英屬開曼群島商睿能新動力股份有限公司台灣分公司", "name": "Gogoro 電池交換站", "addr:street": "吉安路五段", "addr:housenumber": "262之1", "addr:city": "花蓮縣", "addr:country": "TW", "_source": "worldwide"}}, {"type": "node", "id": 7362267916, "lat": 23.955689, "lon": 121.601404, "tags": {"amenity": "charging_station", "brand": "Gogoro 電池交換站", "operator": "Gogoro 電池交換站", "name": "Gogoro 電池交換站", "addr:street": "南濱路一段", "addr:housenumber": "116", "addr:city": "花蓮縣", "addr:country": "TW", "_source": "worldwide"}}, {"type": "node", "id": 7362267917, "lat": 23.964134, "lon": 121.589602, "tags": {"amenity": "charging_station", "brand": "Gogoro 電池交換站", "operator": "Gogoro 電池交換站", "name": "Gogoro 電池交換站", "addr:street": "中正路二段", "addr:housenumber": "6", "addr:city": "花蓮縣", "addr:country": "TW", "_source": "worldwide"}}, {"type": "node", "id": 7362856063, "lat": 23.975317, "lon": 121.600292, "tags": {"amenity": "charging_station", "brand": "Gogoro 電池交換站", "operator": "Gogoro 電池交換站", "name": "Gogoro 電池交換站", "addr:street": "中華路", "addr:housenumber": "266", "addr:city": "花蓮縣", "addr:country": "TW", "_source": "worldwide"}}, {"type": "node", "id": 12509092491, "lat": 23.977847, "lon": 121.611768, "tags": {"amenity": "charging_station", "fee": "yes", "access": "yes", "opening_hours": "24/7", "brand": "Tesla Supercharger", "operator": "Tesla, Inc.", "name": "Tesla Supercharger", "socket:tesla_supercharger": "6", "capacity": "12", "_source": "worldwide"}}, {"type": "node", "id": 13618228890, "lat": 23.902192, "lon": 121.547353, "tags": {"amenity": "charging_station", "fee": "yes", "operator": "Far EasTone Telecommunications Co. Ltd", "name": "集賢館充電樁（快充）", "_source": "worldwide"}}, {"type": "node", "id": 13618228891, "lat": 23.894433, "lon": 121.542558, "tags": {"amenity": "charging_station", "fee": "yes", "operator": "Far EasTone Telecommunications Co. Ltd", "name": "行政大樓充電樁（快充）", "_source": "worldwide"}}, {"type": "node", "id": 13618228892, "lat": 23.897372, "lon": 121.545098, "tags": {"amenity": "charging_station", "fee": "yes", "operator": "Far EasTone Telecommunications Co. Ltd", "name": "理工三館充電樁（快充）", "_source": "worldwide"}}, {"type": "node", "id": 13618228894, "lat": 23.895432, "lon": 121.548092, "tags": {"amenity": "charging_station", "fee": "yes", "operator": "Far EasTone Telecommunications Co. Ltd", "name": "東華會館充電樁（快充）", "_source": "worldwide"}}, {"type": "node", "id": 13618228896, "lat": 23.894819, "lon": 121.534403, "tags": {"amenity": "charging_station", "fee": "yes", "operator": "Far EasTone Telecommunications Co. Ltd", "name": "多容館充電樁（慢充）", "_source": "worldwide"}}]}