{"id": "49--126", "latMin": 49, "lonMin": -126, "latMax": 50, "lonMax": -125, "generated": "2026-04-16T18:39:08.244Z", "count": 15, "pois": [{"type": "node", "id": 10861500680, "lat": 49.619931, "lon": -125.032808, "tags": {"amenity": "charging_station", "fee": "no", "access": "customers", "name": "EV Charging Station", "_source": "worldwide"}}, {"type": "node", "id": 11126774667, "lat": 49.15301, "lon": -125.904935, "tags": {"amenity": "charging_station", "name": "EV Charging Station", "_source": "worldwide"}}, {"type": "node", "id": 12114112569, "lat": 49.619085, "lon": -125.032259, "tags": {"amenity": "charging_station", "fee": "yes", "access": "yes", "opening_hours": "24/7", "name": "EV Charging Station", "addr:postcode": "V0R1S0", "_source": "worldwide"}}, {"type": "node", "id": 12672316534, "lat": 49.978962, "lon": -125.246794, "tags": {"amenity": "charging_station", "brand": "ChargePoint", "operator": "ChargePoint", "name": "ChargePoint", "_source": "worldwide"}}, {"type": "node", "id": 12672320184, "lat": 49.978942, "lon": -125.246669, "tags": {"amenity": "charging_station", "brand": "ChargePoint", "operator": "ChargePoint", "name": "ChargePoint", "_source": "worldwide"}}, {"type": "node", "id": 12696933431, "lat": 49.686943, "lon": -125.001533, "tags": {"amenity": "charging_station", "fee": "no", "access": "yes", "name": "EV Charging Station", "_source": "worldwide"}}, {"type": "node", "id": 12696933432, "lat": 49.624306, "lon": -125.027013, "tags": {"amenity": "charging_station", "fee": "no", "access": "private", "name": "EV Charging Station", "_source": "worldwide"}}, {"type": "node", "id": 12709129631, "lat": 49.623728, "lon": -125.036441, "tags": {"amenity": "charging_station", "fee": "no", "name": "EV Charging Station", "_source": "worldwide"}}, {"type": "node", "id": 12777782836, "lat": 49.634968, "lon": -125.004058, "tags": {"amenity": "charging_station", "fee": "no", "brand": "ChargePoint", "name": "ChargePoint", "_source": "worldwide"}}, {"type": "node", "id": 12778469203, "lat": 49.294934, "lon": -125.299695, "tags": {"amenity": "charging_station", "name": "EV Charging Station", "_source": "worldwide"}}, {"type": "node", "id": 12840402198, "lat": 49.153331, "lon": -125.907293, "tags": {"amenity": "charging_station", "fee": "yes", "access": "yes", "opening_hours": "24/7", "brand": "Tesla Supercharger", "network": "Supercharger", "operator": "Tesla, Inc.", "name": "Tesla Supercharger", "addr:street": "First Street", "addr:housenumber": "140", "addr:postcode": "V0R 2Z0", "addr:city": "Tofino", "addr:country": "CA", "capacity": "12", "_source": "worldwide"}}, {"type": "node", "id": 13003408659, "lat": 49.647087, "lon": -125.054262, "tags": {"amenity": "charging_station", "fee": "yes", "access": "yes", "brand": "Flo", "operator": "Flo", "name": "Flo", "_source": "worldwide"}}, {"type": "node", "id": 13125581693, "lat": 49.10642, "lon": -125.872224, "tags": {"amenity": "charging_station", "operator": "Pacific Sands", "name": "Pacific Sands", "_source": "worldwide"}}, {"type": "node", "id": 13126321982, "lat": 49.107049, "lon": -125.873397, "tags": {"amenity": "charging_station", "operator": "Pacific Sands", "name": "Pacific Sands", "_source": "worldwide"}}, {"type": "node", "id": 13327305201, "lat": 49.130911, "lon": -125.900234, "tags": {"amenity": "charging_station", "operator": "PKM", "name": "PKM", "_source": "worldwide"}}]}