{"id": "55--1", "latMin": 55, "lonMin": -1, "latMax": 56, "lonMax": 0, "generated": "2026-04-16T18:39:08.737Z", "count": 58, "pois": [{"type": "node", "id": 2921488587, "lat": 55.028112, "lon": -1.429868, "tags": {"amenity": "charging_station", "operator": "necar", "name": "Ladestation necar", "addr:country": "GB", "capacity": "4", "_source": "worldwide"}}, {"type": "node", "id": 3419906663, "lat": 55.108971, "lon": -1.500113, "tags": {"amenity": "charging_station", "operator": "elektrobay.com", "name": "EV Recharging Point", "addr:country": "GB", "_source": "worldwide"}}, {"type": "node", "id": 3452153970, "lat": 55.095772, "lon": -1.584297, "tags": {"amenity": "charging_station", "opening_hours": "24/7", "operator": "www.chargeyourcar.org.uk", "name": "Cramlington Brockwell Centre", "addr:country": "GB", "socket:type2": "1", "socket:type2:output": "43.0 kW", "socket:type2_combo": "1", "socket:type2_combo:output": "50.0 kW", "socket:chademo": "1", "socket:chademo:output": "50.0 kW", "charging_station:output": "50.0 kW", "authentication:none": "", "_source": "worldwide"}}, {"type": "node", "id": 3497481140, "lat": 55.085653, "lon": -1.631007, "tags": {"amenity": "charging_station", "operator": "chargeyourcar.org.uk", "name": "Northumberlandia", "addr:country": "GB", "socket:type2": "1", "socket:type2:output": "22 kW", "socket:type2_combo": "1", "socket:type2_combo:output": "50 kW", "socket:chademo": "1", "socket:chademo:output": "50 kW", "charging_station:output": "50 kW", "_source": "worldwide"}}, {"type": "node", "id": 3513463753, "lat": 55.009826, "lon": -1.444216, "tags": {"amenity": "charging_station", "addr:country": "GB", "_source": "worldwide"}}, {"type": "node", "id": 3914994010, "lat": 55.126383, "lon": -1.500843, "tags": {"amenity": "charging_station", "addr:country": "GB", "socket:type2": "1", "socket:type2:output": "22 kW", "socket:type2_combo": "1", "socket:type2_combo:output": "50 kW", "socket:chademo": "1", "socket:chademo:output": "50 kW", "charging_station:output": "50 kW", "_source": "worldwide"}}, {"type": "node", "id": 4730747516, "lat": 55.13181, "lon": -1.598011, "tags": {"amenity": "charging_station", "opening_hours": "24/7", "addr:country": "GB", "_source": "worldwide"}}, {"type": "node", "id": 8176433152, "lat": 55.133092, "lon": -1.598177, "tags": {"amenity": "charging_station", "addr:country": "GB", "_source": "worldwide"}}, {"type": "node", "id": 4732633525, "lat": 55.00391, "lon": -1.620032, "tags": {"amenity": "charging_station", "operator": "neca", "name": "Ladestation neca", "addr:country": "GB", "capacity": "3", "_source": "worldwide"}}, {"type": "node", "id": 5446004739, "lat": 55.410713, "lon": -1.697859, "tags": {"amenity": "charging_station", "addr:country": "GB", "_source": "worldwide"}}, {"type": "node", "id": 6199866257, "lat": 55.186663, "lon": -1.516838, "tags": {"amenity": "charging_station", "addr:country": "GB", "_source": "worldwide"}}, {"type": "node", "id": 6202457000, "lat": 55.031246, "lon": -1.522065, "tags": {"amenity": "charging_station", "addr:country": "GB", "capacity": "2", "wheelchair": "yes", "_source": "worldwide"}}, {"type": "node", "id": 8516303073, "lat": 55.049719, "lon": -1.450758, "tags": {"amenity": "charging_station", "fee": "yes", "opening_hours": "24/7", "operator": "Fastned", "name": "Fastned Whitley Bay", "addr:country": "GB", "socket:type2": "2", "socket:type2:output": "38.0 kW", "socket:type2_combo": "4", "socket:type2_combo:output": "50.0 kW", "socket:chademo": "2", "socket:chademo:output": "50.0 kW", "charging_station:output": "50.0 kW", "capacity": "4", "authentication:none": "", "_source": "worldwide"}}, {"type": "node", "id": 6431271730, "lat": 55.402216, "lon": -1.696483, "tags": {"amenity": "charging_station", "addr:country": "GB", "_source": "worldwide"}}, {"type": "node", "id": 7863905459, "lat": 55.400443, "lon": -1.694551, "tags": {"amenity": "charging_station", "access": "customers", "operator": "Osprey", "name": "Ladestation Osprey", "addr:country": "GB", "capacity": "4", "_source": "worldwide"}}, {"type": "node", "id": 6431271731, "lat": 55.414236, "lon": -1.705772, "tags": {"amenity": "charging_station", "addr:country": "GB", "capacity": "2", "_source": "worldwide"}}, {"type": "node", "id": 9255391608, "lat": 55.413947, "lon": -1.705081, "tags": {"amenity": "charging_station", "brand": "EVCharge", "name": "Ladestation EVCharge", "addr:country": "GB", "capacity": "2", "_source": "worldwide"}}, {"type": "node", "id": 6485662911, "lat": 55.298109, "lon": -1.711122, "tags": {"amenity": "charging_station", "addr:country": "GB", "_source": "worldwide"}}, {"type": "node", "id": 13584550086, "lat": 55.298703, "lon": -1.711163, "tags": {"amenity": "charging_station", "brand": "Smart Kerb", "name": "Ladestation Smart Kerb", "addr:country": "GB", "capacity": "2", "_source": "worldwide"}}, {"type": "node", "id": 6579813182, "lat": 55.127778, "lon": -1.508248, "tags": {"amenity": "charging_station", "opening_hours": "24/7", "operator": "www.chargeyourcar.org.uk", "name": "Blyth", "addr:country": "GB", "socket:type2": "1", "socket:type2:output": "43.0 kW", "socket:type2_combo": "1", "socket:type2_combo:output": "50.0 kW", "socket:chademo": "1", "socket:chademo:output": "50.0 kW", "charging_station:output": "50.0 kW", "authentication:none": "", "_source": "worldwide"}}, {"type": "node", "id": 8516303071, "lat": 55.127979, "lon": -1.509074, "tags": {"amenity": "charging_station", "fee": "yes", "brand": "Fastned", "opening_hours": "24/7", "operator": "Fastned", "name": "Fastned Keel Row", "addr:country": "GB", "socket:type2": "2", "socket:type2:output": "38.0 kW", "socket:type2_combo": "2", "socket:type2_combo:output": "50.0 kW", "socket:chademo": "2", "socket:chademo:output": "50.0 kW", "charging_station:output": "50.0 kW", "authentication:none": "", "_source": "worldwide"}}, {"type": "node", "id": 11173665725, "lat": 55.128468, "lon": -1.509132, "tags": {"amenity": "charging_station", "opening_hours": "24/7", "name": "e-Taxi Keel Row", "addr:country": "GB", "socket:type2": "1", "socket:type2:output": "22 kW", "socket:chademo": "1", "socket:chademo:output": "50 kW", "charging_station:output": "50 kW", "_source": "worldwide"}}, {"type": "node", "id": 6848329548, "lat": 55.085854, "lon": -1.585388, "tags": {"amenity": "charging_station", "opening_hours": "24/7", "operator": "www.electricblueuk.com", "name": "Cramlington Smith Square 01", "addr:country": "GB", "capacity": "3", "authentication:none": "", "_source": "worldwide"}}, {"type": "node", "id": 7105583370, "lat": 55.030243, "lon": -1.648888, "tags": {"amenity": "charging_station", "addr:country": "GB", "_source": "worldwide"}}, {"type": "node", "id": 7332916796, "lat": 55.039102, "lon": -1.451577, "tags": {"amenity": "charging_station", "fee": "yes", "operator": "Genie", "name": "Ladestation Genie", "addr:country": "GB", "capacity": "2", "_source": "worldwide"}}, {"type": "node", "id": 7619622951, "lat": 55.123717, "lon": -1.718577, "tags": {"amenity": "charging_station", "fee": "yes", "opening_hours": "24/7", "addr:country": "GB", "_source": "worldwide"}}, {"type": "node", "id": 7685288234, "lat": 55.607549, "lon": -1.709998, "tags": {"amenity": "charging_station", "operator": "EV charge", "name": "Ladestation EV charge", "addr:country": "GB", "capacity": "2", "_source": "worldwide"}}, {"type": "node", "id": 7698963692, "lat": 55.471895, "lon": -1.596383, "tags": {"amenity": "charging_station", "operator": "Rolec", "name": "Ladestation Rolec", "addr:country": "GB", "capacity": "2", "_source": "worldwide"}}, {"type": "node", "id": 7833517347, "lat": 55.036294, "lon": -1.56498, "tags": {"amenity": "charging_station", "addr:country": "GB", "capacity": "2", "_source": "worldwide"}}, {"type": "node", "id": 8828058464, "lat": 55.014416, "lon": -1.621712, "tags": {"amenity": "charging_station", "addr:country": "GB", "capacity": "1", "_source": "worldwide"}}, {"type": "node", "id": 9051591031, "lat": 55.022209, "lon": -1.578724, "tags": {"amenity": "charging_station", "addr:country": "GB", "_source": "worldwide"}}, {"type": "node", "id": 9632143988, "lat": 55.015087, "lon": -1.664684, "tags": {"amenity": "charging_station", "addr:country": "GB", "_source": "worldwide"}}, {"type": "node", "id": 9697000642, "lat": 55.182125, "lon": -1.573364, "tags": {"amenity": "charging_station", "operator": "EVopen", "name": "Ladestation EVopen", "addr:country": "GB", "capacity": "14", "_source": "worldwide"}}, {"type": "node", "id": 9926418971, "lat": 55.564953, "lon": -1.791837, "tags": {"amenity": "charging_station", "access": "yes", "fee": "yes", "brand": "Tesla Supercharger", "opening_hours": "24/7", "operator": "Tesla", "name": "Adderstone Supercharger", "addr:postcode": "NE70 7JU", "addr:city": "Belford", "addr:country": "GB", "socket:type2_combo": "6", "socket:type2_combo:output": "250.0 kW", "charging_station:output": "250.0 kW", "capacity": "6", "_source": "worldwide"}}, {"type": "node", "id": 9981214678, "lat": 55.08543, "lon": -1.592715, "tags": {"amenity": "charging_station", "operator": "Northumberland County Council", "name": "Ladestation Northumberland County Council", "addr:country": "GB", "socket:type2": "2", "socket:type2:output": "11.0 kW", "charging_station:output": "11.0 kW", "capacity": "2", "_source": "worldwide"}}, {"type": "node", "id": 10008202350, "lat": 55.13146, "lon": -1.591429, "tags": {"amenity": "charging_station", "addr:country": "GB", "_source": "worldwide"}}, {"type": "node", "id": 10732721235, "lat": 55.315717, "lon": -1.961192, "tags": {"amenity": "charging_station", "addr:country": "GB", "capacity": "2", "_source": "worldwide"}}, {"type": "node", "id": 11075366580, "lat": 55.581426, "lon": -1.654605, "tags": {"amenity": "charging_station", "brand": "EVCharge", "name": "Ladestation EVCharge", "addr:country": "GB", "socket:type2": "2", "socket:type2:output": "11.0 kW", "charging_station:output": "11.0 kW", "capacity": "2", "_source": "worldwide"}}, {"type": "node", "id": 11077411615, "lat": 55.671942, "lon": -1.79923, "tags": {"amenity": "charging_station", "brand": "EVCharge", "name": "Ladestation EVCharge", "addr:country": "GB", "socket:type2": "2", "socket:type2:output": "22.0 kW", "charging_station:output": "22.0 kW", "capacity": "2", "_source": "worldwide"}}, {"type": "node", "id": 11299432538, "lat": 55.150354, "lon": -1.602582, "tags": {"amenity": "charging_station", "addr:country": "GB", "_source": "worldwide"}}, {"type": "node", "id": 11627201836, "lat": 55.17009, "lon": -1.560661, "tags": {"amenity": "charging_station", "addr:country": "GB", "_source": "worldwide"}}, {"type": "node", "id": 11648877454, "lat": 55.187017, "lon": -1.508392, "tags": {"amenity": "charging_station", "fee": "yes", "network": "EVopen", "opening_hours": "24/7", "operator": "evcharge.online", "name": "evcharge.online - EVopen", "addr:country": "GB", "socket:type2": "2", "socket:type2:output": "7.2 kW", "charging_station:output": "7.2 kW", "capacity": "2", "authentication:none": "", "_source": "worldwide"}}, {"type": "node", "id": 12778465990, "lat": 55.187428, "lon": -1.506671, "tags": {"amenity": "charging_station", "fee": "yes", "network": "EVopen", "opening_hours": "24/7", "operator": "evcharge.online", "name": "evcharge.online - EVopen", "addr:country": "GB", "socket:type2": "2", "socket:type2:output": "7.2 kW", "charging_station:output": "7.2 kW", "capacity": "2", "authentication:none": "", "_source": "worldwide"}}, {"type": "node", "id": 11736815022, "lat": 55.166605, "lon": -1.690883, "tags": {"amenity": "charging_station", "fee": "yes", "operator": "Northumberland County Council", "name": "Ladestation Northumberland County Council", "addr:country": "GB", "capacity": "2", "_source": "worldwide"}}, {"type": "node", "id": 11771247459, "lat": 55.020647, "lon": -1.622921, "tags": {"amenity": "charging_station", "fee": "yes", "opening_hours": "24/7", "operator": "Shell Recharge", "name": "Ladestation Shell Recharge", "addr:country": "GB", "_source": "worldwide"}}, {"type": "node", "id": 12047745170, "lat": 55.55224, "lon": -1.629285, "tags": {"amenity": "charging_station", "operator": "Rolec", "name": "Ladestation Rolec", "addr:country": "GB", "capacity": "2", "_source": "worldwide"}}, {"type": "node", "id": 12062650835, "lat": 55.077579, "lon": -1.566633, "tags": {"amenity": "charging_station", "fee": "yes", "addr:country": "GB", "capacity": "2", "_source": "worldwide"}}, {"type": "node", "id": 12063399770, "lat": 55.38652, "lon": -1.611063, "tags": {"amenity": "charging_station", "addr:country": "GB", "capacity": "2", "_source": "worldwide"}}, {"type": "node", "id": 12465989428, "lat": 55.00923, "lon": -1.509489, "tags": {"amenity": "charging_station", "addr:country": "GB", "_source": "worldwide"}}, {"type": "node", "id": 12633297846, "lat": 55.315066, "lon": -1.885701, "tags": {"amenity": "charging_station", "brand": "Raw Charging", "network": "Raw Charging", "operator": "National Trust", "name": "National Trust - Raw Charging", "addr:country": "GB", "capacity": "12", "_source": "worldwide"}}, {"type": "node", "id": 12778532734, "lat": 55.080016, "lon": -1.572654, "tags": {"amenity": "charging_station", "fee": "yes", "network": "EVopen", "opening_hours": "24/7", "operator": "evcharge.online", "name": "evcharge.online - EVopen", "addr:country": "GB", "socket:type2": "2", "socket:type2:output": "7.2 kW", "charging_station:output": "7.2 kW", "capacity": "2", "authentication:none": "", "_source": "worldwide"}}, {"type": "node", "id": 12800598821, "lat": 55.17066, "lon": -1.548235, "tags": {"amenity": "charging_station", "fee": "yes", "opening_hours": "24/7", "addr:country": "GB", "socket:type2": "2", "socket:type2:output": "7.2 kW", "charging_station:output": "7.2 kW", "capacity": "2", "authentication:none": "", "_source": "worldwide"}}, {"type": "node", "id": 12830995076, "lat": 55.18217, "lon": -1.517294, "tags": {"amenity": "charging_station", "fee": "yes", "network": "EVopen", "opening_hours": "24/7", "operator": "evcharge.online", "name": "evcharge.online - EVopen", "addr:country": "GB", "socket:type2": "2", "socket:type2:output": "7.2 kW", "charging_station:output": "7.2 kW", "capacity": "2", "authentication:none": "", "_source": "worldwide"}}, {"type": "node", "id": 12833707816, "lat": 55.074808, "lon": -1.537219, "tags": {"amenity": "charging_station", "fee": "yes", "opening_hours": "24/7", "name": "Seaton Delaval Station", "addr:country": "GB", "_source": "worldwide"}}, {"type": "node", "id": 13095015901, "lat": 55.169965, "lon": -1.69042, "tags": {"amenity": "charging_station", "opening_hours": "24/7", "operator": "EVChargeOnline", "name": "Dual Charger", "addr:country": "GB", "_source": "worldwide"}}, {"type": "node", "id": 13108707225, "lat": 55.168451, "lon": -1.687871, "tags": {"amenity": "charging_station", "addr:country": "GB", "capacity": "2", "_source": "worldwide"}}, {"type": "node", "id": 13148126807, "lat": 55.027627, "lon": -1.509285, "tags": {"amenity": "charging_station", "access": "yes", "fee": "yes", "brand": "EV On The Move", "operator": "Tesla", "name": "Tesla - EV On The Move", "addr:country": "GB", "socket:type2_combo": "8", "socket:type2_combo:output": "50 kW", "charging_station:output": "50 kW", "capacity": "8", "_source": "worldwide"}}, {"type": "node", "id": 13173623443, "lat": 55.153796, "lon": -1.959116, "tags": {"amenity": "charging_station", "addr:country": "GB", "capacity": "12", "_source": "worldwide"}}]}