{"id": "43--71", "latMin": 43, "lonMin": -71, "latMax": 44, "lonMax": -70, "generated": "2026-04-16T18:39:07.905Z", "count": 24, "pois": [{"type": "node", "id": 6100554288, "lat": 43.673494, "lon": -70.337215, "tags": {"amenity": "charging_station", "operator": "ChargePoint Charging Station", "name": "ChargePoint Charging Station", "_source": "worldwide"}}, {"type": "node", "id": 6611107005, "lat": 43.41069, "lon": -70.56092, "tags": {"amenity": "charging_station", "fee": "yes", "access": "customers", "opening_hours": "24/7", "brand": "Tesla Supercharger", "network": "Supercharger", "operator": "Tesla, Inc.", "name": "Tesla Supercharger", "addr:postcode": "04043", "addr:city": "Kennebunk", "addr:country": "US", "capacity": "8", "_source": "worldwide"}}, {"type": "node", "id": 6611107006, "lat": 43.40949, "lon": -70.55855, "tags": {"amenity": "charging_station", "fee": "yes", "access": "customers", "opening_hours": "24/7", "brand": "Tesla Supercharger", "network": "Supercharger", "operator": "Tesla, Inc.", "name": "Tesla Supercharger", "addr:postcode": "04043", "addr:city": "Kennebunk", "addr:country": "US", "capacity": "8", "_source": "worldwide"}}, {"type": "node", "id": 6611112681, "lat": 43.85879, "lon": -70.10414, "tags": {"amenity": "charging_station", "fee": "yes", "access": "customers", "opening_hours": "24/7", "brand": "Tesla Supercharger", "network": "Supercharger", "operator": "Tesla, Inc.", "name": "Freeport Supercharger", "addr:postcode": "04032", "addr:city": "Freeport", "addr:country": "US", "capacity": "8", "_source": "worldwide"}}, {"type": "node", "id": 9159646700, "lat": 43.458481, "lon": -70.384823, "tags": {"amenity": "charging_station", "fee": "no", "access": "yes", "operator": "EVCS", "name": "EVCS", "_source": "worldwide"}}, {"type": "node", "id": 9159646701, "lat": 43.459671, "lon": -70.391979, "tags": {"amenity": "charging_station", "fee": "no", "access": "yes", "name": "EV Charging Station", "_source": "worldwide"}}, {"type": "node", "id": 9836965775, "lat": 43.679167, "lon": -70.442449, "tags": {"amenity": "charging_station", "fee": "no", "access": "yes", "brand": "ChargePoint", "operator": "ChargePoint", "name": "ChargePoint", "_source": "worldwide"}}, {"type": "node", "id": 10173825208, "lat": 43.636862, "lon": -70.252178, "tags": {"amenity": "charging_station", "fee": "no", "access": "yes", "name": "EV Charging Station", "socket:type1": "2", "capacity": "2", "_source": "worldwide"}}, {"type": "node", "id": 10595286300, "lat": 43.007576, "lon": -70.918644, "tags": {"amenity": "charging_station", "name": "EV Charging Station", "_source": "worldwide"}}, {"type": "node", "id": 10733444673, "lat": 43.622948, "lon": -70.344966, "tags": {"amenity": "charging_station", "operator": "Electrify America", "name": "Electrify America", "addr:street": "Gallery Boulevard", "addr:housenumber": "500", "addr:postcode": "04074", "addr:city": "Scarborough", "addr:country": "US", "_source": "worldwide"}}, {"type": "node", "id": 11763758464, "lat": 43.66442, "lon": -70.26963, "tags": {"amenity": "charging_station", "fee": "yes", "access": "customers", "opening_hours": "24/7", "brand": "Tesla Supercharger", "network": "Supercharger", "operator": "Tesla", "name": "Tesla Supercharger", "addr:street": "Forest Avenue", "addr:housenumber": "295", "addr:postcode": "04101", "addr:city": "Portland", "addr:country": "US", "capacity": "12", "_source": "worldwide"}}, {"type": "node", "id": 12097364981, "lat": 43.17403, "lon": -70.861425, "tags": {"amenity": "charging_station", "fee": "yes", "name": "EV Charging Station", "_source": "worldwide"}}, {"type": "node", "id": 12356965539, "lat": 43.62731, "lon": -70.34779, "tags": {"amenity": "charging_station", "fee": "yes", "access": "yes", "opening_hours": "24/7", "brand": "Tesla Supercharger", "network": "Supercharger", "operator": "Tesla, Inc.", "name": "Tesla Supercharger", "addr:street": "Cummings Road", "addr:housenumber": "2", "addr:postcode": "04074", "addr:city": "Scarborough", "addr:country": "US", "capacity": "12", "_source": "worldwide"}}, {"type": "node", "id": 12878097553, "lat": 43.18915, "lon": -70.88784, "tags": {"amenity": "charging_station", "fee": "yes", "access": "yes", "opening_hours": "24/7", "brand": "Tesla Supercharger", "network": "Supercharger", "operator": "Tesla, Inc.", "name": "Dover Supercharger", "addr:street": "Sterling Way", "addr:housenumber": "200", "addr:postcode": "03820", "addr:city": "Dover", "addr:country": "US", "capacity": "12", "_source": "worldwide"}}, {"type": "node", "id": 12879217220, "lat": 43.718575, "lon": -70.523889, "tags": {"amenity": "charging_station", "opening_hours": "24/7", "brand": "ChargePoint", "network": "ChargePoint", "operator": "ChargePoint", "name": "ChargePoint", "addr:street": "Ossipee Trail East", "addr:housenumber": "435", "addr:postcode": "04038", "addr:city": "Gorham", "addr:country": "US", "socket:type1_combo": "1", "capacity": "1", "_source": "worldwide"}}, {"type": "node", "id": 12944721985, "lat": 43.84163, "lon": -70.44177, "tags": {"amenity": "charging_station", "fee": "yes", "access": "yes", "opening_hours": "24/7", "brand": "Tesla Supercharger", "network": "Supercharger", "operator": "Tesla, Inc.", "name": "Windham Supercharger", "addr:street": "Roosevelt Tr", "addr:housenumber": "797", "addr:postcode": "04062", "addr:city": "Windham", "addr:country": "US", "capacity": "8", "_source": "worldwide"}}, {"type": "node", "id": 12944743301, "lat": 43.32076, "lon": -70.5806, "tags": {"amenity": "charging_station", "fee": "yes", "access": "yes", "opening_hours": "24/7", "brand": "Tesla Supercharger", "network": "Supercharger", "operator": "Tesla, Inc.", "name": "Tesla Supercharger", "addr:street": "Post Road", "addr:housenumber": "1517", "addr:postcode": "04090", "addr:city": "Wells", "addr:country": "US", "capacity": "8", "_source": "worldwide"}}, {"type": "node", "id": 12944743320, "lat": 43.034, "lon": -70.77946, "tags": {"amenity": "charging_station", "fee": "yes", "access": "yes", "opening_hours": "24/7", "brand": "Tesla Supercharger", "network": "Supercharger", "operator": "Tesla, Inc.", "name": "Portsmouth Supercharger", "addr:street": "Lafayette Road", "addr:housenumber": "2255", "addr:postcode": "03801", "addr:city": "Portsmouth", "addr:country": "US", "capacity": "8", "_source": "worldwide"}}, {"type": "node", "id": 12944743586, "lat": 43.31092, "lon": -70.99326, "tags": {"amenity": "charging_station", "fee": "yes", "access": "customers", "opening_hours": "24/7", "brand": "Tesla Supercharger", "network": "Supercharger", "operator": "Tesla, Inc.", "name": "Tesla Supercharger", "addr:street": "North Main Street", "addr:housenumber": "290", "addr:postcode": "03867", "addr:city": "Rochester", "addr:country": "US", "capacity": "8", "_source": "worldwide"}}, {"type": "node", "id": 12944743931, "lat": 43.7343, "lon": -70.29355, "tags": {"amenity": "charging_station", "fee": "yes", "access": "yes", "opening_hours": "24/7", "brand": "Tesla Supercharger", "network": "Supercharger", "operator": "Tesla, Inc.", "name": "Falmouth Supercharger", "addr:street": "Gray Road", "addr:housenumber": "65", "addr:postcode": "04105", "addr:city": "Falmouth", "addr:country": "US", "capacity": "8", "_source": "worldwide"}}, {"type": "node", "id": 12944743933, "lat": 43.5112, "lon": -70.4348, "tags": {"amenity": "charging_station", "fee": "yes", "access": "yes", "opening_hours": "24/7", "brand": "Tesla Supercharger", "network": "Supercharger", "operator": "Tesla, Inc.", "name": "Saco Supercharger", "addr:street": "Main Street", "addr:housenumber": "532", "addr:postcode": "04072", "addr:city": "Saco", "addr:country": "US", "capacity": "8", "_source": "worldwide"}}, {"type": "node", "id": 12984579659, "lat": 43.076439, "lon": -70.761334, "tags": {"amenity": "charging_station", "brand": "ChargePoint", "operator": "ChargePoint", "name": "ChargePoint", "_source": "worldwide"}}, {"type": "node", "id": 13140960381, "lat": 43.622714, "lon": -70.21085, "tags": {"amenity": "charging_station", "name": "EV Charging Station", "_source": "worldwide"}}, {"type": "node", "id": 13667942510, "lat": 43.675418, "lon": -70.32491, "tags": {"amenity": "charging_station", "fee": "yes", "access": "yes", "opening_hours": "24/7", "brand": "Tesla Supercharger", "network": "Supercharger", "operator": "Tesla", "name": "Tesla Supercharger", "_source": "worldwide"}}]}