{"id": "52--123", "latMin": 52, "lonMin": -123, "latMax": 53, "lonMax": -122, "generated": "2026-04-16T18:39:08.543Z", "count": 5, "pois": [{"type": "node", "id": 9151181381, "lat": 52.966486, "lon": -122.440569, "tags": {"amenity": "charging_station", "fee": "yes", "access": "yes", "opening_hours": "24/7", "brand": "Tesla Supercharger", "network": "Supercharger", "operator": "Tesla, Inc.", "name": "Tesla Supercharger", "addr:street": "Rita Road", "addr:housenumber": "775", "_source": "worldwide"}}, {"type": "node", "id": 9204508488, "lat": 52.112882, "lon": -122.125074, "tags": {"amenity": "charging_station", "fee": "yes", "access": "yes", "opening_hours": "24/7", "brand": "Tesla Supercharger", "network": "Supercharger", "operator": "Tesla, Inc.", "name": "Tesla Supercharger", "_source": "worldwide"}}, {"type": "node", "id": 12214291802, "lat": 52.129228, "lon": -122.140466, "tags": {"amenity": "charging_station", "operator": "BC Hydro", "name": "BC Hydro", "_source": "worldwide"}}, {"type": "node", "id": 12214291901, "lat": 52.963986, "lon": -122.441298, "tags": {"amenity": "charging_station", "operator": "BC Hydro", "name": "BC Hydro", "_source": "worldwide"}}, {"type": "node", "id": 12404629401, "lat": 52.983226, "lon": -122.470829, "tags": {"amenity": "charging_station", "operator": "FLO", "name": "FLO", "_source": "worldwide"}}]}