{"id": "37--123", "latMin": 37, "lonMin": -123, "latMax": 38, "lonMax": -122, "generated": "2026-04-16T18:39:07.471Z", "count": 308, "pois": [{"type": "node", "id": 7280, "lat": 37.80619, "lon": -122.4152, "tags": {"amenity": "charging_station", "access": "public", "fee": "yes", "opening_hours": "24 hours daily; for guest use only; see valet for access", "status": "E", "operator": "P", "name": "Hyatt at Fisherman's Wharf", "addr:street": "555 N Point St", "addr:postcode": "94133", "addr:city": "San Francisco", "addr:country": "US", "socket:type1": "1", "socket:type1:output": "7.2 kW", "charging_station:output": "7.2 kW", "capacity": "1", "_source": "worldwide"}}, {"type": "node", "id": 21358, "lat": 37.78881, "lon": -122.401, "tags": {"amenity": "charging_station", "access": "public", "fee": "yes", "opening_hours": "24 hours daily", "status": "E", "operator": "P", "name": "Palace Hotel", "addr:street": "2 New Montgomery St", "addr:postcode": "94105", "addr:city": "San Francisco", "addr:country": "US", "socket:type1": "1", "socket:type1:output": "7.2 kW", "charging_station:output": "7.2 kW", "capacity": "2", "_source": "worldwide"}}, {"type": "node", "id": 21360, "lat": 37.791791, "lon": -122.411265, "tags": {"amenity": "charging_station", "access": "public", "fee": "yes", "opening_hours": "24 hours daily; for guest use only; see valet for access", "status": "E", "operator": "P", "name": "Mark Hopkins InterContinental Hotel", "addr:street": "999 California St", "addr:postcode": "94108", "addr:city": "San Francisco", "addr:country": "US", "socket:type1": "1", "socket:type1:output": "7.2 kW", "charging_station:output": "7.2 kW", "capacity": "1", "_source": "worldwide"}}, {"type": "node", "id": 33690, "lat": 37.94495, "lon": -122.5096, "tags": {"amenity": "charging_station", "access": "public", "fee": "yes", "opening_hours": "24 hours daily; pay lot", "status": "E", "operator": "P", "name": "Golden Gate Ferry Terminal", "addr:street": "101 E Sir Francis Drake Blvd", "addr:postcode": "94939", "addr:city": "Larkspur", "addr:country": "US", "socket:type1": "1", "socket:type1:output": "7.2 kW", "charging_station:output": "7.2 kW", "capacity": "2", "_source": "worldwide"}}, {"type": "node", "id": 33695, "lat": 37.7136, "lon": -122.2087, "tags": {"amenity": "charging_station", "access": "public", "fee": "yes", "opening_hours": "24 hours daily; pay lot", "status": "E", "operator": "LG", "name": "Oakland International Airport - Daily Lot", "addr:street": "1 Airport Dr", "addr:postcode": "94621", "addr:city": "Oakland", "addr:country": "US", "socket:type1": "1", "socket:type1:output": "7.2 kW", "charging_station:output": "7.2 kW", "capacity": "2", "_source": "worldwide"}}, {"type": "node", "id": 38517, "lat": 37.784871, "lon": -122.408991, "tags": {"amenity": "charging_station", "access": "public", "fee": "yes", "opening_hours": "24 hours daily; pay lot; see valet for more information", "status": "T", "operator": "P", "name": "Parc 55 Hotel", "addr:street": "55 Cyril Magnin", "addr:postcode": "94102", "addr:city": "San Francisco", "addr:country": "US", "socket:type1": "1", "socket:type1:output": "7.2 kW", "charging_station:output": "7.2 kW", "capacity": "2", "_source": "worldwide"}}, {"type": "node", "id": 3049552096, "lat": 37.385526, "lon": -122.004486, "tags": {"amenity": "charging_station", "name": "EV Charging Station", "_source": "worldwide"}}, {"type": "node", "id": 3096916602, "lat": 37.715334, "lon": -122.21447, "tags": {"amenity": "charging_station", "name": "EV Charging Station", "_source": "worldwide"}}, {"type": "node", "id": 3143189345, "lat": 37.53352, "lon": -122.272721, "tags": {"amenity": "charging_station", "name": "EV Charging Station", "_source": "worldwide"}}, {"type": "node", "id": 3149810839, "lat": 37.711903, "lon": -122.210836, "tags": {"amenity": "charging_station", "name": "EV Charging Station", "_source": "worldwide"}}, {"type": "node", "id": 3720711155, "lat": 37.403435, "lon": -122.009666, "tags": {"amenity": "charging_station", "fee": "yes", "opening_hours": "24/7", "brand": "eVgo", "operator": "NRG Energy", "name": "eVgo", "socket:chademo": "2", "socket:type1_combo": "2", "capacity": "4", "_source": "worldwide"}}, {"type": "node", "id": 3720819510, "lat": 37.378456, "lon": -122.075515, "tags": {"amenity": "charging_station", "fee": "yes", "opening_hours": "24/7", "brand": "eVgo", "operator": "NRG Energy", "name": "eVgo", "socket:chademo": "1", "socket:type1": "1", "socket:type1_combo": "2", "capacity": "4", "_source": "worldwide"}}, {"type": "node", "id": 3720819833, "lat": 37.447942, "lon": -122.125645, "tags": {"amenity": "charging_station", "fee": "yes", "brand": "Blink", "operator": "Blink", "name": "Blink", "socket:chademo": "2", "socket:type1": "2", "capacity": "4", "_source": "worldwide"}}, {"type": "node", "id": 3720820454, "lat": 37.398651, "lon": -122.110448, "tags": {"amenity": "charging_station", "brand": "eVgo", "operator": "NRG Energy", "name": "eVgo", "socket:chademo": "1", "socket:type1": "2", "socket:type1_combo": "1", "capacity": "4", "_source": "worldwide"}}, {"type": "node", "id": 3720918631, "lat": 37.593471, "lon": -122.503358, "tags": {"amenity": "charging_station", "brand": "eVgo", "operator": "NRG Energy", "name": "eVgo", "socket:chademo": "2", "socket:type1": "1", "socket:type1_combo": "1", "capacity": "4", "_source": "worldwide"}}, {"type": "node", "id": 3720936244, "lat": 37.652048, "lon": -122.395212, "tags": {"amenity": "charging_station", "fee": "yes", "brand": "Blink", "operator": "Blink", "name": "Blink", "socket:chademo": "2", "socket:type1": "5", "capacity": "7", "_source": "worldwide"}}, {"type": "node", "id": 3720954774, "lat": 37.664355, "lon": -122.390934, "tags": {"amenity": "charging_station", "fee": "yes", "name": "Blink", "socket:chademo": "2", "socket:type1": "4", "capacity": "6", "_source": "worldwide"}}, {"type": "node", "id": 3844078284, "lat": 37.658083, "lon": -122.053372, "tags": {"amenity": "charging_station", "name": "Electric Car Charging Station", "_source": "worldwide"}}, {"type": "node", "id": 4114649505, "lat": 37.41534, "lon": -122.07661, "tags": {"amenity": "charging_station", "fee": "yes", "access": "customers", "opening_hours": "24/7", "brand": "Tesla Supercharger", "network": "Supercharger", "operator": "Tesla, Inc.", "name": "Mountain View Supercharger", "addr:street": "North Shoreline Boulevard", "addr:housenumber": "1401", "addr:postcode": "94043", "addr:city": "Mountain View", "addr:country": "US", "capacity": "12", "_source": "worldwide"}}, {"type": "node", "id": 4400612142, "lat": 37.384667, "lon": -122.050586, "tags": {"amenity": "charging_station", "name": "EV Charging Station", "_source": "worldwide"}}, {"type": "node", "id": 4414163190, "lat": 37.95442, "lon": -122.490596, "tags": {"amenity": "charging_station", "brand": "ChargePoint", "operator": "ChargePoint", "name": "ChargePoint", "_source": "worldwide"}}, {"type": "node", "id": 4426941589, "lat": 37.969685, "lon": -122.515819, "tags": {"amenity": "charging_station", "brand": "ChargePoint", "operator": "ChargePoint", "name": "ChargePoint", "_source": "worldwide"}}, {"type": "node", "id": 4448341689, "lat": 37.973915, "lon": -122.525816, "tags": {"amenity": "charging_station", "brand": "ChargePoint", "operator": "ChargePoint", "name": "ChargePoint", "_source": "worldwide"}}, {"type": "node", "id": 4529741960, "lat": 37.599512, "lon": -122.401207, "tags": {"amenity": "charging_station", "fee": "yes", "brand": "ChargePoint", "operator": "ChargePoint", "name": "ChargePoint", "_source": "worldwide"}}, {"type": "node", "id": 4553349076, "lat": 37.417775, "lon": -122.07295, "tags": {"amenity": "charging_station", "brand": "ChargePoint", "operator": "ChargePoint", "name": "ChargePoint", "_source": "worldwide"}}, {"type": "node", "id": 4553349077, "lat": 37.417781, "lon": -122.072253, "tags": {"amenity": "charging_station", "brand": "ChargePoint", "operator": "ChargePoint", "name": "ChargePoint", "_source": "worldwide"}}, {"type": "node", "id": 4553349078, "lat": 37.41775, "lon": -122.076963, "tags": {"amenity": "charging_station", "brand": "ChargePoint", "operator": "ChargePoint", "name": "ChargePoint", "_source": "worldwide"}}, {"type": "node", "id": 4553349079, "lat": 37.418045, "lon": -122.076658, "tags": {"amenity": "charging_station", "brand": "ChargePoint", "operator": "ChargePoint", "name": "ChargePoint", "_source": "worldwide"}}, {"type": "node", "id": 4592082342, "lat": 37.422923, "lon": -122.090482, "tags": {"amenity": "charging_station", "brand": "ChargePoint", "operator": "ChargePoint", "name": "ChargePoint", "_source": "worldwide"}}, {"type": "node", "id": 4592082343, "lat": 37.422008, "lon": -122.089703, "tags": {"amenity": "charging_station", "brand": "ChargePoint", "operator": "ChargePoint", "name": "ChargePoint", "_source": "worldwide"}}, {"type": "node", "id": 4641873721, "lat": 37.46867, "lon": -122.432684, "tags": {"amenity": "charging_station", "brand": "eVgo", "operator": "NRG Energy", "name": "eVgo", "_source": "worldwide"}}, {"type": "node", "id": 4763466546, "lat": 37.421509, "lon": -122.077158, "tags": {"amenity": "charging_station", "name": "EV Charging Station", "_source": "worldwide"}}, {"type": "node", "id": 5033292474, "lat": 37.392585, "lon": -122.073791, "tags": {"amenity": "charging_station", "brand": "ChargePoint", "operator": "ChargePoint", "name": "ChargePoint", "_source": "worldwide"}}, {"type": "node", "id": 5620925101, "lat": 37.332893, "lon": -122.004819, "tags": {"amenity": "charging_station", "fee": "no", "name": "EV Charging Station", "socket:type1": "2", "capacity": "2", "_source": "worldwide"}}, {"type": "node", "id": 6003267836, "lat": 37.65087, "lon": -122.104707, "tags": {"amenity": "charging_station", "fee": "no", "access": "yes", "opening_hours": "06:00-23:00", "network": "Volta", "name": "EV Charging Station", "capacity": "2", "_source": "worldwide"}}, {"type": "node", "id": 6051821673, "lat": 37.813334, "lon": -122.260605, "tags": {"amenity": "charging_station", "opening_hours": "24/7", "brand": "eVgo", "name": "eVgo", "_source": "worldwide"}}, {"type": "node", "id": 6211234317, "lat": 37.55855, "lon": -122.28461, "tags": {"amenity": "charging_station", "fee": "yes", "access": "customers", "opening_hours": "24/7", "brand": "Tesla Supercharger", "network": "Supercharger", "operator": "Tesla, Inc.", "name": "Tesla Supercharger", "addr:street": "Bridgepointe Parkway", "addr:housenumber": "2220", "addr:postcode": "94404", "addr:city": "San Mateo", "addr:country": "US", "capacity": "12", "_source": "worldwide"}}, {"type": "node", "id": 6211248071, "lat": 37.54523, "lon": -122.289785, "tags": {"amenity": "charging_station", "fee": "yes", "access": "yes", "opening_hours": "24/7", "brand": "Tesla Supercharger", "network": "Supercharger", "operator": "Tesla", "name": "Tesla Supercharger", "addr:street": "Park Place", "addr:housenumber": "1200", "addr:postcode": "94403-1592", "addr:city": "San Mateo", "addr:country": "US", "capacity": "24", "_source": "worldwide"}}, {"type": "node", "id": 6211286627, "lat": 37.75626, "lon": -122.24931, "tags": {"amenity": "charging_station", "fee": "yes", "access": "customers", "opening_hours": "24/7", "brand": "Tesla Supercharger", "network": "Supercharger", "operator": "Tesla, Inc.", "name": "Alameda Supercharger", "addr:street": "South Shore Center", "addr:housenumber": "523", "addr:postcode": "94501", "addr:city": "Alameda", "addr:country": "US", "capacity": "12", "_source": "worldwide"}}, {"type": "node", "id": 6211345247, "lat": 37.674, "lon": -122.47226, "tags": {"amenity": "charging_station", "fee": "yes", "access": "customers", "opening_hours": "24/7", "brand": "Tesla Supercharger", "network": "Supercharger", "operator": "Tesla, Inc.", "name": "Tesla Supercharger", "addr:street": "Serramonte Center", "addr:housenumber": "1", "addr:postcode": "94015", "addr:city": "Daly City", "addr:country": "US", "capacity": "1", "_source": "worldwide"}}, {"type": "node", "id": 6248454587, "lat": 37.515476, "lon": -122.250607, "tags": {"amenity": "charging_station", "access": "yes", "brand": "ChargePoint", "operator": "ChargePoint", "name": "ChargePoint", "_source": "worldwide"}}, {"type": "node", "id": 6286637891, "lat": 37.8272, "lon": -122.209123, "tags": {"amenity": "charging_station", "fee": "no", "brand": "ChargePoint", "network": "ChargePoint", "operator": "ChargePoint", "name": "ChargePoint", "socket:type1": "6", "capacity": "6", "_source": "worldwide"}}, {"type": "node", "id": 6286638335, "lat": 37.799617, "lon": -122.217151, "tags": {"amenity": "charging_station", "fee": "no", "opening_hours": "24/7", "brand": "ChargePoint", "network": "ChargePoint", "operator": "ChargePoint", "name": "ChargePoint", "socket:type1": "2", "capacity": "2", "_source": "worldwide"}}, {"type": "node", "id": 6286694176, "lat": 37.804149, "lon": -122.429776, "tags": {"amenity": "charging_station", "fee": "no", "brand": "Rivian Waypoints", "network": "Adopt a Charger", "operator": "Rivian Waypoints", "name": "Rivian Waypoints", "_source": "worldwide"}}, {"type": "node", "id": 6286706036, "lat": 37.804191, "lon": -122.448492, "tags": {"amenity": "charging_station", "network": "Charge Across Town", "name": "EV Charging Station", "_source": "worldwide"}}, {"type": "node", "id": 6371290543, "lat": 37.73257, "lon": -122.50612, "tags": {"amenity": "charging_station", "name": "EV Charging Station", "_source": "worldwide"}}, {"type": "node", "id": 6380088698, "lat": 37.416813, "lon": -122.148668, "tags": {"amenity": "charging_station", "network": "ChargePoint", "name": "EV Charging Station", "socket:type1": "10", "capacity": "10", "_source": "worldwide"}}, {"type": "node", "id": 6403870294, "lat": 37.78221, "lon": -122.187264, "tags": {"amenity": "charging_station", "network": "ChargePoint", "operator": "DC Solar", "name": "DC Solar", "_source": "worldwide"}}, {"type": "node", "id": 6433199411, "lat": 37.809979, "lon": -122.247144, "tags": {"amenity": "charging_station", "network": "EVgo", "name": "EV Charging Station", "_source": "worldwide"}}, {"type": "node", "id": 6496207832, "lat": 37.340495, "lon": -122.042284, "tags": {"amenity": "charging_station", "fee": "no", "access": "permissive", "opening_hours": "Mo-Su 06:00-23:59", "brand": "Volta", "network": "Volta", "operator": "Volta", "name": "Volta", "socket:type1": "1", "capacity": "1", "_source": "worldwide"}}, {"type": "node", "id": 6565601711, "lat": 37.666805, "lon": -122.106097, "tags": {"amenity": "charging_station", "brand": "Blink", "operator": "Blink", "name": "Blink", "_source": "worldwide"}}, {"type": "node", "id": 6615295117, "lat": 37.727844, "lon": -122.4763, "tags": {"amenity": "charging_station", "fee": "no", "access": "yes", "opening_hours": "06:00-00:00", "network": "Volta", "name": "EV Charging Station", "capacity": "2", "_source": "worldwide"}}, {"type": "node", "id": 6615295129, "lat": 37.727938, "lon": -122.477759, "tags": {"amenity": "charging_station", "fee": "no", "access": "yes", "opening_hours": "06:00-00:00", "network": "Volta", "name": "EV Charging Station", "capacity": "1", "_source": "worldwide"}}, {"type": "node", "id": 6634250810, "lat": 37.812399, "lon": -122.246452, "tags": {"amenity": "charging_station", "fee": "no", "brand": "ChargePoint", "network": "ChargePoint", "operator": "City of Oakland", "name": "ChargePoint", "socket:type1": "2", "capacity": "2", "_source": "worldwide"}}, {"type": "node", "id": 6638904736, "lat": 37.482683, "lon": -122.231741, "tags": {"amenity": "charging_station", "fee": "yes", "access": "customers", "brand": "EVgo", "network": "EVgo", "operator": "EVgo", "name": "EVgo", "socket:chademo": "2", "socket:type1_combo": "3", "capacity": "5", "_source": "worldwide"}}, {"type": "node", "id": 6673593997, "lat": 37.8261, "lon": -122.253689, "tags": {"amenity": "charging_station", "name": "EV Charging Station", "_source": "worldwide"}}, {"type": "node", "id": 6693595727, "lat": 37.785557, "lon": -122.428896, "tags": {"amenity": "charging_station", "brand": "Tesla, Inc.", "operator": "Tesla", "name": "Tesla Destination Charger", "_source": "worldwide"}}, {"type": "node", "id": 6713456376, "lat": 37.50291, "lon": -122.24557, "tags": {"amenity": "charging_station", "fee": "yes", "access": "customers", "opening_hours": "24/7", "brand": "Tesla Supercharger", "network": "Supercharger", "operator": "Tesla, Inc.", "name": "San Carlos Supercharger", "addr:street": "Industrial Road", "addr:housenumber": "1127", "addr:postcode": "94070", "addr:city": "San Carlos", "addr:country": "US", "capacity": "19", "_source": "worldwide"}}, {"type": "node", "id": 6767977659, "lat": 37.40988, "lon": -122.082077, "tags": {"amenity": "charging_station", "name": "EV Charging Station", "_source": "worldwide"}}, {"type": "node", "id": 6767977674, "lat": 37.408741, "lon": -122.079677, "tags": {"amenity": "charging_station", "operator": "ChargePoint", "name": "ChargePoint", "_source": "worldwide"}}, {"type": "node", "id": 6767982790, "lat": 37.41058, "lon": -122.081432, "tags": {"amenity": "charging_station", "fee": "yes", "access": "private", "name": "EV Charging Station", "_source": "worldwide"}}, {"type": "node", "id": 6767982796, "lat": 37.410319, "lon": -122.082747, "tags": {"amenity": "charging_station", "access": "private", "name": "EV Charging Station", "_source": "worldwide"}}, {"type": "node", "id": 6856119041, "lat": 37.806097, "lon": -122.449463, "tags": {"amenity": "charging_station", "brand": "Rivian Waypoints", "operator": "Rivian Waypoints", "name": "Rivian Waypoints", "_source": "worldwide"}}, {"type": "node", "id": 6904057665, "lat": 37.784333, "lon": -122.43202, "tags": {"amenity": "charging_station", "network": "Muni", "operator": "San Francisco Municipal Railway", "name": "Geary Boulevard & Fillmore Street", "_source": "worldwide"}}, {"type": "node", "id": 6964650736, "lat": 37.896982, "lon": -122.499058, "tags": {"amenity": "charging_station", "fee": "yes", "access": "yes", "brand": "ChargePoint", "operator": "ChargePoint", "name": "ChargePoint", "_source": "worldwide"}}, {"type": "node", "id": 7047159680, "lat": 37.944171, "lon": -122.061276, "tags": {"amenity": "charging_station", "fee": "yes", "network": "ChargePoint", "name": "EV Charging Station", "_source": "worldwide"}}, {"type": "node", "id": 7051148058, "lat": 37.324135, "lon": -122.040362, "tags": {"amenity": "charging_station", "name": "EV Charging Station", "_source": "worldwide"}}, {"type": "node", "id": 7134540385, "lat": 37.79979, "lon": -122.171192, "tags": {"amenity": "charging_station", "network": "Blink", "name": "EV Charging Station", "_source": "worldwide"}}, {"type": "node", "id": 7194010513, "lat": 37.653172, "lon": -122.017562, "tags": {"amenity": "charging_station", "name": "EV Charging Station", "_source": "worldwide"}}, {"type": "node", "id": 7387018685, "lat": 37.578292, "lon": -122.331548, "tags": {"amenity": "charging_station", "brand": "ChargePoint", "operator": "ChargePoint", "name": "ChargePoint", "_source": "worldwide"}}, {"type": "node", "id": 7596030886, "lat": 37.577911, "lon": -122.356333, "tags": {"amenity": "charging_station", "brand": "ChargePoint", "operator": "ChargePoint", "name": "ChargePoint", "_source": "worldwide"}}, {"type": "node", "id": 8322884239, "lat": 37.919877, "lon": -122.348664, "tags": {"amenity": "charging_station", "fee": "yes", "access": "customers", "opening_hours": "24/7", "brand": "Tesla Supercharger", "network": "Supercharger", "operator": "Tesla, Inc.", "name": "Richmond Supercharger", "addr:street": "Meeker Avenue", "addr:housenumber": "2157", "addr:postcode": "94804", "addr:city": "Richmond", "addr:country": "US", "capacity": "12", "_source": "worldwide"}}, {"type": "node", "id": 8328309506, "lat": 37.971984, "lon": -122.52502, "tags": {"amenity": "charging_station", "fee": "yes", "opening_hours": "24/7", "brand": "ChargePoint", "network": "ChargePoint", "operator": "ChargePoint", "name": "ChargePoint", "socket:type1": "1", "capacity": "1", "_source": "worldwide"}}, {"type": "node", "id": 8421786099, "lat": 37.336329, "lon": -122.016212, "tags": {"amenity": "charging_station", "fee": "yes", "access": "yes", "brand": "EVgo", "network": "EVgo", "operator": "EVgo", "name": "EVgo", "_source": "worldwide"}}, {"type": "node", "id": 8452031228, "lat": 37.047491, "lon": -122.02783, "tags": {"amenity": "charging_station", "fee": "yes", "access": "yes", "opening_hours": "24/7", "brand": "Tesla Supercharger", "network": "Supercharger", "operator": "Tesla, Inc.", "name": "Scotts Valley Supercharger", "addr:street": "Mount Hermon Road", "addr:housenumber": "230", "addr:postcode": "95066", "addr:city": "Scotts Valley", "addr:country": "US", "socket:type1_combo": "16", "capacity": "32", "_source": "worldwide"}}, {"type": "node", "id": 8464920941, "lat": 37.42337, "lon": -122.19819, "tags": {"amenity": "charging_station", "fee": "yes", "access": "customers", "opening_hours": "24/7", "brand": "Tesla Supercharger", "network": "Supercharger", "operator": "Tesla, Inc.", "name": "Menlo Park Supercharger", "addr:street": "Sharon Park Drive", "addr:housenumber": "325", "addr:postcode": "94025", "addr:city": "Menlo Park", "addr:country": "US", "capacity": "18", "_source": "worldwide"}}, {"type": "node", "id": 8519910311, "lat": 37.768268, "lon": -122.401818, "tags": {"amenity": "charging_station", "fee": "no", "access": "permissive", "opening_hours": "Mo-Su 06:00-00:00", "operator": "Volta", "name": "Volta HQ Charging Station", "socket:type1": "5", "socket:type1_combo": "1", "capacity": "6", "_source": "worldwide"}}, {"type": "node", "id": 8587321771, "lat": 37.536977, "lon": -122.254011, "tags": {"amenity": "charging_station", "fee": "yes", "access": "yes", "brand": "ChargePoint", "operator": "ChargePoint", "name": "ChargePoint", "_source": "worldwide"}}, {"type": "node", "id": 8588214478, "lat": 37.422106, "lon": -122.113468, "tags": {"amenity": "charging_station", "fee": "yes", "brand": "ChargePoint", "name": "ChargePoint", "_source": "worldwide"}}, {"type": "node", "id": 8588214479, "lat": 37.43858, "lon": -122.157392, "tags": {"amenity": "charging_station", "fee": "yes", "brand": "ChargePoint", "name": "ChargePoint", "_source": "worldwide"}}, {"type": "node", "id": 8603503695, "lat": 37.401043, "lon": -122.129612, "tags": {"amenity": "charging_station", "fee": "no", "brand": "ChargePoint", "name": "ChargePoint", "_source": "worldwide"}}, {"type": "node", "id": 8609009058, "lat": 37.37267, "lon": -122.05733, "tags": {"amenity": "charging_station", "fee": "yes", "access": "customers", "opening_hours": "24/7", "brand": "Tesla Supercharger", "network": "Supercharger", "operator": "Tesla, Inc.", "name": "Sunnyvale Supercharger", "addr:street": "South Bernardo Avenue", "addr:housenumber": "639", "addr:postcode": "94087", "addr:city": "Sunnyvale", "addr:country": "US", "capacity": "16", "_source": "worldwide"}}, {"type": "node", "id": 8624360689, "lat": 37.428563, "lon": -122.143999, "tags": {"amenity": "charging_station", "fee": "yes", "access": "yes", "brand": "ChargePoint", "operator": "ChargePoint", "name": "ChargePoint", "_source": "worldwide"}}, {"type": "node", "id": 8624360690, "lat": 37.426068, "lon": -122.146046, "tags": {"amenity": "charging_station", "fee": "yes", "access": "yes", "brand": "ChargePoint", "operator": "ChargePoint", "name": "ChargePoint", "_source": "worldwide"}}, {"type": "node", "id": 8624360691, "lat": 37.426871, "lon": -122.143305, "tags": {"amenity": "charging_station", "fee": "yes", "access": "yes", "brand": "ChargePoint", "operator": "ChargePoint", "name": "ChargePoint", "_source": "worldwide"}}, {"type": "node", "id": 8638618156, "lat": 37.804158, "lon": -122.429719, "tags": {"amenity": "charging_station", "fee": "no", "brand": "Rivian Waypoints", "network": "Adopt a Charger", "operator": "Rivian Waypoints", "name": "Rivian Waypoints", "_source": "worldwide"}}, {"type": "node", "id": 8711068536, "lat": 37.92808, "lon": -122.514736, "tags": {"amenity": "charging_station", "opening_hours": "24/7", "brand": "EVgo", "operator": "EVgo", "name": "eVgo", "socket:type1": "1", "capacity": "1", "_source": "worldwide"}}, {"type": "node", "id": 8719851308, "lat": 37.973563, "lon": -122.522739, "tags": {"amenity": "charging_station", "fee": "no", "opening_hours": "24/7", "name": "MCE Solar Charge", "socket:type1": "10", "capacity": "10", "_source": "worldwide"}}, {"type": "node", "id": 8724148694, "lat": 37.87292, "lon": -122.510534, "tags": {"amenity": "charging_station", "fee": "yes", "opening_hours": "24/7", "brand": "ChargePoint", "operator": "ChargePoint", "name": "ChargePoint", "socket:type1": "2", "capacity": "2", "_source": "worldwide"}}, {"type": "node", "id": 8754806968, "lat": 37.865242, "lon": -122.497739, "tags": {"amenity": "charging_station", "fee": "yes", "opening_hours": "24/7", "brand": "ChargePoint", "operator": "ChargePoint", "name": "ChargePoint", "socket:type1": "2", "capacity": "2", "_source": "worldwide"}}, {"type": "node", "id": 8793360071, "lat": 37.924786, "lon": -122.513343, "tags": {"amenity": "charging_station", "fee": "yes", "brand": "ChargePoint", "operator": "ChargePoint", "name": "ChargePoint", "socket:type1": "2", "capacity": "2", "_source": "worldwide"}}, {"type": "node", "id": 8813082091, "lat": 37.557591, "lon": -122.273627, "tags": {"amenity": "charging_station", "brand": "ChargePoint", "operator": "ChargePoint", "name": "ChargePoint", "_source": "worldwide"}}, {"type": "node", "id": 8813082093, "lat": 37.559221, "lon": -122.270299, "tags": {"amenity": "charging_station", "brand": "eVgo", "operator": "eVgo", "name": "eVgo", "_source": "worldwide"}}, {"type": "node", "id": 8813082096, "lat": 37.559187, "lon": -122.270235, "tags": {"amenity": "charging_station", "brand": "eVgo", "operator": "eVgo", "name": "eVgo", "_source": "worldwide"}}, {"type": "node", "id": 8826293636, "lat": 37.324553, "lon": -122.038441, "tags": {"amenity": "charging_station", "name": "EV Charging Station", "_source": "worldwide"}}, {"type": "node", "id": 8891512934, "lat": 37.928064, "lon": -122.513001, "tags": {"amenity": "charging_station", "fee": "no", "name": "EV Charging Station", "socket:type1": "2", "capacity": "2", "_source": "worldwide"}}, {"type": "node", "id": 8995011948, "lat": 37.510241, "lon": -122.293325, "tags": {"amenity": "charging_station", "access": "yes", "brand": "EVgo", "operator": "EVgo", "name": "EVgo", "_source": "worldwide"}}, {"type": "node", "id": 8997738523, "lat": 37.562017, "lon": -122.326719, "tags": {"amenity": "charging_station", "access": "yes", "name": "EV Charging Station", "_source": "worldwide"}}, {"type": "node", "id": 8997738524, "lat": 37.564633, "lon": -122.322539, "tags": {"amenity": "charging_station", "fee": "yes", "access": "yes", "name": "EV Charging Station", "_source": "worldwide"}}, {"type": "node", "id": 9009290184, "lat": 37.72911, "lon": -122.477539, "tags": {"amenity": "charging_station", "fee": "no", "access": "yes", "opening_hours": "06:00-00:00", "network": "Volta", "operator": "Volta", "name": "Volta", "capacity": "1", "_source": "worldwide"}}, {"type": "node", "id": 9121618899, "lat": 37.864599, "lon": -122.312929, "tags": {"amenity": "charging_station", "fee": "yes", "opening_hours": "24/7", "brand": "ChargePoint", "name": "ChargePoint", "socket:type1": "1", "capacity": "1", "_source": "worldwide"}}, {"type": "node", "id": 9136059963, "lat": 37.484869, "lon": -122.231299, "tags": {"amenity": "charging_station", "fee": "yes", "access": "yes", "opening_hours": "24/7", "brand": "Shell Recharge", "network": "Shell Recharge", "operator": "Shell Recharge", "name": "Shell Recharge", "_source": "worldwide"}}, {"type": "node", "id": 9136059965, "lat": 37.484743, "lon": -122.231168, "tags": {"amenity": "charging_station", "fee": "yes", "access": "yes", "opening_hours": "24/7", "brand": "Shell Recharge", "network": "Shell Recharge", "operator": "Shell Recharge", "name": "Shell Recharge", "_source": "worldwide"}}, {"type": "node", "id": 9186539543, "lat": 37.783759, "lon": -122.43128, "tags": {"amenity": "charging_station", "fee": "yes", "opening_hours": "24/7", "operator": "Electrify America", "name": "Electrify America", "socket:chademo": "1", "socket:type1": "1", "socket:type1_combo": "3", "capacity": "5", "_source": "worldwide"}}, {"type": "node", "id": 9273136489, "lat": 37.448816, "lon": -122.264749, "tags": {"amenity": "charging_station", "fee": "no", "operator": "EVlink", "name": "EVlink", "_source": "worldwide"}}, {"type": "node", "id": 9273136492, "lat": 37.448787, "lon": -122.264785, "tags": {"amenity": "charging_station", "fee": "no", "operator": "EVlink", "name": "EVlink", "_source": "worldwide"}}, {"type": "node", "id": 9336108659, "lat": 37.317301, "lon": -122.048531, "tags": {"amenity": "charging_station", "name": "EV Charging Station", "_source": "worldwide"}}, {"type": "node", "id": 9336108660, "lat": 37.317203, "lon": -122.048491, "tags": {"amenity": "charging_station", "name": "EV Charging Station", "_source": "worldwide"}}, {"type": "node", "id": 9336108675, "lat": 37.31799, "lon": -122.050414, "tags": {"amenity": "charging_station", "name": "EV Charging Station", "_source": "worldwide"}}, {"type": "node", "id": 9336108709, "lat": 37.321516, "lon": -122.051384, "tags": {"amenity": "charging_station", "name": "EV Charging Station", "_source": "worldwide"}}, {"type": "node", "id": 9336135451, "lat": 37.317177, "lon": -122.050035, "tags": {"amenity": "charging_station", "name": "EV Charging Station", "_source": "worldwide"}}, {"type": "node", "id": 9336135454, "lat": 37.315874, "lon": -122.048336, "tags": {"amenity": "charging_station", "name": "EV Charging Station", "_source": "worldwide"}}, {"type": "node", "id": 9336135464, "lat": 37.320459, "lon": -122.05112, "tags": {"amenity": "charging_station", "name": "EV Charging Station", "_source": "worldwide"}}, {"type": "node", "id": 9336135466, "lat": 37.319036, "lon": -122.050857, "tags": {"amenity": "charging_station", "name": "EV Charging Station", "_source": "worldwide"}}, {"type": "node", "id": 9336135468, "lat": 37.316841, "lon": -122.049202, "tags": {"amenity": "charging_station", "name": "EV Charging Station", "_source": "worldwide"}}, {"type": "node", "id": 9359843778, "lat": 37.43829, "lon": -122.322624, "tags": {"amenity": "charging_station", "access": "yes", "brand": "Tesla, Inc.", "name": "Tesla Destination Charger", "_source": "worldwide"}}, {"type": "node", "id": 9359859946, "lat": 37.398214, "lon": -122.192615, "tags": {"amenity": "charging_station", "access": "yes", "brand": "ChargePoint", "operator": "ChargePoint", "name": "ChargePoint", "_source": "worldwide"}}, {"type": "node", "id": 9433476587, "lat": 37.880637, "lon": -122.297355, "tags": {"amenity": "charging_station", "fee": "yes", "opening_hours": "24/7", "brand": "EVgo", "operator": "EVgo", "name": "eVgo", "socket:chademo": "1", "socket:type1_combo": "1", "capacity": "3", "_source": "worldwide"}}, {"type": "node", "id": 9461946273, "lat": 37.947803, "lon": -122.062706, "tags": {"amenity": "charging_station", "brand": "ChargePoint", "operator": "ChargePoint", "name": "ChargePoint", "_source": "worldwide"}}, {"type": "node", "id": 9509603412, "lat": 37.873858, "lon": -122.252258, "tags": {"amenity": "charging_station", "fee": "no", "name": "EV Charging Station", "_source": "worldwide"}}, {"type": "node", "id": 9509603413, "lat": 37.87382, "lon": -122.252182, "tags": {"amenity": "charging_station", "fee": "no", "name": "EV Charging Station", "_source": "worldwide"}}, {"type": "node", "id": 9525709534, "lat": 37.40804, "lon": -122.151369, "tags": {"amenity": "charging_station", "fee": "yes", "name": "EV Charging Station", "_source": "worldwide"}}, {"type": "node", "id": 9525737819, "lat": 37.406433, "lon": -122.155131, "tags": {"amenity": "charging_station", "fee": "yes", "name": "EV Charging Station", "_source": "worldwide"}}, {"type": "node", "id": 9525737832, "lat": 37.407509, "lon": -122.154259, "tags": {"amenity": "charging_station", "fee": "yes", "name": "EV Charging Station", "_source": "worldwide"}}, {"type": "node", "id": 9525737833, "lat": 37.406883, "lon": -122.152984, "tags": {"amenity": "charging_station", "fee": "yes", "name": "EV Charging Station", "_source": "worldwide"}}, {"type": "node", "id": 9525739057, "lat": 37.408107, "lon": -122.152667, "tags": {"amenity": "charging_station", "fee": "yes", "name": "EV Charging Station", "_source": "worldwide"}}, {"type": "node", "id": 9538468260, "lat": 37.426751, "lon": -122.139223, "tags": {"amenity": "charging_station", "name": "EV Charging Station", "_source": "worldwide"}}, {"type": "node", "id": 9595774595, "lat": 37.864698, "lon": -122.305279, "tags": {"amenity": "charging_station", "name": "Chargepoint", "_source": "worldwide"}}, {"type": "node", "id": 9624514964, "lat": 37.537668, "lon": -122.073953, "tags": {"amenity": "charging_station", "name": "EV Charging Station", "_source": "worldwide"}}, {"type": "node", "id": 9624514966, "lat": 37.540658, "lon": -122.077524, "tags": {"amenity": "charging_station", "name": "EV Charging Station", "_source": "worldwide"}}, {"type": "node", "id": 9751998231, "lat": 37.520403, "lon": -122.338091, "tags": {"amenity": "charging_station", "operator": "Electrify America", "name": "Electrify America", "_source": "worldwide"}}, {"type": "node", "id": 9813522159, "lat": 37.085345, "lon": -122.047502, "tags": {"amenity": "charging_station", "fee": "yes", "name": "EV Charging Station", "_source": "worldwide"}}, {"type": "node", "id": 9896670855, "lat": 37.836724, "lon": -122.294533, "tags": {"amenity": "charging_station", "fee": "no", "access": "yes", "operator": "Volta", "name": "Volta", "_source": "worldwide"}}, {"type": "node", "id": 9908476905, "lat": 37.292697, "lon": -122.002764, "tags": {"amenity": "charging_station", "name": "PowerFlex EV Charging Stations", "_source": "worldwide"}}, {"type": "node", "id": 9957953015, "lat": 37.569176, "lon": -122.280944, "tags": {"amenity": "charging_station", "name": "EV Charging Station", "_source": "worldwide"}}, {"type": "node", "id": 10054923262, "lat": 37.644087, "lon": -122.40384, "tags": {"amenity": "charging_station", "fee": "yes", "name": "EV Range", "_source": "worldwide"}}, {"type": "node", "id": 10073282238, "lat": 37.884764, "lon": -122.297805, "tags": {"amenity": "charging_station", "fee": "no", "brand": "Volta", "operator": "Volta", "name": "Volta", "_source": "worldwide"}}, {"type": "node", "id": 10113296559, "lat": 37.646814, "lon": -122.429109, "tags": {"amenity": "charging_station", "fee": "yes", "access": "yes", "operator": "ChargeNet", "name": "ChargeNet", "_source": "worldwide"}}, {"type": "node", "id": 10140925529, "lat": 37.454382, "lon": -122.181136, "tags": {"amenity": "charging_station", "brand": "ChargePoint", "operator": "ChargePoint", "name": "ChargePoint", "_source": "worldwide"}}, {"type": "node", "id": 10178967238, "lat": 37.782044, "lon": -122.447046, "tags": {"amenity": "charging_station", "fee": "yes", "access": "yes", "opening_hours": "24/7", "brand": "Tesla Supercharger", "network": "Supercharger", "operator": "Tesla, Inc.", "name": "San Francisco, CA - Geary Boulevard Supercharger", "addr:street": "Geary Boulevard", "addr:housenumber": "2675", "addr:postcode": "94118", "addr:city": "San Francisco", "capacity": "34", "_source": "worldwide"}}, {"type": "node", "id": 10222705982, "lat": 37.381642, "lon": -122.074223, "tags": {"amenity": "charging_station", "name": "EV Charging Station", "_source": "worldwide"}}, {"type": "node", "id": 10229396473, "lat": 37.8925, "lon": -122.571843, "tags": {"amenity": "charging_station", "fee": "yes", "access": "customers", "name": "EV Charging Station", "_source": "worldwide"}}, {"type": "node", "id": 10660388675, "lat": 37.601963, "lon": -122.39701, "tags": {"amenity": "charging_station", "brand": "EVgo", "operator": "EVgo", "name": "EVgo", "_source": "worldwide"}}, {"type": "node", "id": 10742480249, "lat": 37.741657, "lon": -122.498406, "tags": {"amenity": "charging_station", "name": "EV Charging Station", "_source": "worldwide"}}, {"type": "node", "id": 10742923637, "lat": 37.601227, "lon": -122.38355, "tags": {"amenity": "charging_station", "fee": "yes", "access": "yes", "brand": "EVgo", "operator": "EVgo", "name": "EVgo", "_source": "worldwide"}}, {"type": "node", "id": 10815233882, "lat": 37.805666, "lon": -122.467278, "tags": {"amenity": "charging_station", "fee": "yes", "brand": "Chargepoint", "name": "Chargepoint", "_source": "worldwide"}}, {"type": "node", "id": 10877059643, "lat": 37.37342, "lon": -122.03311, "tags": {"amenity": "charging_station", "fee": "yes", "access": "customers", "opening_hours": "24/7", "brand": "Tesla Supercharger", "network": "Supercharger", "operator": "Tesla, Inc.", "name": "Sunnyvale Supercharger", "addr:street": "West McKinley Avenue", "addr:housenumber": "298", "addr:postcode": "94086", "addr:city": "Sunnyvale", "addr:country": "US", "capacity": "10", "_source": "worldwide"}}, {"type": "node", "id": 10877059657, "lat": 37.373515, "lon": -122.031289, "tags": {"amenity": "charging_station", "brand": "ChargePoint", "operator": "ChargePoint", "name": "ChargePoint", "_source": "worldwide"}}, {"type": "node", "id": 10924700168, "lat": 37.538596, "lon": -122.255471, "tags": {"amenity": "charging_station", "fee": "yes", "access": "yes", "brand": "ChargePoint", "operator": "ChargePoint", "name": "ChargePoint", "_source": "worldwide"}}, {"type": "node", "id": 10965969007, "lat": 37.596373, "lon": -122.080175, "tags": {"amenity": "charging_station", "brand": "EVgo", "operator": "EVgo", "name": "EVgo", "_source": "worldwide"}}, {"type": "node", "id": 10981827508, "lat": 37.602121, "lon": -122.393038, "tags": {"amenity": "charging_station", "fee": "yes", "access": "yes", "brand": "ChargePoint", "operator": "ChargePoint", "name": "ChargePoint", "_source": "worldwide"}}, {"type": "node", "id": 11036499826, "lat": 37.418421, "lon": -122.109426, "tags": {"amenity": "charging_station", "operator": "Electrify America", "name": "Electrify America", "_source": "worldwide"}}, {"type": "node", "id": 11049916065, "lat": 37.429876, "lon": -122.097591, "tags": {"amenity": "charging_station", "access": "private", "brand": "ChargePoint", "operator": "Intuit", "name": "MTV 14", "_source": "worldwide"}}, {"type": "node", "id": 11073908935, "lat": 37.601143, "lon": -122.392801, "tags": {"amenity": "charging_station", "brand": "ChargePoint", "operator": "ChargePoint", "name": "ChargePoint", "_source": "worldwide"}}, {"type": "node", "id": 11077504271, "lat": 37.393001, "lon": -122.061336, "tags": {"amenity": "charging_station", "fee": "yes", "access": "yes", "brand": "EV Connect", "operator": "EV Connect", "name": "EV Connect", "_source": "worldwide"}}, {"type": "node", "id": 11141584016, "lat": 37.324783, "lon": -122.03698, "tags": {"amenity": "charging_station", "brand": "ChargePoint", "operator": "ChargePoint", "name": "ChargePoint", "_source": "worldwide"}}, {"type": "node", "id": 11175872390, "lat": 37.580043, "lon": -122.345303, "tags": {"amenity": "charging_station", "fee": "yes", "access": "yes", "brand": "ChargePoint", "operator": "ChargePoint", "name": "ChargePoint", "_source": "worldwide"}}, {"type": "node", "id": 11198865785, "lat": 37.781086, "lon": -122.416736, "tags": {"amenity": "charging_station", "fee": "yes", "brand": "EVgo", "operator": "EVgo", "name": "EVgo", "_source": "worldwide"}}, {"type": "node", "id": 11198865786, "lat": 37.781083, "lon": -122.416777, "tags": {"amenity": "charging_station", "fee": "yes", "brand": "EVgo", "operator": "EVgo", "name": "EVgo", "_source": "worldwide"}}, {"type": "node", "id": 11214908351, "lat": 37.536, "lon": -122.062933, "tags": {"amenity": "charging_station", "name": "EV Charging Station", "_source": "worldwide"}}, {"type": "node", "id": 11225944115, "lat": 37.676854, "lon": -122.459287, "tags": {"amenity": "charging_station", "brand": "EVgo", "operator": "EVgo", "name": "EVgo", "_source": "worldwide"}}, {"type": "node", "id": 11230312316, "lat": 37.822797, "lon": -122.375053, "tags": {"amenity": "charging_station", "brand": "ChargePoint", "operator": "ChargePoint", "name": "ChargePoint", "_source": "worldwide"}}, {"type": "node", "id": 11254215601, "lat": 37.804999, "lon": -122.417253, "tags": {"amenity": "charging_station", "fee": "yes", "access": "yes", "brand": "EVgo", "operator": "EVgo", "name": "EVgo", "_source": "worldwide"}}, {"type": "node", "id": 11282313211, "lat": 37.567563, "lon": -122.323876, "tags": {"amenity": "charging_station", "access": "yes", "brand": "EVgo", "operator": "EVgo", "name": "EVgo", "_source": "worldwide"}}, {"type": "node", "id": 11283136701, "lat": 37.886183, "lon": -122.269978, "tags": {"amenity": "charging_station", "name": "EV Charging Station", "_source": "worldwide"}}, {"type": "node", "id": 11328584652, "lat": 37.771575, "lon": -122.509093, "tags": {"amenity": "charging_station", "brand": "EVgo", "operator": "EVgo", "name": "EVgo", "_source": "worldwide"}}, {"type": "node", "id": 11347657757, "lat": 37.648025, "lon": -122.090671, "tags": {"amenity": "charging_station", "brand": "EVgo", "operator": "EVgo", "name": "EVgo", "_source": "worldwide"}}, {"type": "node", "id": 11363200800, "lat": 37.522756, "lon": -122.004744, "tags": {"amenity": "charging_station", "fee": "yes", "access": "yes", "brand": "ChargeNet", "name": "ChargeNet", "_source": "worldwide"}}, {"type": "node", "id": 11367851426, "lat": 37.461562, "lon": -122.431359, "tags": {"amenity": "charging_station", "fee": "yes", "access": "yes", "brand": "ChargePoint", "operator": "ChargePoint", "name": "ChargePoint", "socket:type1": "2", "capacity": "2", "_source": "worldwide"}}, {"type": "node", "id": 11367851427, "lat": 37.462609, "lon": -122.429886, "tags": {"amenity": "charging_station", "fee": "yes", "brand": "ChargePoint", "operator": "ChargePoint", "name": "ChargePoint", "socket:type1": "2", "capacity": "2", "_source": "worldwide"}}, {"type": "node", "id": 11367851428, "lat": 37.463553, "lon": -122.429019, "tags": {"amenity": "charging_station", "fee": "yes", "access": "yes", "brand": "ChargePoint", "operator": "ChargePoint", "name": "ChargePoint", "socket:type1": "2", "capacity": "2", "_source": "worldwide"}}, {"type": "node", "id": 11367851429, "lat": 37.464554, "lon": -122.428806, "tags": {"amenity": "charging_station", "fee": "yes", "access": "yes", "brand": "ChargePoint", "operator": "ChargePoint", "name": "ChargePoint", "socket:type1": "2", "capacity": "2", "_source": "worldwide"}}, {"type": "node", "id": 11367851430, "lat": 37.462116, "lon": -122.429785, "tags": {"amenity": "charging_station", "fee": "yes", "access": "yes", "opening_hours": "24/7", "brand": "Electrify America", "operator": "Electrify America", "name": "Electrify America BOA Half Moon Bay CA5-109", "socket:chademo": "1", "socket:type1_combo": "4", "capacity": "5", "_source": "worldwide"}}, {"type": "node", "id": 11374571955, "lat": 37.774826, "lon": -122.465065, "tags": {"amenity": "charging_station", "fee": "yes", "access": "customers", "operator": "EVgo", "name": "EVgo", "_source": "worldwide"}}, {"type": "node", "id": 11593096499, "lat": 37.540124, "lon": -122.302776, "tags": {"amenity": "charging_station", "fee": "yes", "access": "yes", "network": "Electrify America", "operator": "Electrify America", "name": "Electrify America", "socket:chademo": "1", "socket:type1_combo": "7", "capacity": "8", "_source": "worldwide"}}, {"type": "node", "id": 11593111212, "lat": 37.754242, "lon": -122.488508, "tags": {"amenity": "charging_station", "brand": "Electrify America", "operator": "Electrify America", "name": "Electrify America", "_source": "worldwide"}}, {"type": "node", "id": 11593122410, "lat": 37.5215, "lon": -122.3377, "tags": {"amenity": "charging_station", "fee": "yes", "access": "yes", "opening_hours": "24/7", "brand": "Tesla Supercharger", "network": "Supercharger", "operator": "Tesla", "name": "Tesla Supercharger", "addr:street": "De Anza Boulevard", "addr:housenumber": "230", "addr:postcode": "94402", "addr:city": "San Mateo", "addr:country": "US", "capacity": "8", "_source": "worldwide"}}, {"type": "node", "id": 11593126505, "lat": 37.519325, "lon": -122.274929, "tags": {"amenity": "charging_station", "operator": "Electrify America", "name": "Electrify America", "_source": "worldwide"}}, {"type": "node", "id": 11593133487, "lat": 37.93184, "lon": -122.329347, "tags": {"amenity": "charging_station", "operator": "Electrify America", "name": "Electrify America", "_source": "worldwide"}}, {"type": "node", "id": 11593133932, "lat": 37.832684, "lon": -122.279804, "tags": {"amenity": "charging_station", "operator": "Electrify America", "name": "Electrify America", "_source": "worldwide"}}, {"type": "node", "id": 11593137992, "lat": 37.789543, "lon": -122.280149, "tags": {"amenity": "charging_station", "operator": "Electrify America", "name": "Electrify America", "_source": "worldwide"}}, {"type": "node", "id": 11593137993, "lat": 37.732441, "lon": -122.489482, "tags": {"amenity": "charging_station", "operator": "Electrify America", "name": "Electrify America", "_source": "worldwide"}}, {"type": "node", "id": 11602474798, "lat": 37.778558, "lon": -122.402728, "tags": {"amenity": "charging_station", "operator": "Electrify America", "name": "Electrify America", "_source": "worldwide"}}, {"type": "node", "id": 11621247496, "lat": 37.377147, "lon": -122.063811, "tags": {"amenity": "charging_station", "fee": "yes", "access": "yes", "brand": "Freewire", "network": "evconnect", "operator": "evconnect", "name": "Loop Neighborhood Market", "socket:type1_combo": "2", "capacity": "2", "_source": "worldwide"}}, {"type": "node", "id": 11648406265, "lat": 37.325073, "lon": -122.011406, "tags": {"amenity": "charging_station", "fee": "yes", "brand": "EVgo", "operator": "EVgo", "name": "EVgo", "_source": "worldwide"}}, {"type": "node", "id": 11648406266, "lat": 37.325058, "lon": -122.01239, "tags": {"amenity": "charging_station", "fee": "yes", "brand": "EVgo", "operator": "EVgo", "name": "EVgo", "_source": "worldwide"}}, {"type": "node", "id": 11682689701, "lat": 37.376729, "lon": -122.031171, "tags": {"amenity": "charging_station", "access": "yes", "brand": "EVgo", "operator": "EVgo", "name": "EVgo", "_source": "worldwide"}}, {"type": "node", "id": 11686753604, "lat": 37.53331, "lon": -122.32747, "tags": {"amenity": "charging_station", "fee": "yes", "access": "yes", "opening_hours": "24/7", "brand": "Tesla Supercharger", "network": "Supercharger", "operator": "Tesla, Inc.", "name": "Tesla Supercharger", "addr:street": "West Hillsdale Boulevard", "addr:housenumber": "1206", "addr:postcode": "94403", "addr:city": "San Mateo", "addr:country": "US", "capacity": "40", "_source": "worldwide"}}, {"type": "node", "id": 11686753605, "lat": 37.533118, "lon": -122.327266, "tags": {"amenity": "charging_station", "access": "yes", "brand": "EVgo", "operator": "EVgo", "name": "EVgo", "_source": "worldwide"}}, {"type": "node", "id": 11689605415, "lat": 37.530169, "lon": -122.289374, "tags": {"amenity": "charging_station", "brand": "EVgo", "operator": "EVgo", "name": "EVgo", "_source": "worldwide"}}, {"type": "node", "id": 11689605416, "lat": 37.96743, "lon": -122.062556, "tags": {"amenity": "charging_station", "brand": "EVgo", "operator": "EVgo", "name": "EVgo", "_source": "worldwide"}}, {"type": "node", "id": 11689605417, "lat": 37.664693, "lon": -122.117207, "tags": {"amenity": "charging_station", "brand": "EVgo", "operator": "EVgo", "name": "EVgo", "_source": "worldwide"}}, {"type": "node", "id": 11689745894, "lat": 37.667051, "lon": -122.120502, "tags": {"amenity": "charging_station", "fee": "yes", "access": "yes", "opening_hours": "07:00-00:00", "brand": "ChargePoint", "network": "ChargePoint", "operator": "ChargePoint", "name": "ChargePoint", "capacity": "1", "_source": "worldwide"}}, {"type": "node", "id": 11689745896, "lat": 37.665423, "lon": -122.120647, "tags": {"amenity": "charging_station", "brand": "EVgo", "operator": "EVgo", "name": "EVgo", "_source": "worldwide"}}, {"type": "node", "id": 11691936119, "lat": 37.333791, "lon": -122.004816, "tags": {"amenity": "charging_station", "fee": "no", "name": "EV Charging Station", "socket:type1": "2", "capacity": "2", "_source": "worldwide"}}, {"type": "node", "id": 11691936123, "lat": 37.333462, "lon": -122.004814, "tags": {"amenity": "charging_station", "fee": "no", "name": "EV Charging Station", "socket:type1": "2", "capacity": "2", "_source": "worldwide"}}, {"type": "node", "id": 11714929405, "lat": 37.322128, "lon": -122.018141, "tags": {"amenity": "charging_station", "fee": "no", "access": "yes", "opening_hours": "Mo-Su 06:00-22:59", "brand": "Volta", "network": "Volta", "operator": "Volta", "name": "Volta", "socket:type1": "2", "capacity": "2", "_source": "worldwide"}}, {"type": "node", "id": 11725820955, "lat": 37.366394, "lon": -122.032915, "tags": {"amenity": "charging_station", "fee": "yes", "access": "yes", "brand": "EVgo", "network": "EVGo", "operator": "EVgo", "name": "Sunnyvale Shopping center", "socket:chademo": "1", "socket:type1_combo": "1", "capacity": "2", "_source": "worldwide"}}, {"type": "node", "id": 11762870965, "lat": 37.353551, "lon": -122.010945, "tags": {"amenity": "charging_station", "fee": "yes", "brand": "JuiceBox", "network": "Enel X", "operator": "Enel X", "name": "Sofi Sunnyvale Apartments", "socket:type1": "1", "capacity": "1", "_source": "worldwide"}}, {"type": "node", "id": 11762876423, "lat": 37.357885, "lon": -122.024398, "tags": {"amenity": "charging_station", "fee": "yes", "brand": "EVgo", "network": "EVgo", "operator": "EVgo", "name": "EVgo", "socket:chademo": "1", "socket:type1_combo": "1", "capacity": "2", "_source": "worldwide"}}, {"type": "node", "id": 11763820679, "lat": 37.32472, "lon": -122.03684, "tags": {"amenity": "charging_station", "fee": "yes", "access": "yes", "opening_hours": "24/7", "brand": "Tesla Supercharger", "network": "Supercharger", "operator": "Tesla", "name": "Tesla Supercharger", "addr:street": "Stevens Creek Boulevard", "addr:housenumber": "20745", "addr:postcode": "95014", "addr:city": "Cupertino", "addr:country": "US", "capacity": "28", "_source": "worldwide"}}, {"type": "node", "id": 11774359606, "lat": 37.97532, "lon": -122.563438, "tags": {"amenity": "charging_station", "brand": "ChargePoint", "operator": "ChargePoint", "name": "ChargePoint", "_source": "worldwide"}}, {"type": "node", "id": 11786520903, "lat": 37.84045, "lon": -122.29394, "tags": {"amenity": "charging_station", "fee": "yes", "access": "yes", "opening_hours": "24/7", "brand": "Tesla Supercharger", "network": "Supercharger", "operator": "Tesla, Inc.", "name": "Emeryville Public Market Supercharger", "addr:street": "Shellmound Street", "addr:housenumber": "5901", "addr:postcode": "94608", "addr:city": "Emeryville", "addr:country": "US", "capacity": "12", "_source": "worldwide"}}, {"type": "node", "id": 11815958532, "lat": 37.671367, "lon": -122.469798, "tags": {"amenity": "charging_station", "fee": "no", "access": "yes", "opening_hours": "Mo-Su 06:00-23:00", "network": "Volta", "name": "EV Charging Station", "capacity": "1", "_source": "worldwide"}}, {"type": "node", "id": 11815958533, "lat": 37.67064, "lon": -122.472266, "tags": {"amenity": "charging_station", "fee": "no", "access": "yes", "opening_hours": "Mo-Su 06:00-23:00", "network": "Volta", "name": "EV Charging Station", "capacity": "1", "_source": "worldwide"}}, {"type": "node", "id": 11815962949, "lat": 37.673279, "lon": -122.471654, "tags": {"amenity": "charging_station", "fee": "no", "access": "yes", "opening_hours": "Mo-Su 06:00-23:00", "network": "Volta", "name": "EV Charging Station", "capacity": "1", "_source": "worldwide"}}, {"type": "node", "id": 11829273104, "lat": 37.99316, "lon": -122.12137, "tags": {"amenity": "charging_station", "fee": "yes", "access": "yes", "opening_hours": "24/7", "brand": "Tesla Supercharger", "network": "Supercharger", "operator": "Tesla, Inc.", "name": "Martinez Supercharger", "addr:street": "Center Avenue", "addr:housenumber": "520", "addr:postcode": "94553", "addr:city": "Martinez", "addr:country": "US", "capacity": "16", "_source": "worldwide"}}, {"type": "node", "id": 11829960717, "lat": 37.65647, "lon": -122.43536, "tags": {"amenity": "charging_station", "fee": "no", "opening_hours": "24/7", "operator": "City of South San Francisco", "name": "City of South San Francisco", "capacity": "1", "_source": "worldwide"}}, {"type": "node", "id": 11829965241, "lat": 37.674206, "lon": -122.465608, "tags": {"amenity": "charging_station", "fee": "no", "access": "yes", "opening_hours": "06:00-00:00", "network": "Volta", "name": "EV Charging Station", "capacity": "1", "_source": "worldwide"}}, {"type": "node", "id": 11829983727, "lat": 37.668839, "lon": -122.47019, "tags": {"amenity": "charging_station", "fee": "yes", "access": "yes", "opening_hours": "24/7", "network": "ChargePoint", "name": "EV Charging Station", "charging_station:output": "6.6 kW", "capacity": "1", "_source": "worldwide"}}, {"type": "node", "id": 11831867835, "lat": 37.407454, "lon": -122.078977, "tags": {"amenity": "charging_station", "name": "EV Charging Station", "_source": "worldwide"}}, {"type": "node", "id": 11831878909, "lat": 37.40932, "lon": -122.080125, "tags": {"amenity": "charging_station", "name": "EV Charging Station", "_source": "worldwide"}}, {"type": "node", "id": 11832189317, "lat": 37.728224, "lon": -122.476829, "tags": {"amenity": "charging_station", "fee": "no", "access": "yes", "opening_hours": "06:00-00:00", "network": "Volta", "name": "EV Charging Station", "capacity": "1", "_source": "worldwide"}}, {"type": "node", "id": 11832226322, "lat": 37.729768, "lon": -122.477503, "tags": {"amenity": "charging_station", "fee": "no", "access": "yes", "opening_hours": "06:00-00:00", "network": "Volta", "name": "EV Charging Station", "capacity": "1", "_source": "worldwide"}}, {"type": "node", "id": 11832237973, "lat": 37.726655, "lon": -122.475958, "tags": {"amenity": "charging_station", "fee": "no", "access": "yes", "opening_hours": "06:00-00:00", "network": "Volta", "name": "EV Charging Station", "capacity": "1", "_source": "worldwide"}}, {"type": "node", "id": 11832238580, "lat": 37.72948, "lon": -122.475957, "tags": {"amenity": "charging_station", "fee": "no", "access": "yes", "opening_hours": "06:00-00:00", "network": "Volta", "name": "EV Charging Station", "capacity": "1", "_source": "worldwide"}}, {"type": "node", "id": 11842875898, "lat": 37.370452, "lon": -122.04311, "tags": {"amenity": "charging_station", "fee": "yes", "brand": "EVgo", "operator": "EVgo", "name": "EVgo", "_source": "worldwide"}}, {"type": "node", "id": 11882135747, "lat": 37.35869, "lon": -122.127885, "tags": {"amenity": "charging_station", "brand": "Chargepoint", "name": "Chargepoint", "_source": "worldwide"}}, {"type": "node", "id": 11885130146, "lat": 37.39992, "lon": -122.1149, "tags": {"amenity": "charging_station", "fee": "yes", "access": "yes", "opening_hours": "24/7", "brand": "Tesla Supercharger", "network": "Supercharger", "operator": "Tesla, Inc.", "name": "Tesla Supercharger", "addr:street": "Loucks Avenue", "addr:housenumber": "32", "addr:postcode": "94022", "addr:city": "Los Altos", "addr:country": "US", "capacity": "20", "_source": "worldwide"}}, {"type": "node", "id": 11885158921, "lat": 37.45966, "lon": -122.13765, "tags": {"amenity": "charging_station", "fee": "yes", "access": "customers", "opening_hours": "24/7", "brand": "Tesla Supercharger", "network": "Supercharger", "operator": "Tesla, Inc.", "name": "Tesla Supercharger", "addr:street": "East Bayshore Road", "addr:housenumber": "1775", "addr:postcode": "94303", "addr:city": "East Palo Alto", "addr:country": "US", "capacity": "20", "_source": "worldwide"}}, {"type": "node", "id": 11885600417, "lat": 37.651786, "lon": -122.10027, "tags": {"amenity": "charging_station", "fee": "no", "access": "yes", "opening_hours": "06:00-23:00", "network": "Volta", "name": "EV Charging Station", "socket:type1_combo": "1", "capacity": "1", "_source": "worldwide"}}, {"type": "node", "id": 11885673963, "lat": 37.651216, "lon": -122.104226, "tags": {"amenity": "charging_station", "fee": "no", "access": "yes", "opening_hours": "06:00-23:00", "network": "Volta", "name": "EV Charging Station", "capacity": "1", "_source": "worldwide"}}, {"type": "node", "id": 11885688437, "lat": 37.651686, "lon": -122.100151, "tags": {"amenity": "charging_station", "fee": "no", "access": "yes", "opening_hours": "06:00-23:00", "network": "Volta", "name": "EV Charging Station", "capacity": "1", "_source": "worldwide"}}, {"type": "node", "id": 11885690682, "lat": 37.65179, "lon": -122.102032, "tags": {"amenity": "charging_station", "fee": "no", "access": "yes", "opening_hours": "06:00-23:00", "network": "Volta", "name": "EV Charging Station", "capacity": "1", "_source": "worldwide"}}, {"type": "node", "id": 11885720621, "lat": 37.650127, "lon": -122.102328, "tags": {"amenity": "charging_station", "fee": "no", "access": "yes", "opening_hours": "06:00-23:00", "network": "Volta", "name": "EV Charging Station", "capacity": "1", "_source": "worldwide"}}, {"type": "node", "id": 11885721845, "lat": 37.701575, "lon": -122.126396, "tags": {"amenity": "charging_station", "fee": "no", "access": "yes", "opening_hours": "08:00-21:00", "network": "Volta", "name": "EV Charging Station", "capacity": "1", "_source": "worldwide"}}, {"type": "node", "id": 11885725918, "lat": 37.702099, "lon": -122.125658, "tags": {"amenity": "charging_station", "fee": "no", "access": "yes", "opening_hours": "08:00-23:00", "network": "Volta", "name": "EV Charging Station", "capacity": "1", "_source": "worldwide"}}, {"type": "node", "id": 11892083231, "lat": 37.97138, "lon": -122.51719, "tags": {"amenity": "charging_station", "fee": "yes", "access": "yes", "opening_hours": "24/7", "brand": "Tesla Supercharger", "network": "Supercharger", "operator": "Tesla, Inc.", "name": "San Rafael Supercharger", "addr:street": "3rd Street", "addr:housenumber": "340", "addr:postcode": "94901", "addr:city": "San Rafael", "addr:country": "US", "capacity": "8", "_source": "worldwide"}}, {"type": "node", "id": 11959154911, "lat": 37.743064, "lon": -122.38623, "tags": {"amenity": "charging_station", "access": "permissive", "opening_hours": "Mo-Fr 07:00-19:00", "brand": "ChargePoint", "operator": "ChargePoint", "name": "ChargePoint", "socket:type1": "8", "capacity": "8", "_source": "worldwide"}}, {"type": "node", "id": 11961746453, "lat": 37.409287, "lon": -122.083817, "tags": {"amenity": "charging_station", "fee": "yes", "access": "private", "network": "ChargePoint", "name": "EV Charging Station", "capacity": "1", "_source": "worldwide"}}, {"type": "node", "id": 11988238177, "lat": 37.983457, "lon": -122.319296, "tags": {"amenity": "charging_station", "operator": "Electrify America", "name": "Electrify America", "_source": "worldwide"}}, {"type": "node", "id": 11993213634, "lat": 37.637702, "lon": -122.420703, "tags": {"amenity": "charging_station", "brand": "EVgo", "operator": "EVgo", "name": "EVgo", "_source": "worldwide"}}, {"type": "node", "id": 12020584120, "lat": 37.362512, "lon": -122.026246, "tags": {"amenity": "charging_station", "fee": "yes", "access": "yes", "opening_hours": "24/7", "brand": "Tesla Supercharger", "network": "Supercharger", "operator": "Tesla, Inc.", "name": "Sunnyvale CA Supercharger", "addr:street": "East El Camino Real", "addr:housenumber": "576", "addr:postcode": "94087", "addr:city": "Sunnyvale", "addr:country": "US", "capacity": "12", "_source": "worldwide"}}, {"type": "node", "id": 12050491852, "lat": 37.80711, "lon": -122.4725, "tags": {"amenity": "charging_station", "brand": "Rivian Adventure Network", "operator": "Rivian", "name": "Rivian Adventure Network", "_source": "worldwide"}}, {"type": "node", "id": 12050547750, "lat": 37.38967, "lon": -122.09573, "tags": {"amenity": "charging_station", "fee": "yes", "access": "yes", "opening_hours": "24/7", "brand": "Tesla Supercharger", "network": "Supercharger", "operator": "Tesla, Inc.", "name": "Mountain View Supercharger", "addr:street": "El Monte Avenue", "addr:housenumber": "1049", "addr:postcode": "94040", "addr:city": "Mountain View", "addr:country": "US", "capacity": "12", "_source": "worldwide"}}, {"type": "node", "id": 12146517486, "lat": 37.98056, "lon": -122.56576, "tags": {"amenity": "charging_station", "fee": "yes", "access": "yes", "opening_hours": "24/7", "brand": "Tesla Supercharger", "network": "Supercharger", "operator": "Tesla, Inc.", "name": "San Anselmo Supercharger", "addr:street": "Sir Francis Drake Boulevard", "addr:housenumber": "834", "addr:postcode": "94960", "addr:city": "San Anselmo", "addr:country": "US", "capacity": "8", "_source": "worldwide"}}, {"type": "node", "id": 12152229145, "lat": 37.89874, "lon": -122.30867, "tags": {"amenity": "charging_station", "fee": "yes", "access": "yes", "opening_hours": "24/7", "brand": "Tesla Supercharger", "network": "Supercharger", "operator": "Tesla, Inc.", "name": "Tesla Supercharger", "addr:street": "Pierce Street", "addr:housenumber": "3288", "addr:postcode": "94804", "addr:city": "Richmond", "addr:country": "US", "_source": "worldwide"}}, {"type": "node", "id": 12200094889, "lat": 37.768962, "lon": -122.234061, "tags": {"amenity": "charging_station", "brand": "EVgo", "name": "EVgo", "_source": "worldwide"}}, {"type": "node", "id": 12200453177, "lat": 37.777561, "lon": -122.298007, "tags": {"amenity": "charging_station", "name": "EV Charging Station", "_source": "worldwide"}}, {"type": "node", "id": 12280371944, "lat": 37.906821, "lon": -122.059149, "tags": {"amenity": "charging_station", "brand": "7-Eleven", "operator": "7-Eleven", "name": "7-Eleven", "_source": "worldwide"}}, {"type": "node", "id": 12332038705, "lat": 37.756874, "lon": -122.253096, "tags": {"amenity": "charging_station", "brand": "Volta", "operator": "Volta", "name": "Volta", "_source": "worldwide"}}, {"type": "node", "id": 12425973738, "lat": 37.428349, "lon": -122.250979, "tags": {"amenity": "charging_station", "name": "EV Charging Station", "_source": "worldwide"}}, {"type": "node", "id": 12529904172, "lat": 37.50078, "lon": -122.251353, "tags": {"amenity": "charging_station", "brand": "EVgo", "name": "EVgo", "_source": "worldwide"}}, {"type": "node", "id": 12576743532, "lat": 37.381833, "lon": -122.228309, "tags": {"amenity": "charging_station", "name": "EV Charging Station", "_source": "worldwide"}}, {"type": "node", "id": 12577157562, "lat": 37.42886, "lon": -122.256393, "tags": {"amenity": "charging_station", "name": "EV Charging Station", "_source": "worldwide"}}, {"type": "node", "id": 12583226772, "lat": 37.382165, "lon": -122.229871, "tags": {"amenity": "charging_station", "name": "EV Charging Station", "_source": "worldwide"}}, {"type": "node", "id": 12621510786, "lat": 37.463794, "lon": -122.197096, "tags": {"amenity": "charging_station", "name": "EV Charging Station", "_source": "worldwide"}}, {"type": "node", "id": 12621556911, "lat": 37.467228, "lon": -122.207588, "tags": {"amenity": "charging_station", "name": "EV Charging Station", "_source": "worldwide"}}, {"type": "node", "id": 12657652953, "lat": 37.99072, "lon": -122.30165, "tags": {"amenity": "charging_station", "fee": "yes", "access": "yes", "opening_hours": "24/7", "brand": "Tesla Supercharger", "network": "Supercharger", "operator": "Tesla", "name": "Pinole Supercharger", "addr:street": "Fitzgerald Drive", "addr:housenumber": "1552", "addr:postcode": "94564", "addr:city": "Pinole", "addr:country": "US", "capacity": "16", "_source": "worldwide"}}, {"type": "node", "id": 12671107247, "lat": 37.92828, "lon": -122.51482, "tags": {"amenity": "charging_station", "fee": "yes", "access": "customers", "opening_hours": "24/7", "brand": "Tesla Supercharger", "network": "Supercharger", "operator": "Tesla, Inc.", "name": "Corte Madera Supercharger", "addr:street": "Redwood Highway", "addr:housenumber": "1618", "addr:postcode": "94925", "addr:city": "Corte Madera", "addr:country": "US", "capacity": "10", "_source": "worldwide"}}, {"type": "node", "id": 12671140729, "lat": 37.94478, "lon": -122.52271, "tags": {"amenity": "charging_station", "fee": "yes", "access": "customers", "opening_hours": "24/7", "brand": "Tesla Supercharger", "network": "Supercharger", "operator": "Tesla, Inc.", "name": "Greenbrae Supercharger", "addr:postcode": "94904", "addr:city": "Greenbrae", "addr:country": "US", "capacity": "14", "_source": "worldwide"}}, {"type": "node", "id": 12724427576, "lat": 37.402344, "lon": -122.192836, "tags": {"amenity": "charging_station", "name": "EV Charging Station", "_source": "worldwide"}}, {"type": "node", "id": 12782343628, "lat": 37.400935, "lon": -122.108636, "tags": {"amenity": "charging_station", "operator": "Electrify America", "name": "Electrify America", "_source": "worldwide"}}, {"type": "node", "id": 12787761807, "lat": 37.595348, "lon": -122.366059, "tags": {"amenity": "charging_station", "name": "EV Charging Station", "_source": "worldwide"}}, {"type": "node", "id": 12818390094, "lat": 37.759672, "lon": -122.476539, "tags": {"amenity": "charging_station", "fee": "yes", "access": "yes", "opening_hours": "24/7", "brand": "Shell", "network": "Shell Recharge", "operator": "Shell Recharge Solutions", "name": "Shell Recharge", "addr:street": "19th Avenue", "addr:housenumber": "1500", "addr:postcode": "94122", "addr:city": "San Francisco", "addr:country": "US", "socket:type1_combo": "12", "capacity": "12", "_source": "worldwide"}}, {"type": "node", "id": 12834527373, "lat": 37.799868, "lon": -122.433808, "tags": {"amenity": "charging_station", "fee": "yes", "access": "yes", "opening_hours": "24/7", "brand": "Tesla Supercharger", "network": "Supercharger", "operator": "Tesla", "name": "Tesla Supercharger", "addr:street": "Lombard Street", "addr:housenumber": "1965", "addr:postcode": "94123", "addr:city": "San Francisco", "addr:country": "US", "capacity": "16", "_source": "worldwide"}}, {"type": "node", "id": 12849811923, "lat": 37.772507, "lon": -122.412821, "tags": {"amenity": "charging_station", "access": "yes", "brand": "Ionna (Coming Soon)", "name": "Ionna (Coming Soon)", "_source": "worldwide"}}, {"type": "node", "id": 12896993297, "lat": 37.65013, "lon": -122.405946, "tags": {"amenity": "charging_station", "fee": "yes", "access": "yes", "opening_hours": "24/7", "brand": "bp pulse", "network": "bp pulse", "operator": "BP", "name": "bp pulse Gigahub", "addr:street": "Airport Boulevard", "addr:housenumber": "177", "addr:postcode": "94080", "addr:city": "San Francisco", "addr:country": "US", "socket:type1_combo": "4", "capacity": "12", "_source": "worldwide"}}, {"type": "node", "id": 12911705552, "lat": 37.840172, "lon": -122.293844, "tags": {"amenity": "charging_station", "brand": "EVgo", "name": "EVgo", "_source": "worldwide"}}, {"type": "node", "id": 12944721954, "lat": 37.404218, "lon": -122.025256, "tags": {"amenity": "charging_station", "fee": "yes", "access": "yes", "opening_hours": "24/7", "brand": "Tesla Supercharger", "network": "Supercharger", "operator": "Tesla", "name": "Sunnyvale Supercharger", "addr:street": "North Mathilda Avenue", "addr:housenumber": "1100", "addr:postcode": "94089", "addr:city": "Sunnyvale", "addr:country": "US", "capacity": "12", "_source": "worldwide"}}, {"type": "node", "id": 12944743395, "lat": 37.53601, "lon": -122.06335, "tags": {"amenity": "charging_station", "fee": "yes", "access": "yes", "opening_hours": "24/7", "brand": "Tesla Supercharger", "network": "Supercharger", "operator": "Tesla, Inc.", "name": "Tesla Supercharger", "addr:street": "Gateway Boulevard", "addr:housenumber": "8200", "addr:postcode": "94560", "addr:city": "Newark", "addr:country": "US", "capacity": "22", "_source": "worldwide"}}, {"type": "node", "id": 12944743413, "lat": 37.53901, "lon": -122.03343, "tags": {"amenity": "charging_station", "fee": "yes", "access": "yes", "opening_hours": "24/7", "brand": "Tesla Supercharger", "network": "Supercharger", "operator": "Tesla, Inc.", "name": "Tesla Supercharger", "addr:street": "Newark Boulevard", "addr:housenumber": "36601", "addr:postcode": "94560", "addr:city": "Newark", "addr:country": "US", "capacity": "12", "_source": "worldwide"}}, {"type": "node", "id": 12944743414, "lat": 37.37805, "lon": -122.07758, "tags": {"amenity": "charging_station", "fee": "yes", "access": "yes", "opening_hours": "24/7", "brand": "Tesla Supercharger", "network": "Supercharger", "operator": "Tesla", "name": "Mountain View Supercharger", "addr:street": "Grant Road", "addr:housenumber": "1350", "addr:postcode": "94040", "addr:city": "Mountain View", "addr:country": "US", "capacity": "32", "_source": "worldwide"}}, {"type": "node", "id": 12944743422, "lat": 37.56192, "lon": -122.01027, "tags": {"amenity": "charging_station", "fee": "yes", "access": "yes", "opening_hours": "24/7", "brand": "Tesla Supercharger", "network": "Supercharger", "operator": "Tesla, Inc.", "name": "Tesla Supercharger", "addr:street": "Thornton Avenue", "addr:housenumber": "3700", "addr:postcode": "94536", "addr:city": "Fremont", "addr:country": "US", "capacity": "12", "_source": "worldwide"}}, {"type": "node", "id": 12944743423, "lat": 37.70981, "lon": -122.16461, "tags": {"amenity": "charging_station", "fee": "yes", "access": "yes", "opening_hours": "24/7", "brand": "Tesla Supercharger", "network": "Supercharger", "operator": "Tesla, Inc.", "name": "San Leandro Supercharger", "addr:street": "Marina Boulevard", "addr:housenumber": "1201", "addr:postcode": "94577", "addr:city": "San Leandro", "addr:country": "US", "capacity": "12", "_source": "worldwide"}}, {"type": "node", "id": 12944743533, "lat": 37.79415, "lon": -122.27258, "tags": {"amenity": "charging_station", "fee": "yes", "access": "customers", "opening_hours": "24/7", "brand": "Tesla Supercharger", "network": "Supercharger", "operator": "Tesla, Inc.", "name": "Tesla Supercharger", "addr:street": "2nd Street", "addr:housenumber": "255", "addr:postcode": "94607", "addr:city": "Oakland", "addr:country": "US", "capacity": "12", "_source": "worldwide"}}, {"type": "node", "id": 12944743542, "lat": 37.89528, "lon": -122.06183, "tags": {"amenity": "charging_station", "fee": "yes", "access": "customers", "opening_hours": "24/7", "brand": "Tesla Supercharger", "network": "Supercharger", "operator": "Tesla", "name": "Walnut Creek Supercharger", "addr:street": "Locust Street", "addr:housenumber": "1181", "addr:postcode": "94596", "addr:city": "Walnut Creek", "addr:country": "US", "capacity": "24", "_source": "worldwide"}}, {"type": "node", "id": 12944743543, "lat": 37.7813, "lon": -122.42139, "tags": {"amenity": "charging_station", "fee": "yes", "access": "customers", "opening_hours": "24/7", "brand": "Tesla Supercharger", "network": "Supercharger", "operator": "Tesla, Inc.", "name": "Tesla Supercharger", "addr:street": "Van Ness Avenue", "addr:housenumber": "601", "addr:postcode": "94102", "addr:city": "San Francisco", "addr:country": "US", "capacity": "12", "_source": "worldwide"}}, {"type": "node", "id": 12944743546, "lat": 37.89858, "lon": -122.30073, "tags": {"amenity": "charging_station", "fee": "yes", "access": "customers", "opening_hours": "24/7", "brand": "Tesla Supercharger", "network": "Supercharger", "operator": "Tesla, Inc.", "name": "El Cerrito Supercharger", "addr:street": "El Cerrito Plz", "addr:housenumber": "180", "addr:postcode": "94530", "addr:city": "El Cerrito", "addr:country": "US", "capacity": "14", "_source": "worldwide"}}, {"type": "node", "id": 12944743547, "lat": 37.7658, "lon": -122.40985, "tags": {"amenity": "charging_station", "fee": "yes", "access": "customers", "opening_hours": "24/7", "brand": "Tesla Supercharger", "network": "Supercharger", "operator": "Tesla, Inc.", "name": "Tesla Supercharger", "addr:street": "16th Street", "addr:housenumber": "2300", "addr:postcode": "94103", "addr:city": "San Francisco", "addr:country": "US", "capacity": "12", "_source": "worldwide"}}, {"type": "node", "id": 12944743562, "lat": 37.44172, "lon": -122.17027, "tags": {"amenity": "charging_station", "fee": "yes", "access": "customers", "opening_hours": "24/7", "brand": "Tesla Supercharger", "network": "Supercharger", "operator": "Tesla, Inc.", "name": "Tesla Supercharger", "addr:street": "Stanford Shopping Center", "addr:housenumber": "660", "addr:postcode": "94304", "addr:city": "Palo Alto", "addr:country": "US", "capacity": "20", "_source": "worldwide"}}, {"type": "node", "id": 12944743566, "lat": 37.79851, "lon": -122.44985, "tags": {"amenity": "charging_station", "fee": "yes", "access": "customers", "opening_hours": "24/7", "brand": "Tesla Supercharger", "network": "Supercharger", "operator": "Tesla, Inc.", "name": "Tesla Supercharger", "addr:postcode": "94129", "addr:city": "San Francisco", "addr:country": "US", "capacity": "6", "_source": "worldwide"}}, {"type": "node", "id": 12944743571, "lat": 37.65524, "lon": -122.40132, "tags": {"amenity": "charging_station", "fee": "yes", "access": "customers", "opening_hours": "24/7", "brand": "Tesla Supercharger", "network": "Supercharger", "operator": "Tesla, Inc.", "name": "Tesla Supercharger", "addr:street": "Gateway Boulevard", "addr:housenumber": "250", "addr:postcode": "94080", "addr:city": "South San Francisco", "addr:country": "US", "capacity": "20", "_source": "worldwide"}}, {"type": "node", "id": 12944743596, "lat": 37.5259, "lon": -122.00662, "tags": {"amenity": "charging_station", "fee": "yes", "access": "customers", "opening_hours": "24/7", "brand": "Tesla Supercharger", "network": "Supercharger", "operator": "Tesla, Inc.", "name": "Tesla Supercharger", "addr:street": "Newpark Mall", "addr:housenumber": "3100", "addr:postcode": "94560", "addr:city": "Newark", "addr:country": "US", "capacity": "16", "_source": "worldwide"}}, {"type": "node", "id": 12944743621, "lat": 37.32437, "lon": -122.00918, "tags": {"amenity": "charging_station", "fee": "yes", "access": "customers", "opening_hours": "24/7", "brand": "Tesla Supercharger", "network": "Supercharger", "operator": "Tesla", "name": "Tesla Supercharger", "addr:street": "Vallco Parkway", "addr:housenumber": "19500", "addr:postcode": "95014", "addr:city": "Cupertino", "addr:country": "US", "capacity": "10", "_source": "worldwide"}}, {"type": "node", "id": 12944743659, "lat": 37.3991, "lon": -122.111129, "tags": {"amenity": "charging_station", "fee": "yes", "access": "customers", "opening_hours": "24/7", "brand": "Tesla Supercharger", "network": "Supercharger", "operator": "Tesla, Inc.", "name": "Tesla Supercharger", "addr:street": "El Camino Real", "addr:housenumber": "4800", "addr:postcode": "94022", "addr:city": "Los Altos", "addr:country": "US", "capacity": "16", "_source": "worldwide"}}, {"type": "node", "id": 12944743701, "lat": 37.626, "lon": -122.42577, "tags": {"amenity": "charging_station", "fee": "yes", "access": "yes", "opening_hours": "24/7", "brand": "Tesla Supercharger", "network": "Supercharger", "operator": "Tesla, Inc.", "name": "San Bruno Supercharger", "addr:street": "Cherry Avenue", "addr:housenumber": "851", "addr:postcode": "94066", "addr:city": "San Bruno", "addr:country": "US", "capacity": "12", "_source": "worldwide"}}, {"type": "node", "id": 12944743760, "lat": 37.92363, "lon": -122.08833, "tags": {"amenity": "charging_station", "fee": "yes", "access": "yes", "opening_hours": "24/7", "brand": "Tesla Supercharger", "network": "Supercharger", "operator": "Tesla, Inc.", "name": "Tesla Supercharger", "addr:street": "Palos Verdes Mall", "addr:housenumber": "1600", "addr:postcode": "94597", "addr:city": "Walnut Creek", "addr:country": "US", "capacity": "12", "_source": "worldwide"}}, {"type": "node", "id": 12944743768, "lat": 37.66349, "lon": -122.39728, "tags": {"amenity": "charging_station", "fee": "yes", "access": "yes", "opening_hours": "24/7", "brand": "Tesla Supercharger", "network": "Supercharger", "operator": "Tesla, Inc.", "name": "Tesla Supercharger", "addr:street": "Oyster Point Boulevard", "addr:housenumber": "101", "addr:postcode": "94080", "addr:city": "South San Francisco", "addr:country": "US", "capacity": "16", "_source": "worldwide"}}, {"type": "node", "id": 12944743800, "lat": 37.46039, "lon": -122.1384, "tags": {"amenity": "charging_station", "fee": "yes", "access": "yes", "opening_hours": "24/7", "brand": "Tesla Supercharger", "network": "Supercharger", "operator": "Tesla, Inc.", "name": "Tesla Supercharger", "addr:street": "East Bayshore Road", "addr:housenumber": "1700", "addr:postcode": "94303", "addr:city": "East Palo Alto", "addr:country": "US", "capacity": "20", "_source": "worldwide"}}, {"type": "node", "id": 12944743802, "lat": 37.59119, "lon": -122.3487, "tags": {"amenity": "charging_station", "fee": "yes", "access": "yes", "opening_hours": "24/7", "brand": "Tesla Supercharger", "network": "Supercharger", "operator": "Tesla, Inc.", "name": "Burlingame Supercharger", "addr:street": "Anza Boulevard", "addr:housenumber": "150", "addr:postcode": "94010", "addr:city": "Burlingame", "addr:country": "US", "capacity": "20", "_source": "worldwide"}}, {"type": "node", "id": 12944743823, "lat": 37.93008, "lon": -122.01481, "tags": {"amenity": "charging_station", "fee": "yes", "access": "yes", "opening_hours": "24/7", "brand": "Tesla Supercharger", "network": "Supercharger", "operator": "Tesla, Inc.", "name": "Walnut Creek Supercharger", "addr:street": "Oak Grove Road", "addr:housenumber": "2290", "addr:postcode": "94598", "addr:city": "Walnut Creek", "addr:country": "US", "capacity": "12", "_source": "worldwide"}}, {"type": "node", "id": 12944743849, "lat": 37.54379, "lon": -122.28555, "tags": {"amenity": "charging_station", "fee": "yes", "access": "yes", "opening_hours": "24/7", "brand": "Tesla Supercharger", "network": "Supercharger", "operator": "Tesla, Inc.", "name": "Tesla Supercharger", "addr:street": "South Norfolk Street", "addr:housenumber": "2940", "addr:postcode": "94403", "addr:city": "San Mateo", "addr:country": "US", "capacity": "12", "_source": "worldwide"}}, {"type": "node", "id": 12944743926, "lat": 37.69655, "lon": -122.46323, "tags": {"amenity": "charging_station", "fee": "yes", "access": "yes", "opening_hours": "24/7", "brand": "Tesla Supercharger", "network": "Supercharger", "operator": "Tesla, Inc.", "name": "Tesla Supercharger", "addr:street": "Mission Street", "addr:housenumber": "6917", "addr:postcode": "94014", "addr:city": "Daly City", "addr:country": "US", "capacity": "15", "_source": "worldwide"}}, {"type": "node", "id": 12944743982, "lat": 37.55453, "lon": -122.29323, "tags": {"amenity": "charging_station", "fee": "yes", "access": "yes", "opening_hours": "24/7", "brand": "Tesla Supercharger", "network": "Supercharger", "operator": "Tesla, Inc.", "name": "Tesla Supercharger", "addr:street": "South Norfolk Street", "addr:housenumber": "1878", "addr:postcode": "94403", "addr:city": "San Mateo", "addr:country": "US", "capacity": "16", "_source": "worldwide"}}, {"type": "node", "id": 12944744082, "lat": 37.44651, "lon": -122.16203, "tags": {"amenity": "charging_station", "fee": "yes", "access": "yes", "opening_hours": "24/7", "brand": "Tesla Supercharger", "network": "Supercharger", "operator": "Tesla, Inc.", "name": "Tesla Supercharger", "addr:street": "Bryant Street", "addr:housenumber": "445", "addr:postcode": "94301", "addr:city": "Palo Alto", "addr:country": "US", "capacity": "19", "_source": "worldwide"}}, {"type": "node", "id": 12944744095, "lat": 37.6361, "lon": -122.42052, "tags": {"amenity": "charging_station", "fee": "yes", "access": "yes", "opening_hours": "24/7", "brand": "Tesla Supercharger", "network": "Supercharger", "operator": "Tesla, Inc.", "name": "San Bruno Supercharger", "addr:street": "El Camino Real", "addr:housenumber": "1150", "addr:postcode": "94066", "addr:city": "San Bruno", "addr:country": "US", "capacity": "28", "_source": "worldwide"}}, {"type": "node", "id": 12944744116, "lat": 37.65318, "lon": -122.09032, "tags": {"amenity": "charging_station", "fee": "yes", "access": "yes", "opening_hours": "24/7", "brand": "Tesla Supercharger", "network": "Supercharger", "operator": "Tesla, Inc.", "name": "Hayward Supercharger", "addr:street": "West Jackson Street", "addr:housenumber": "249", "addr:postcode": "94544", "addr:city": "Hayward", "addr:country": "US", "capacity": "20", "_source": "worldwide"}}, {"type": "node", "id": 12944744124, "lat": 37.6189, "lon": -122.44052, "tags": {"amenity": "charging_station", "fee": "yes", "access": "yes", "opening_hours": "24/7", "brand": "Tesla Supercharger", "network": "Supercharger", "operator": "Tesla, Inc.", "name": "San Bruno Supercharger", "addr:street": "San Bruno Avenue West", "addr:housenumber": "2801", "addr:postcode": "94066", "addr:city": "San Bruno", "addr:country": "US", "capacity": "12", "_source": "worldwide"}}, {"type": "node", "id": 12944744274, "lat": 37.7464, "lon": -122.19561, "tags": {"amenity": "charging_station", "fee": "yes", "access": "yes", "opening_hours": "24/7", "brand": "Tesla Supercharger", "network": "Supercharger", "operator": "Tesla, Inc.", "name": "Tesla Supercharger", "addr:street": "Hegenberger Road", "addr:housenumber": "640", "addr:postcode": "94621", "addr:city": "Oakland", "addr:country": "US", "capacity": "16", "_source": "worldwide"}}, {"type": "node", "id": 12944744364, "lat": 37.78181, "lon": -122.44615, "tags": {"amenity": "charging_station", "fee": "yes", "access": "customers", "opening_hours": "24/7", "brand": "Tesla Supercharger", "network": "Supercharger", "operator": "Tesla, Inc.", "name": "Tesla Supercharger", "addr:street": "Geary Boulevard", "addr:housenumber": "2675", "addr:postcode": "94118", "addr:city": "San Francisco", "addr:country": "US", "capacity": "34", "_source": "worldwide"}}, {"type": "node", "id": 13040797412, "lat": 37.918057, "lon": -122.038375, "tags": {"amenity": "charging_station", "fee": "yes", "access": "yes", "opening_hours": "24/7", "brand": "Tesla Supercharger", "network": "Supercharger", "operator": "Tesla, Inc.", "name": "Walnut Creek Supercharger", "addr:street": "Ygnacio Valley Road", "addr:housenumber": "1881", "addr:postcode": "94598", "addr:city": "Walnut Creek", "addr:country": "US", "capacity": "8", "_source": "worldwide"}}, {"type": "node", "id": 13069204445, "lat": 37.541591, "lon": -122.302155, "tags": {"amenity": "charging_station", "fee": "yes", "access": "yes", "opening_hours": "24/7", "brand": "Tesla Supercharger", "network": "Supercharger", "operator": "Tesla, Inc.", "name": "Tesla Supercharger", "addr:street": "South El Camino Real", "addr:housenumber": "2817", "addr:postcode": "94403", "addr:city": "San Mateo", "addr:country": "US", "capacity": "12", "_source": "worldwide"}}, {"type": "node", "id": 13077366923, "lat": 37.650733, "lon": -122.430426, "tags": {"amenity": "charging_station", "brand": "Revel", "name": "Revel", "_source": "worldwide"}}, {"type": "node", "id": 13139959765, "lat": 37.851592, "lon": -122.034033, "tags": {"amenity": "charging_station", "fee": "yes", "access": "yes", "opening_hours": "24/7", "brand": "Tesla Supercharger", "network": "Supercharger", "operator": "Tesla", "name": "Alamo Supercharger", "addr:street": "Alamo Plaza", "addr:housenumber": "200", "addr:postcode": "94507", "addr:city": "Alamo", "addr:country": "US", "capacity": "16", "_source": "worldwide"}}, {"type": "node", "id": 13181366615, "lat": 37.475237, "lon": -122.215597, "tags": {"amenity": "charging_station", "fee": "yes", "access": "yes", "opening_hours": "24/7", "brand": "Tesla Supercharger", "network": "Supercharger", "operator": "Tesla", "name": "Redwood City Supercharger", "addr:street": "El Camino Real", "addr:housenumber": "2545", "addr:postcode": "94061", "addr:city": "Redwood City", "addr:country": "US", "capacity": "16", "_source": "worldwide"}}, {"type": "node", "id": 13184954957, "lat": 37.800989, "lon": -122.265541, "tags": {"amenity": "charging_station", "name": "EV Charging Station", "_source": "worldwide"}}, {"type": "node", "id": 13281932125, "lat": 37.644522, "lon": -122.104103, "tags": {"amenity": "charging_station", "fee": "yes", "access": "yes", "opening_hours": "24/7", "brand": "Tesla Supercharger", "network": "Supercharger", "operator": "Tesla, Inc.", "name": "Hayward Supercharger", "addr:street": "Hesperian Boulevard", "addr:housenumber": "25034", "addr:postcode": "94545", "addr:city": "Hayward", "addr:country": "US", "capacity": "12", "_source": "worldwide"}}, {"type": "node", "id": 13319013853, "lat": 37.897835, "lon": -122.514451, "tags": {"amenity": "charging_station", "fee": "yes", "access": "yes", "opening_hours": "24/7", "brand": "Tesla Supercharger", "network": "Supercharger", "operator": "Tesla, Inc.", "name": "Mill Valley Supercharger", "addr:street": "Strawberry Village", "addr:housenumber": "800", "addr:postcode": "94941", "addr:city": "Mill Valley", "addr:country": "US", "capacity": "12", "_source": "worldwide"}}, {"type": "node", "id": 13337989219, "lat": 37.304863, "lon": -122.033792, "tags": {"amenity": "charging_station", "fee": "yes", "access": "yes", "opening_hours": "24/7", "brand": "Tesla Supercharger", "network": "Supercharger", "operator": "Tesla", "name": "Tesla Supercharger", "addr:street": "South De Anza Boulevard", "addr:housenumber": "1179", "addr:postcode": "95129", "addr:city": "San Jose", "addr:country": "US", "capacity": "16", "_source": "worldwide"}}, {"type": "node", "id": 13396541178, "lat": 37.855436, "lon": -122.260867, "tags": {"amenity": "charging_station", "name": "EV Charging Station", "_source": "worldwide"}}, {"type": "node", "id": 13428103335, "lat": 37.696756, "lon": -122.462576, "tags": {"amenity": "charging_station", "brand": "Ionna", "name": "Ionna", "_source": "worldwide"}}, {"type": "node", "id": 13428103372, "lat": 37.698269, "lon": -122.463335, "tags": {"amenity": "charging_station", "brand": "EVgo", "operator": "EVgo", "name": "EVgo", "_source": "worldwide"}}, {"type": "node", "id": 13469428901, "lat": 37.853143, "lon": -122.290166, "tags": {"amenity": "charging_station", "operator": "Shell Recharge", "name": "Shell Recharge Charging Station", "addr:street": "Heinz Avenue", "addr:housenumber": "920", "addr:postcode": "94710", "_source": "worldwide"}}, {"type": "node", "id": 13477990601, "lat": 37.83027, "lon": -122.292061, "tags": {"amenity": "charging_station", "operator": "ChargePoint", "name": "ChargePoint", "addr:street": "Shellmound Street", "addr:housenumber": "4400", "addr:postcode": "94608", "_source": "worldwide"}}, {"type": "node", "id": 13527690206, "lat": 37.726735, "lon": -122.453181, "tags": {"amenity": "charging_station", "brand": "Blink", "operator": "Blink", "name": "Blink", "_source": "worldwide"}}, {"type": "node", "id": 13657294402, "lat": 37.608415, "lon": -122.406163, "tags": {"amenity": "charging_station", "brand": "ChargePoint", "operator": "ChargePoint", "name": "ChargePoint", "_source": "worldwide"}}, {"type": "node", "id": 13709163433, "lat": 37.368841, "lon": -122.025359, "tags": {"amenity": "charging_station", "name": "EV Charging Station", "_source": "worldwide"}}]}