{"id": "37--4", "latMin": 37, "lonMin": -4, "latMax": 38, "lonMax": -3, "generated": "2026-04-16T18:39:07.488Z", "count": 32, "pois": [{"type": "node", "id": 570182490, "lat": 37.195377, "lon": -3.833784, "tags": {"amenity": "charging_station", "addr:country": "ES", "_source": "worldwide"}}, {"type": "node", "id": 1098769453, "lat": 37.148448, "lon": -3.66276, "tags": {"amenity": "charging_station", "operator": "Endesa", "name": "Ladestation Endesa", "addr:country": "ES", "_source": "worldwide"}}, {"type": "node", "id": 1482202590, "lat": 37.201969, "lon": -3.615573, "tags": {"amenity": "charging_station", "fee": "yes", "operator": "Endesa", "name": "Ladestation Endesa", "addr:country": "ES", "capacity": "4", "_source": "worldwide"}}, {"type": "node", "id": 1499816635, "lat": 37.786951, "lon": -3.775851, "tags": {"amenity": "charging_station", "fee": "yes", "addr:country": "ES", "_source": "worldwide"}}, {"type": "node", "id": 4471308689, "lat": 37.172424, "lon": -3.674949, "tags": {"amenity": "charging_station", "operator": "Grana genil", "name": "Grana genil", "_source": "worldwide"}}, {"type": "node", "id": 4856014051, "lat": 37.154504, "lon": -3.608155, "tags": {"amenity": "charging_station", "brand": "Carrefour", "operator": "Carrefour", "name": "Carrefour", "_source": "worldwide"}}, {"type": "node", "id": 4856014052, "lat": 37.210875, "lon": -3.621307, "tags": {"amenity": "charging_station", "operator": "Decathlón", "name": "Decathlón", "_source": "worldwide"}}, {"type": "node", "id": 4856014053, "lat": 37.171982, "lon": -3.60329, "tags": {"amenity": "charging_station", "name": "EV Charging Station", "_source": "worldwide"}}, {"type": "node", "id": 5168779722, "lat": 37.181744, "lon": -3.928573, "tags": {"amenity": "charging_station", "fee": "yes", "access": "yes", "opening_hours": "24/7", "brand": "Tesla Supercharger", "operator": "Tesla", "name": "Granada Supercharger", "addr:street": "s/n A-92", "addr:postcode": "18370", "addr:city": "Moraleda de Zafayona", "socket:tesla_supercharger": "10", "capacity": "20", "_source": "worldwide"}}, {"type": "node", "id": 5308349301, "lat": 37.768217, "lon": -3.802256, "tags": {"amenity": "charging_station", "name": "EV Charging Station", "_source": "worldwide"}}, {"type": "node", "id": 9141729561, "lat": 37.393338, "lon": -3.027014, "tags": {"amenity": "charging_station", "operator": "Endesa", "name": "Endesa", "_source": "worldwide"}}, {"type": "node", "id": 10269787205, "lat": 37.178006, "lon": -3.612431, "tags": {"amenity": "charging_station", "name": "EV Charging Station", "_source": "worldwide"}}, {"type": "node", "id": 10282197795, "lat": 37.162589, "lon": -3.608041, "tags": {"amenity": "charging_station", "fee": "yes", "opening_hours": "24/7", "name": "EV Charging Station", "_source": "worldwide"}}, {"type": "node", "id": 10284364934, "lat": 37.176274, "lon": -3.664345, "tags": {"amenity": "charging_station", "fee": "yes", "opening_hours": "24/7", "operator": "Endesa", "name": "Endesa", "_source": "worldwide"}}, {"type": "node", "id": 10586727681, "lat": 37.197174, "lon": -3.642485, "tags": {"amenity": "charging_station", "fee": "yes", "access": "yes", "opening_hours": "24/7", "brand": "Repsol", "operator": "EDP", "name": "EDP Kia ARM Motor, Maracena", "capacity": "3", "_source": "worldwide"}}, {"type": "node", "id": 11539341930, "lat": 37.215873, "lon": -3.689605, "tags": {"amenity": "charging_station", "brand": "Shell", "operator": "Shell", "name": "Shell", "_source": "worldwide"}}, {"type": "node", "id": 11755373124, "lat": 37.153631, "lon": -3.615327, "tags": {"amenity": "charging_station", "access": "yes", "operator": "Endesa", "name": "Endesa", "charging_station:output": "60.0 kW", "capacity": "6", "_source": "worldwide"}}, {"type": "node", "id": 11895667443, "lat": 37.197747, "lon": -3.639235, "tags": {"amenity": "charging_station", "operator": "Repsol", "name": "Repsol", "_source": "worldwide"}}, {"type": "node", "id": 11895711069, "lat": 37.197181, "lon": -3.636409, "tags": {"amenity": "charging_station", "name": "EV Charging Station", "_source": "worldwide"}}, {"type": "node", "id": 11917510888, "lat": 37.789999, "lon": -3.776158, "tags": {"amenity": "charging_station", "fee": "yes", "access": "yes", "opening_hours": "24/7", "brand": "Tesla Supercharger", "operator": "Tesla", "name": "Jaén Supercharger", "capacity": "12", "_source": "worldwide"}}, {"type": "node", "id": 11920194035, "lat": 37.452365, "lon": -3.935354, "tags": {"amenity": "charging_station", "name": "EV Charging Station", "_source": "worldwide"}}, {"type": "node", "id": 11920194036, "lat": 37.449963, "lon": -3.919446, "tags": {"amenity": "charging_station", "name": "EV Charging Station", "_source": "worldwide"}}, {"type": "node", "id": 11920194037, "lat": 37.330779, "lon": -3.831952, "tags": {"amenity": "charging_station", "name": "EV Charging Station", "_source": "worldwide"}}, {"type": "node", "id": 11920194038, "lat": 37.28561, "lon": -3.675533, "tags": {"amenity": "charging_station", "brand": "Wenea", "operator": "Wenea", "name": "Wenea", "_source": "worldwide"}}, {"type": "node", "id": 11921977679, "lat": 37.318014, "lon": -3.324173, "tags": {"amenity": "charging_station", "operator": "Iberdrola", "name": "Iberdrola", "_source": "worldwide"}}, {"type": "node", "id": 11921977680, "lat": 37.322605, "lon": -3.266148, "tags": {"amenity": "charging_station", "brand": "Wenea", "operator": "Wenea", "name": "Wenea", "_source": "worldwide"}}, {"type": "node", "id": 11921977681, "lat": 37.298089, "lon": -3.129229, "tags": {"amenity": "charging_station", "operator": "Repsol", "name": "Repsol", "_source": "worldwide"}}, {"type": "node", "id": 11922026147, "lat": 37.920402, "lon": -3.018898, "tags": {"amenity": "charging_station", "operator": "Endesa", "name": "Endesa", "_source": "worldwide"}}, {"type": "node", "id": 11922026149, "lat": 37.528032, "lon": -3.637774, "tags": {"amenity": "charging_station", "brand": "Wenea", "operator": "Wenea", "name": "Wenea", "_source": "worldwide"}}, {"type": "node", "id": 12453359316, "lat": 37.143767, "lon": -3.605598, "tags": {"amenity": "charging_station", "fee": "yes", "access": "customers", "opening_hours": "24/7", "brand": "Tesla Supercharger", "operator": "Tesla", "name": "Granada Supercharger", "capacity": "8", "_source": "worldwide"}}, {"type": "node", "id": 13416694170, "lat": 37.632619, "lon": -3.531312, "tags": {"amenity": "charging_station", "name": "EV Charging Station", "_source": "worldwide"}}, {"type": "node", "id": 13734010045, "lat": 37.774313, "lon": -3.768233, "tags": {"amenity": "charging_station", "fee": "no", "name": "EV Charging Station", "_source": "worldwide"}}]}