{"id": "44--93", "latMin": 44, "lonMin": -93, "latMax": 45, "lonMax": -92, "generated": "2026-04-16T18:39:08.029Z", "count": 26, "pois": [{"type": "node", "id": 38887, "lat": 44.95121, "lon": -92.9952, "tags": {"amenity": "charging_station", "access": "private", "fee": "yes", "opening_hours": "Employee use only; Drivers must bring their own J1772 cordset for Level 1 charging", "status": "E", "operator": "P", "name": "3M", "addr:street": "3M Center Dr", "addr:postcode": "55117", "addr:city": "St. Paul", "addr:country": "US", "socket:type1": "1", "socket:type1:output": "7.2 kW", "charging_station:output": "7.2 kW", "capacity": "44", "_source": "worldwide"}}, {"type": "node", "id": 1264323784, "lat": 44.021766, "lon": -92.4618, "tags": {"amenity": "charging_station", "name": "EV Charging Station", "_source": "worldwide"}}, {"type": "node", "id": 4553054319, "lat": 44.766, "lon": -92.935868, "tags": {"amenity": "charging_station", "brand": "ChargePoint", "name": "ChargePoint", "_source": "worldwide"}}, {"type": "node", "id": 4682685946, "lat": 44.07461, "lon": -92.504046, "tags": {"amenity": "charging_station", "name": "Ford", "_source": "worldwide"}}, {"type": "node", "id": 4682685947, "lat": 44.069719, "lon": -92.501254, "tags": {"amenity": "charging_station", "operator": "Nissan", "name": "Nissan", "_source": "worldwide"}}, {"type": "node", "id": 4682685948, "lat": 44.069579, "lon": -92.500904, "tags": {"amenity": "charging_station", "operator": "Nissan", "name": "Nissan", "_source": "worldwide"}}, {"type": "node", "id": 4682685949, "lat": 44.044085, "lon": -92.515729, "tags": {"amenity": "charging_station", "fee": "no", "access": "yes", "name": "EV Charging Station", "_source": "worldwide"}}, {"type": "node", "id": 6625159871, "lat": 44.00633, "lon": -92.4709, "tags": {"amenity": "charging_station", "fee": "yes", "access": "customers", "opening_hours": "24/7", "brand": "Tesla Supercharger", "network": "Supercharger", "operator": "Tesla", "name": "Tesla Supercharger", "addr:street": "Crossroads Drive Southwest", "addr:housenumber": "500", "addr:postcode": "55902", "addr:city": "Rochester", "addr:country": "US", "capacity": "8", "_source": "worldwide"}}, {"type": "node", "id": 6625184129, "lat": 44.96499, "lon": -92.96129, "tags": {"amenity": "charging_station", "fee": "yes", "access": "customers", "opening_hours": "24/7", "brand": "Tesla Supercharger", "network": "Supercharger", "operator": "Tesla, Inc.", "name": "Oakdale Supercharger", "addr:street": "10th Street North", "addr:housenumber": "7180", "addr:postcode": "55128", "addr:city": "Oakdale", "addr:country": "US", "capacity": "8", "_source": "worldwide"}}, {"type": "node", "id": 6906797332, "lat": 44.065764, "lon": -92.52565, "tags": {"amenity": "charging_station", "fee": "no", "access": "yes", "opening_hours": "24/7", "brand": "ChargePoint", "operator": "ChargePoint", "name": "ChargePoint", "addr:street": "West Circle Drive NW", "addr:housenumber": "4177", "addr:postcode": "55901", "addr:city": "Rochester", "_source": "worldwide"}}, {"type": "node", "id": 7123546691, "lat": 44.568105, "lon": -92.624647, "tags": {"amenity": "charging_station", "operator": "Kwik Trip", "name": "Kwik Trip", "addr:street": "Highway 61", "addr:housenumber": "4820", "addr:postcode": "55066", "addr:city": "Red Wing", "_source": "worldwide"}}, {"type": "node", "id": 7266566121, "lat": 44.96437, "lon": -92.961473, "tags": {"amenity": "charging_station", "fee": "no", "access": "yes", "brand": "ChargePoint", "operator": "ChargePoint", "name": "ChargePoint", "_source": "worldwide"}}, {"type": "node", "id": 7266598488, "lat": 44.964249, "lon": -92.960155, "tags": {"amenity": "charging_station", "fee": "no", "brand": "ChargePoint", "operator": "ChargePoint", "name": "ChargePoint", "_source": "worldwide"}}, {"type": "node", "id": 8851453288, "lat": 44.958735, "lon": -92.718406, "tags": {"amenity": "charging_station", "access": "yes", "opening_hours": "24/7", "operator": "Zef Energy", "name": "Zef Energy", "socket:chademo": "1", "socket:type1_combo": "1", "capacity": "3", "_source": "worldwide"}}, {"type": "node", "id": 8851453289, "lat": 44.957315, "lon": -92.722381, "tags": {"amenity": "charging_station", "name": "EV Charging Station", "_source": "worldwide"}}, {"type": "node", "id": 8955607440, "lat": 44.483327, "lon": -92.910522, "tags": {"amenity": "charging_station", "fee": "yes", "access": "yes", "opening_hours": "24/7", "brand": "Tesla Supercharger", "network": "Supercharger", "operator": "Tesla, Inc.", "name": "Tesla Supercharger", "addr:street": "Alexander Court", "addr:housenumber": "32027", "addr:postcode": "55009", "addr:city": "Cannon Falls", "_source": "worldwide"}}, {"type": "node", "id": 9777656899, "lat": 44.945668, "lon": -92.898951, "tags": {"amenity": "charging_station", "fee": "yes", "operator": "Electrify America", "name": "Electrify America", "socket:type1_combo": "1", "capacity": "1", "_source": "worldwide"}}, {"type": "node", "id": 9777656904, "lat": 44.945666, "lon": -92.898736, "tags": {"amenity": "charging_station", "fee": "yes", "operator": "Electrify America", "name": "Electrify America", "socket:type1_combo": "1", "capacity": "1", "_source": "worldwide"}}, {"type": "node", "id": 9816165002, "lat": 44.968771, "lon": -92.721764, "tags": {"amenity": "charging_station", "access": "customers", "name": "EV Charging Station", "socket:tesla_destination": "2", "capacity": "2", "_source": "worldwide"}}, {"type": "node", "id": 9923009536, "lat": 44.964412, "lon": -92.726318, "tags": {"amenity": "charging_station", "access": "yes", "opening_hours": "24/7", "name": "EV Charging Station", "capacity": "2", "_source": "worldwide"}}, {"type": "node", "id": 10270478487, "lat": 44.856961, "lon": -92.676114, "tags": {"amenity": "charging_station", "access": "yes", "name": "EV Charging Station", "socket:type1": "4", "capacity": "4", "_source": "worldwide"}}, {"type": "node", "id": 12963660631, "lat": 44.072536, "lon": -92.502649, "tags": {"amenity": "charging_station", "access": "yes", "opening_hours": "24/7", "network": "ChargePoint", "name": "EV Charging Station", "addr:street": "US-52", "addr:housenumber": "4800", "addr:postcode": "55901", "addr:city": "Rochester", "addr:country": "US", "socket:chademo": "1", "socket:type1_combo": "3", "capacity": "4", "_source": "worldwide"}}, {"type": "node", "id": 12963660632, "lat": 44.072008, "lon": -92.502464, "tags": {"amenity": "charging_station", "access": "yes", "opening_hours": "24/7", "network": "ChargePoint", "name": "EV Charging Station", "addr:street": "US-52", "addr:housenumber": "4748", "addr:postcode": "55904", "addr:city": "Rochester", "addr:country": "US", "socket:chademo": "1", "socket:type1_combo": "1", "capacity": "2", "_source": "worldwide"}}, {"type": "node", "id": 12995063234, "lat": 44.963238, "lon": -92.5605, "tags": {"amenity": "charging_station", "fee": "yes", "access": "yes", "brand": "EVgo", "operator": "EVgo", "name": "EVgo", "_source": "worldwide"}}, {"type": "node", "id": 13359840682, "lat": 44.065443, "lon": -92.525795, "tags": {"amenity": "charging_station", "fee": "no", "access": "yes", "opening_hours": "24/7", "brand": "ChargePoint", "operator": "ChargePoint", "name": "ChargePoint", "addr:street": "West Circle Drive NW", "addr:housenumber": "4177", "addr:postcode": "55901", "addr:city": "Rochester", "_source": "worldwide"}}, {"type": "node", "id": 13696043591, "lat": 44.042997, "lon": -92.485834, "tags": {"amenity": "charging_station", "brand": "Circle K", "operator": "Circle K", "name": "Circle K Charging Station", "_source": "worldwide"}}]}