{"id": "40-31", "latMin": 40, "lonMin": 31, "latMax": 41, "lonMax": 32, "generated": "2026-04-16T18:39:07.815Z", "count": 12, "pois": [{"type": "node", "id": 5724401105, "lat": 40.79141, "lon": 31.23839, "tags": {"amenity": "charging_station", "fee": "yes", "opening_hours": "24/7", "operator": "VOLTRUN", "name": "Petrol Ofisi Düzce Kuzey", "capacity": "1", "_source": "worldwide"}}, {"type": "node", "id": 5724401106, "lat": 40.789652, "lon": 31.243079, "tags": {"amenity": "charging_station", "fee": "yes", "opening_hours": "24/7", "operator": "VOLTRUN", "name": "Petrol Ofisi Düzce Güney", "capacity": "1", "_source": "worldwide"}}, {"type": "node", "id": 5859448455, "lat": 40.723114, "lon": 31.466893, "tags": {"amenity": "charging_station", "fee": "yes", "opening_hours": "10:00-22:00", "operator": "Eşarj", "name": "Eşarj Highway Outlet", "capacity": "1", "_source": "worldwide"}}, {"type": "node", "id": 5859448457, "lat": 40.724142, "lon": 31.464285, "tags": {"amenity": "charging_station", "fee": "yes", "opening_hours": "24/7", "operator": "ZES", "name": "ZES - Bolu Highway Outlet", "socket:chademo": "1", "socket:type1_combo": "1", "capacity": "4", "_source": "worldwide"}}, {"type": "node", "id": 6839378366, "lat": 40.610991, "lon": 31.275398, "tags": {"amenity": "charging_station", "fee": "yes", "opening_hours": "24/7", "operator": "ZES", "name": "ZES - Abant Palace Bolu", "capacity": "1", "_source": "worldwide"}}, {"type": "node", "id": 10276639436, "lat": 40.724038, "lon": 31.464931, "tags": {"amenity": "charging_station", "fee": "yes", "access": "yes", "opening_hours": "24/7", "brand": "Tesla Supercharger", "operator": "Tesla", "name": "Bolu Supercharger", "capacity": "12", "_source": "worldwide"}}, {"type": "node", "id": 10276639437, "lat": 40.723969, "lon": 31.463238, "tags": {"amenity": "charging_station", "fee": "yes", "brand": "TOGG TruGo", "operator": "TOGG", "name": "TOGG TruGo", "_source": "worldwide"}}, {"type": "node", "id": 10826917305, "lat": 40.790002, "lon": 31.241462, "tags": {"amenity": "charging_station", "name": "Togg Trugo", "_source": "worldwide"}}, {"type": "node", "id": 10826917405, "lat": 40.791264, "lon": 31.240364, "tags": {"amenity": "charging_station", "name": "Togg Trugo", "_source": "worldwide"}}, {"type": "node", "id": 12151652901, "lat": 40.84093, "lon": 31.142197, "tags": {"amenity": "charging_station", "name": "Oncharge", "_source": "worldwide"}}, {"type": "node", "id": 12269811112, "lat": 40.529376, "lon": 31.050555, "tags": {"amenity": "charging_station", "access": "customers", "operator": "V Orman Elektiriklli Şarj İstasyonu", "name": "V Orman Elektiriklli Şarj İstasyonu", "_source": "worldwide"}}, {"type": "node", "id": 13418298685, "lat": 40.807074, "lon": 31.230876, "tags": {"amenity": "charging_station", "brand": "D-Charge İstasyonu", "operator": "D-Charge", "name": "D-Charge İstasyonu", "_source": "worldwide"}}]}