{"id": "43-6", "latMin": 43, "lonMin": 6, "latMax": 44, "lonMax": 7, "generated": "2026-04-16T18:39:07.918Z", "count": 363, "pois": [{"type": "node", "id": 11802779252, "lat": 43.137376, "lon": 6.004243, "tags": {"amenity": "charging_station", "fee": "yes", "network": "Power Dot France", "opening_hours": "24/7", "operator": "Power Dot France", "name": "Ladestation Power Dot France", "addr:country": "FR", "socket:type2": "1", "socket:type2:output": "22 kW", "socket:type2_combo": "1", "socket:type2_combo:output": "50 kW", "socket:chademo": "1", "socket:chademo:output": "50 kW", "charging_station:output": "50 kW", "capacity": "3", "authentication:none": "yes", "_source": "worldwide"}}, {"type": "node", "id": 11802830164, "lat": 43.13453, "lon": 6.000655, "tags": {"amenity": "charging_station", "fee": "yes", "network": "eborn", "opening_hours": "24/7", "operator": "SPBR1", "name": "SPBR1 - eborn", "addr:country": "FR", "socket:type2": "2", "socket:type2:output": "22 kW", "charging_station:output": "22 kW", "capacity": "2", "authentication:none": "yes", "_source": "worldwide"}}, {"type": "node", "id": 3004325994, "lat": 43.458937, "lon": 6.746421, "tags": {"amenity": "charging_station", "access": "customers", "opening_hours": "24/7", "operator": "Tesla Motors", "name": "Fréjus Supercharger", "addr:postcode": "83600", "addr:city": "Fréjus", "capacity": "2", "_source": "worldwide"}}, {"type": "node", "id": 3347619909, "lat": 43.265543, "lon": 6.587877, "tags": {"amenity": "charging_station", "addr:country": "FR", "socket:type2_combo": "2", "socket:type2_combo:output": "75.0 kW", "charging_station:output": "75.0 kW", "_source": "worldwide"}}, {"type": "node", "id": 3469364890, "lat": 43.816675, "lon": 6.092258, "tags": {"amenity": "charging_station", "access": "yes", "fee": "yes", "network": "Réseau eborn", "opening_hours": "24/7", "operator": "Easy Charge", "name": "Easy Charge - Réseau eborn", "addr:country": "FR", "socket:type2": "2", "socket:type2:output": "22.0 kW", "charging_station:output": "22.0 kW", "capacity": "2", "authentication:none": "yes", "_source": "worldwide"}}, {"type": "node", "id": 3709750477, "lat": 43.431314, "lon": 6.806136, "tags": {"amenity": "charging_station", "operator": "SIPLEC", "name": "E. Leclerc Saint-Raphaël", "addr:country": "FR", "_source": "worldwide"}}, {"type": "node", "id": 11109169661, "lat": 43.43205, "lon": 6.806051, "tags": {"amenity": "charging_station", "fee": "no", "network": "Freshmile", "opening_hours": "24/7", "operator": "Freshmile SAS", "name": "Freshmile SAS - Freshmile", "addr:country": "FR", "socket:type2": "1", "socket:type2:output": "22 kW", "charging_station:output": "22 kW", "authentication:none": "yes", "_source": "worldwide"}}, {"type": "node", "id": 5536483522, "lat": 43.541734, "lon": 6.785582, "tags": {"amenity": "charging_station", "access": "yes", "fee": "yes", "network": "TotalEnergies", "opening_hours": "24/7", "operator": "TotalEnergies", "name": "Aire de l'Estérel", "addr:country": "FR", "socket:type2": "8", "socket:type2:output": "22 kW", "socket:type2_combo": "18", "socket:type2_combo:output": "50 kW", "socket:chademo": "8", "socket:chademo:output": "50 kW", "charging_station:output": "50 kW", "_source": "worldwide"}}, {"type": "node", "id": 5542703074, "lat": 43.467079, "lon": 6.670907, "tags": {"amenity": "charging_station", "access": "yes", "fee": "yes", "brand": "Izivia", "network": "WiiiZ", "opening_hours": "24/7", "operator": "Izivia", "name": "Aire de Canaver", "addr:country": "FR", "socket:type2": "1", "socket:type2:output": "43.0 kW", "socket:type2_combo": "1", "socket:type2_combo:output": "50.0 kW", "socket:chademo": "1", "socket:chademo:output": "50.0 kW", "charging_station:output": "50.0 kW", "capacity": "1", "authentication:none": "", "_source": "worldwide"}}, {"type": "node", "id": 5713803497, "lat": 43.760517, "lon": 6.442367, "tags": {"amenity": "charging_station", "fee": "yes", "network": "eborn", "opening_hours": "24/7", "operator": "SPBR1", "name": "SPBR1 - eborn", "addr:street": "Parking Saint-Roch", "addr:postcode": "83840", "addr:city": "Trigance", "socket:type2": "2", "socket:type2:output": "22 kW", "charging_station:output": "22 kW", "capacity": "2", "authentication:none": "yes", "_source": "worldwide"}}, {"type": "node", "id": 5820125038, "lat": 43.152092, "lon": 6.425544, "tags": {"amenity": "charging_station", "access": "yes", "fee": "yes", "network": "eborn", "opening_hours": "24/7", "operator": "SPBR1", "name": "SPBR1 - eborn", "addr:country": "FR", "socket:type2": "2", "socket:type2:output": "22 kW", "socket:type2_combo": "1", "socket:type2_combo:output": "50 kW", "charging_station:output": "50 kW", "capacity": "2", "authentication:none": "yes", "_source": "worldwide"}}, {"type": "node", "id": 5891633719, "lat": 43.340755, "lon": 6.125287, "tags": {"amenity": "charging_station", "fee": "yes", "opening_hours": "24/7", "operator": "Mouv Élec Var", "name": "Les Ferrages", "addr:country": "FR", "socket:type2": "2", "socket:type2:output": "22.0 kW", "charging_station:output": "22.0 kW", "capacity": "2", "_source": "worldwide"}}, {"type": "node", "id": 5938274989, "lat": 43.61789, "lon": 6.765111, "tags": {"amenity": "charging_station", "access": "yes", "fee": "yes", "brand": "ChargePoint", "opening_hours": "24/7", "operator": "Mouv Élec Var;ChargePoint", "name": "Montauroux - Place Du Clos;ChargePoint", "addr:country": "FR", "socket:type2": "2", "socket:type2:output": "22 kW", "charging_station:output": "22 kW", "capacity": "2", "_source": "worldwide"}}, {"type": "node", "id": 5961207654, "lat": 43.607579, "lon": 6.913495, "tags": {"amenity": "charging_station", "fee": "yes", "network": "WiiiZ", "opening_hours": "24/7", "operator": "Izivia", "name": "Auribeau-sur-Siagne Parking du Bayle", "addr:street": "Rue Jean Giono", "socket:type2": "2", "socket:type2:output": "22 kW", "charging_station:output": "22 kW", "capacity": "2", "authentication:none": "", "_source": "worldwide"}}, {"type": "node", "id": 5976089988, "lat": 43.862748, "lon": 6.127174, "tags": {"amenity": "charging_station", "access": "yes", "fee": "yes", "network": "Réseau eborn", "opening_hours": "24/7", "operator": "Easy Charge", "name": "Easy Charge - Réseau eborn", "addr:country": "FR", "socket:type2": "2", "socket:type2:output": "22.0 kW", "charging_station:output": "22.0 kW", "capacity": "2", "authentication:none": "yes", "_source": "worldwide"}}, {"type": "node", "id": 5984843764, "lat": 43.637276, "lon": 6.932819, "tags": {"amenity": "charging_station", "fee": "yes", "network": "WiiiZ", "opening_hours": "24/7", "operator": "Izivia", "name": "Grasse Stade Perdigon", "addr:street": "Chemin du Grand Chêne", "socket:type2": "2", "socket:type2:output": "22 kW", "charging_station:output": "22 kW", "capacity": "2", "authentication:none": "", "_source": "worldwide"}}, {"type": "node", "id": 5991567583, "lat": 43.639103, "lon": 6.911085, "tags": {"amenity": "charging_station", "fee": "yes", "network": "WiiiZ", "opening_hours": "24/7", "operator": "Izivia", "name": "Grasse Parking la Chesnaie", "addr:street": "Route d'Auribeau", "socket:type2": "2", "socket:type2:output": "22 kW", "charging_station:output": "22 kW", "capacity": "2", "authentication:none": "", "_source": "worldwide"}}, {"type": "node", "id": 6087059593, "lat": 43.63954, "lon": 6.912976, "tags": {"amenity": "charging_station", "fee": "yes", "network": "WiiiZ", "opening_hours": "24/7", "operator": "Izivia", "name": "Grasse Parking Place Frédéric Mistral", "addr:street": "Place Frédéric Mistral", "socket:type2": "2", "socket:type2:output": "22 kW", "charging_station:output": "22 kW", "capacity": "2", "authentication:none": "", "_source": "worldwide"}}, {"type": "node", "id": 6017903153, "lat": 43.569114, "lon": 6.993799, "tags": {"amenity": "charging_station", "fee": "yes", "network": "WiiiZ", "opening_hours": "24/7", "operator": "Izivia", "name": "Le Cannet Parking Buffon", "addr:country": "FR", "socket:type2": "2", "socket:type2:output": "22 kW", "charging_station:output": "22 kW", "capacity": "2", "_source": "worldwide"}}, {"type": "node", "id": 7254778504, "lat": 43.577129, "lon": 6.998012, "tags": {"amenity": "charging_station", "fee": "yes", "network": "WiiiZ", "opening_hours": "24/7", "operator": "Izivia", "name": "Le Cannet Parking les Lentisques", "addr:country": "FR", "socket:type2": "2", "socket:type2:output": "22 kW", "charging_station:output": "22 kW", "capacity": "2", "_source": "worldwide"}}, {"type": "node", "id": 6034911128, "lat": 43.566561, "lon": 6.968241, "tags": {"amenity": "charging_station", "fee": "yes", "network": "WiiiZ", "opening_hours": "24/7", "operator": "Izivia", "name": "Le Cannet Parking mairie annexe Les Paradisiers", "addr:country": "FR", "socket:type2": "2", "socket:type2:output": "22 kW", "charging_station:output": "22 kW", "capacity": "2", "_source": "worldwide"}}, {"type": "node", "id": 6070651577, "lat": 43.641192, "lon": 6.936211, "tags": {"amenity": "charging_station", "fee": "yes", "network": "WiiiZ", "opening_hours": "24/7", "operator": "Izivia", "name": "Grasse Parking Alambic", "addr:street": "Rond-Point de l'Alambic", "socket:type2": "2", "socket:type2:output": "22 kW", "charging_station:output": "22 kW", "capacity": "2", "authentication:none": "", "_source": "worldwide"}}, {"type": "node", "id": 6087059472, "lat": 43.654145, "lon": 6.926329, "tags": {"amenity": "charging_station", "access": "yes", "fee": "yes", "network": "WiiiZ", "opening_hours": "24/7", "operator": "Izivia", "name": "Grasse Parking Gare SNCF", "addr:street": "Avenue Pierre Semard", "socket:type2": "2", "socket:type2:output": "22 kW", "charging_station:output": "22 kW", "capacity": "2", "authentication:none": "", "_source": "worldwide"}}, {"type": "node", "id": 6087059586, "lat": 43.651211, "lon": 6.92296, "tags": {"amenity": "charging_station", "fee": "yes", "network": "WiiiZ", "opening_hours": "24/7", "operator": "Izivia", "name": "Grasse Parking Square des Diables Bleus", "addr:street": "Traverse Kellermann", "socket:type2": "2", "socket:type2:output": "22 kW", "charging_station:output": "22 kW", "capacity": "2", "authentication:none": "", "_source": "worldwide"}}, {"type": "node", "id": 6087059473, "lat": 43.629416, "lon": 6.842284, "tags": {"amenity": "charging_station", "fee": "yes", "network": "WiiiZ", "opening_hours": "24/7", "operator": "Izivia", "name": "Le Tignet Parking Mairie", "addr:street": "Avenue de l'Hôtel de Ville", "socket:type2": "2", "socket:type2:output": "22 kW", "charging_station:output": "22 kW", "capacity": "2", "authentication:none": "", "_source": "worldwide"}}, {"type": "node", "id": 6087059474, "lat": 43.59236, "lon": 6.929529, "tags": {"amenity": "charging_station", "fee": "yes", "network": "WiiiZ", "opening_hours": "24/7", "operator": "Izivia", "name": "Pégomas Parking Logis", "addr:street": "Place du Logis", "socket:type2": "2", "socket:type2:output": "22 kW", "charging_station:output": "22 kW", "capacity": "2", "authentication:none": "", "_source": "worldwide"}}, {"type": "node", "id": 6087059475, "lat": 43.632512, "lon": 6.952294, "tags": {"amenity": "charging_station", "fee": "yes", "network": "WiiiZ", "opening_hours": "24/7", "operator": "Izivia", "name": "Grasse Stade de la Paoute", "addr:street": "Route Napoléon", "socket:type2": "2", "socket:type2:output": "22 kW", "charging_station:output": "22 kW", "capacity": "2", "authentication:none": "", "_source": "worldwide"}}, {"type": "node", "id": 9857464109, "lat": 43.634929, "lon": 6.952285, "tags": {"amenity": "charging_station", "access": "yes", "operator": "Auchan", "name": "Ladestation Auchan", "addr:country": "FR", "_source": "worldwide"}}, {"type": "node", "id": 9857507525, "lat": 43.634498, "lon": 6.949762, "tags": {"amenity": "charging_station", "access": "customers", "operator": "Club Hippique de Grasse / Le Paddock", "name": "Ladestation Club Hippique de Grasse / Le Paddock", "addr:country": "FR", "capacity": "2", "_source": "worldwide"}}, {"type": "node", "id": 11109169598, "lat": 43.637547, "lon": 6.951344, "tags": {"amenity": "charging_station", "fee": "no", "network": "Freshmile", "opening_hours": "24/7", "operator": "Freshmile SAS", "name": "Freshmile SAS - Freshmile", "addr:country": "FR", "socket:type2": "1", "socket:type2:output": "22 kW", "charging_station:output": "22 kW", "authentication:none": "yes", "_source": "worldwide"}}, {"type": "node", "id": 6087059476, "lat": 43.620225, "lon": 6.973192, "tags": {"amenity": "charging_station", "fee": "yes", "network": "WiiiZ", "opening_hours": "24/7", "operator": "Izivia", "name": "Mouans-Sartoux Parking de la Gare", "addr:street": "Rue de la Gare", "socket:type2": "4", "socket:type2:output": "22 kW", "charging_station:output": "22 kW", "capacity": "2", "authentication:none": "", "_source": "worldwide"}}, {"type": "node", "id": 6087059483, "lat": 43.616841, "lon": 6.971394, "tags": {"amenity": "charging_station", "fee": "yes", "network": "WiiiZ", "opening_hours": "24/7", "operator": "Izivia", "name": "Mouans-Sartoux Parking du Parc", "addr:street": "Allée du Parc", "socket:type2": "4", "socket:type2:output": "22 kW", "charging_station:output": "22 kW", "capacity": "2", "authentication:none": "", "_source": "worldwide"}}, {"type": "node", "id": 6087059477, "lat": 43.656568, "lon": 6.920549, "tags": {"amenity": "charging_station", "fee": "yes", "network": "WiiiZ", "opening_hours": "24/7", "operator": "Izivia", "name": "Grasse Parking Place du Cours Honoré Cresp", "addr:street": "Place du Cours Honoré Cresp", "socket:type2": "2", "socket:type2:output": "22 kW", "charging_station:output": "22 kW", "capacity": "2", "authentication:none": "", "_source": "worldwide"}}, {"type": "node", "id": 6087059478, "lat": 43.658114, "lon": 6.92112, "tags": {"amenity": "charging_station", "fee": "yes", "network": "WiiiZ", "opening_hours": "24/7", "operator": "Izivia", "name": "Grasse Parking Rue de l'ancien palais de justice", "addr:street": "Rue de l'Ancien palais de justice", "socket:type2": "2", "socket:type2:output": "22 kW", "charging_station:output": "22 kW", "capacity": "2", "authentication:none": "", "_source": "worldwide"}}, {"type": "node", "id": 6087059479, "lat": 43.655709, "lon": 6.87583, "tags": {"amenity": "charging_station", "fee": "yes", "network": "WiiiZ", "opening_hours": "24/7", "operator": "Izivia", "name": "Cabris Parking de la Poste", "addr:street": "Rue de l'Église", "socket:type2": "2", "socket:type2:output": "22 kW", "charging_station:output": "22 kW", "capacity": "2", "authentication:none": "", "_source": "worldwide"}}, {"type": "node", "id": 6087059480, "lat": 43.655692, "lon": 6.922162, "tags": {"amenity": "charging_station", "fee": "yes", "network": "WiiiZ", "opening_hours": "24/7", "operator": "Izivia", "name": "Grasse Parking Avenue Carnot", "addr:street": "Avenue Carnot", "socket:type2": "2", "socket:type2:output": "22 kW", "charging_station:output": "22 kW", "capacity": "2", "authentication:none": "", "_source": "worldwide"}}, {"type": "node", "id": 6087059482, "lat": 43.65687, "lon": 6.927089, "tags": {"amenity": "charging_station", "fee": "yes", "network": "WiiiZ", "opening_hours": "24/7", "operator": "Izivia", "name": "Grasse Parking salle omnisports", "addr:street": "Avenue de Provence", "socket:type2": "2", "socket:type2:output": "22 kW", "charging_station:output": "22 kW", "capacity": "2", "authentication:none": "", "_source": "worldwide"}}, {"type": "node", "id": 6087059481, "lat": 43.638298, "lon": 6.873518, "tags": {"amenity": "charging_station", "fee": "yes", "network": "WiiiZ", "opening_hours": "24/7", "operator": "Izivia", "name": "Peymeinade Parking Complexe Sportif", "addr:street": "Chemin du Stade", "socket:type2": "2", "socket:type2:output": "22 kW", "charging_station:output": "22 kW", "capacity": "2", "authentication:none": "", "_source": "worldwide"}}, {"type": "node", "id": 6087059484, "lat": 43.639135, "lon": 6.875934, "tags": {"amenity": "charging_station", "fee": "yes", "network": "WiiiZ", "opening_hours": "24/7", "operator": "Izivia", "name": "Peymeinade Parking St Marc", "addr:street": "Avenue du Dr Belletrud", "socket:type2": "2", "socket:type2:output": "22 kW", "charging_station:output": "22 kW", "capacity": "2", "authentication:none": "", "_source": "worldwide"}}, {"type": "node", "id": 6087059585, "lat": 43.650266, "lon": 6.793776, "tags": {"amenity": "charging_station", "fee": "yes", "network": "WiiiZ", "opening_hours": "24/7", "operator": "Izivia", "name": "Saint-Cézaire-sur-Siagne Parking Chemin de la Chaux", "addr:street": "Chemin de la Chaux", "socket:type2": "1", "socket:type2:output": "22 kW", "charging_station:output": "22 kW", "capacity": "2", "authentication:none": "", "_source": "worldwide"}}, {"type": "node", "id": 6087059587, "lat": 43.580188, "lon": 6.947942, "tags": {"amenity": "charging_station", "fee": "yes", "network": "WiiiZ", "opening_hours": "24/7", "operator": "Izivia", "name": "La Roquette-sur-Siagne Parking St Jean", "addr:street": "Avenue de la République", "socket:type2": "2", "socket:type2:output": "22 kW", "charging_station:output": "22 kW", "capacity": "2", "authentication:none": "", "_source": "worldwide"}}, {"type": "node", "id": 6087059588, "lat": 43.654076, "lon": 6.944208, "tags": {"amenity": "charging_station", "fee": "yes", "network": "WiiiZ", "opening_hours": "24/7", "operator": "Izivia", "name": "Grasse Parking Giratoire du Moulin de Brun", "addr:street": "Rond-Point du Moulin de Brun", "socket:type2": "2", "socket:type2:output": "22 kW", "charging_station:output": "22 kW", "capacity": "2", "authentication:none": "", "_source": "worldwide"}}, {"type": "node", "id": 6087059589, "lat": 43.648015, "lon": 6.856883, "tags": {"amenity": "charging_station", "fee": "yes", "network": "WiiiZ", "opening_hours": "24/7", "operator": "Izivia", "name": "Spéracèdes Parking Mairie", "addr:street": "Boulevard Dr Sauvy", "socket:type2": "2", "socket:type2:output": "22 kW", "charging_station:output": "22 kW", "capacity": "2", "authentication:none": "", "_source": "worldwide"}}, {"type": "node", "id": 6087059590, "lat": 43.642219, "lon": 6.958667, "tags": {"amenity": "charging_station", "fee": "yes", "network": "WiiiZ", "opening_hours": "24/7", "operator": "Izivia", "name": "Grasse Parking Place Ste Hélène", "addr:street": "Avenue Louis Cauvin", "socket:type2": "2", "socket:type2:output": "22 kW", "charging_station:output": "22 kW", "capacity": "2", "authentication:none": "", "_source": "worldwide"}}, {"type": "node", "id": 6087059591, "lat": 43.59413, "lon": 6.92641, "tags": {"amenity": "charging_station", "fee": "yes", "network": "WiiiZ", "opening_hours": "24/7", "operator": "Izivia", "name": "Pégomas Parking Parchois", "addr:street": "D109A", "socket:type2": "2", "socket:type2:output": "22 kW", "charging_station:output": "22 kW", "capacity": "2", "authentication:none": "", "_source": "worldwide"}}, {"type": "node", "id": 6087295112, "lat": 43.796143, "lon": 6.943561, "tags": {"amenity": "charging_station", "fee": "yes", "network": "WiiiZ", "opening_hours": "24/7", "operator": "Sodetrel", "name": "Gréolières Parking Faïsse", "addr:street": "Route de Gentelly", "socket:type2": "2", "socket:type2:output": "22 kW", "charging_station:output": "22 kW", "capacity": "2", "_source": "worldwide"}}, {"type": "node", "id": 6087295114, "lat": 43.680862, "lon": 6.972869, "tags": {"amenity": "charging_station", "fee": "yes", "network": "WiiiZ", "opening_hours": "24/7", "operator": "Sodetrel", "name": "Châteauneuf-Grasse Parking Place des Pins", "addr:street": "Place des Pins", "socket:type2": "2", "socket:type2:output": "22 kW", "charging_station:output": "22 kW", "capacity": "2", "_source": "worldwide"}}, {"type": "node", "id": 6087295115, "lat": 43.720823, "lon": 6.977601, "tags": {"amenity": "charging_station", "fee": "yes", "network": "WiiiZ", "opening_hours": "24/7", "operator": "Sodetrel", "name": "Gourdon Village - Parking de la Ferrage", "addr:street": "Parking de la Ferrage", "socket:type2": "2", "socket:type2:output": "22 kW", "charging_station:output": "22 kW", "capacity": "2", "_source": "worldwide"}}, {"type": "node", "id": 9341256494, "lat": 43.721447, "lon": 6.977389, "tags": {"amenity": "charging_station", "brand": "bike-energy", "operator": "bike-energy", "name": "bike-energy", "addr:country": "FR", "_source": "worldwide"}}, {"type": "node", "id": 6087295116, "lat": 43.701416, "lon": 6.98938, "tags": {"amenity": "charging_station", "fee": "yes", "network": "WiiiZ", "opening_hours": "24/7", "operator": "Sodetrel", "name": "Le Bar-sur-Loup Parking Place de la Tour", "addr:street": "Place de la Tour", "socket:type2": "2", "socket:type2:output": "22 kW", "charging_station:output": "22 kW", "capacity": "2", "_source": "worldwide"}}, {"type": "node", "id": 6087295121, "lat": 43.667044, "lon": 6.985499, "tags": {"amenity": "charging_station", "fee": "yes", "network": "WiiiZ", "opening_hours": "24/7", "operator": "Sodetrel", "name": "Opio Parking centre commercial Font Neuve", "addr:street": "Rond-Point de la fontaine neuve", "socket:type2": "2", "socket:type2:output": "22 kW", "charging_station:output": "22 kW", "capacity": "2", "_source": "worldwide"}}, {"type": "node", "id": 13544125003, "lat": 43.66834, "lon": 6.984806, "tags": {"amenity": "charging_station", "operator": "Wiiiz", "name": "Ladestation Wiiiz", "addr:country": "FR", "_source": "worldwide"}}, {"type": "node", "id": 6580023932, "lat": 43.955567, "lon": 6.89272, "tags": {"amenity": "charging_station", "fee": "no", "addr:country": "FR", "_source": "worldwide"}}, {"type": "node", "id": 12600570931, "lat": 43.955965, "lon": 6.895769, "tags": {"amenity": "charging_station", "fee": "no", "addr:country": "FR", "_source": "worldwide"}}, {"type": "node", "id": 6583691895, "lat": 43.524756, "lon": 6.150051, "tags": {"amenity": "charging_station", "access": "yes", "fee": "yes", "opening_hours": "24/7", "operator": "Mouv Élec Var", "name": "COTIGNAC_621 rue Ferraillon", "addr:country": "FR", "socket:type2": "2", "socket:type2:output": "22 kW", "charging_station:output": "22 kW", "_source": "worldwide"}}, {"type": "node", "id": 12953576996, "lat": 43.526478, "lon": 6.150468, "tags": {"amenity": "charging_station", "access": "yes", "fee": "no", "name": "Bornes de recharge VAE", "addr:country": "FR", "capacity": "2", "_source": "worldwide"}}, {"type": "node", "id": 6737229943, "lat": 43.413858, "lon": 6.451484, "tags": {"amenity": "charging_station", "access": "yes", "fee": "yes", "brand": "Ionity", "network": "Ionity", "opening_hours": "24/7", "operator": "IONITY", "name": "IONITY Vidauban Sud", "addr:country": "FR", "socket:type2": "1", "socket:type2:output": "43.0 kW", "socket:type2_combo": "6", "socket:type2_combo:output": "350.0 kW", "socket:chademo": "1", "socket:chademo:output": "50.0 kW", "charging_station:output": "350.0 kW", "capacity": "6", "_source": "worldwide"}}, {"type": "node", "id": 6795680427, "lat": 43.544177, "lon": 6.949749, "tags": {"amenity": "charging_station", "addr:country": "FR", "capacity": "1", "_source": "worldwide"}}, {"type": "node", "id": 6899045645, "lat": 43.308961, "lon": 6.013546, "tags": {"amenity": "charging_station", "fee": "yes", "network": "eborn", "opening_hours": "24/7", "operator": "SPBR1", "name": "SPBR1 - eborn", "addr:country": "FR", "socket:type2": "2", "socket:type2:output": "22 kW", "charging_station:output": "22 kW", "capacity": "2", "authentication:none": "yes", "_source": "worldwide"}}, {"type": "node", "id": 7254932729, "lat": 43.311593, "lon": 6.012128, "tags": {"amenity": "charging_station", "fee": "yes", "network": "eborn", "opening_hours": "24/7", "operator": "SPBR1", "name": "SPBR1 - eborn", "addr:country": "FR", "socket:type2": "2", "socket:type2:output": "22 kW", "charging_station:output": "22 kW", "capacity": "2", "authentication:none": "yes", "_source": "worldwide"}}, {"type": "node", "id": 6993153768, "lat": 43.317825, "lon": 6.469305, "tags": {"amenity": "charging_station", "fee": "yes", "opening_hours": "24/7", "operator": "Mouv Élec Var", "name": "LA GARDE FREINET_Rue De La Mairie", "addr:country": "FR", "socket:type2": "2", "socket:type2:output": "22 kW", "charging_station:output": "22 kW", "capacity": "2", "_source": "worldwide"}}, {"type": "node", "id": 7084655275, "lat": 43.995706, "lon": 6.195799, "tags": {"amenity": "charging_station", "access": "yes", "fee": "yes", "network": "Réseau eborn", "opening_hours": "24/7", "operator": "Easy Charge", "name": "Easy Charge - Réseau eborn", "addr:country": "FR", "socket:type2": "2", "socket:type2:output": "22.0 kW", "charging_station:output": "22.0 kW", "capacity": "2", "authentication:none": "yes", "_source": "worldwide"}}, {"type": "node", "id": 7084750569, "lat": 43.843681, "lon": 6.221327, "tags": {"amenity": "charging_station", "access": "yes", "fee": "yes", "network": "Réseau eborn", "opening_hours": "24/7", "operator": "Easy Charge", "name": "Easy Charge - Réseau eborn", "addr:country": "FR", "socket:type2": "2", "socket:type2:output": "22.0 kW", "charging_station:output": "22.0 kW", "capacity": "2", "authentication:none": "yes", "_source": "worldwide"}}, {"type": "node", "id": 7084772735, "lat": 43.96723, "lon": 6.508459, "tags": {"amenity": "charging_station", "access": "yes", "fee": "yes", "network": "Réseau eborn", "opening_hours": "24/7", "operator": "Easy Charge", "name": "Easy Charge - Réseau eborn", "addr:country": "FR", "socket:type2": "2", "socket:type2:output": "22.0 kW", "charging_station:output": "22.0 kW", "capacity": "2", "authentication:none": "yes", "_source": "worldwide"}}, {"type": "node", "id": 7084781585, "lat": 43.759232, "lon": 6.151861, "tags": {"amenity": "charging_station", "fee": "yes", "network": "Réseau eborn", "opening_hours": "24/7", "operator": "SPBR1", "name": "SPBR1 - Réseau eborn", "addr:country": "FR", "socket:type2": "2", "socket:type2:output": "22.0 kW", "charging_station:output": "22.0 kW", "capacity": "2", "authentication:none": "", "_source": "worldwide"}}, {"type": "node", "id": 7153257840, "lat": 43.729935, "lon": 6.571057, "tags": {"amenity": "charging_station", "fee": "yes", "opening_hours": "24/7", "operator": "Mouv Élec Var", "name": "Ladestation Mouv Élec Var", "addr:country": "FR", "socket:type2": "2", "socket:type2:output": "22 kW", "charging_station:output": "22 kW", "capacity": "2", "_source": "worldwide"}}, {"type": "node", "id": 7235300401, "lat": 43.549147, "lon": 6.971793, "tags": {"amenity": "charging_station", "fee": "yes", "network": "WiiiZ", "opening_hours": "24/7", "operator": "Izivia", "name": "Cannes Parking Négrin", "addr:country": "FR", "socket:type2": "2", "socket:type2:output": "22 kW", "charging_station:output": "22 kW", "capacity": "2", "_source": "worldwide"}}, {"type": "node", "id": 7235306789, "lat": 43.547955, "lon": 6.941305, "tags": {"amenity": "charging_station", "access": "yes", "fee": "yes", "network": "WiiiZ", "opening_hours": "24/7", "operator": "Izivia", "name": "Mandelieu-La Napoule Parking Béguier", "addr:country": "FR", "socket:type2": "2", "socket:type2:output": "22 kW", "charging_station:output": "22 kW", "capacity": "2", "_source": "worldwide"}}, {"type": "node", "id": 7235340052, "lat": 43.54752, "lon": 6.978891, "tags": {"amenity": "charging_station", "fee": "yes", "network": "WiiiZ", "opening_hours": "24/7", "operator": "Izivia", "name": "Cannes Parking Correia", "addr:country": "FR", "socket:type2": "2", "socket:type2:output": "22 kW", "charging_station:output": "22 kW", "capacity": "2", "_source": "worldwide"}}, {"type": "node", "id": 12786247829, "lat": 43.54871, "lon": 6.986466, "tags": {"amenity": "charging_station", "addr:country": "FR", "_source": "worldwide"}}, {"type": "node", "id": 7235364247, "lat": 43.506076, "lon": 6.939559, "tags": {"amenity": "charging_station", "fee": "yes", "network": "WiiiZ", "opening_hours": "24/7", "operator": "Izivia", "name": "Théoule-sur-Mer Parking Place Général Bertrand", "addr:country": "FR", "socket:type2": "2", "socket:type2:output": "22 kW", "charging_station:output": "22 kW", "capacity": "2", "_source": "worldwide"}}, {"type": "node", "id": 7254762158, "lat": 43.604169, "lon": 6.987682, "tags": {"amenity": "charging_station", "fee": "yes", "network": "WiiiZ", "opening_hours": "24/7", "operator": "Izivia", "name": "Mougins Parking CC Tournamy 700", "addr:country": "FR", "socket:type2": "2", "socket:type2:output": "22 kW", "charging_station:output": "22 kW", "capacity": "2", "_source": "worldwide"}}, {"type": "node", "id": 7254762159, "lat": 43.601091, "lon": 6.997378, "tags": {"amenity": "charging_station", "fee": "yes", "network": "WiiiZ", "opening_hours": "24/7", "operator": "Izivia", "name": "Mougins Parking du Moulin de la Croix", "addr:country": "FR", "socket:type2": "2", "socket:type2:output": "22 kW", "charging_station:output": "22 kW", "capacity": "2", "_source": "worldwide"}}, {"type": "node", "id": 7254773142, "lat": 43.444307, "lon": 6.636374, "tags": {"amenity": "charging_station", "fee": "yes", "network": "WiiiZ", "opening_hours": "24/7", "operator": "Izivia", "name": "Izivia - WiiiZ", "addr:country": "FR", "socket:type2": "2", "socket:type2:output": "22 kW", "charging_station:output": "22 kW", "capacity": "2", "authentication:none": "yes", "_source": "worldwide"}}, {"type": "node", "id": 7254773143, "lat": 43.442627, "lon": 6.634532, "tags": {"amenity": "charging_station", "fee": "yes", "network": "WiiiZ", "opening_hours": "24/7", "operator": "Izivia", "name": "Roquebrune sur Argens - Boulevard Ferdinand Clavel", "addr:country": "FR", "socket:type2": "2", "socket:type2:output": "22 kW", "charging_station:output": "22 kW", "_source": "worldwide"}}, {"type": "node", "id": 7254778505, "lat": 43.580824, "lon": 6.998574, "tags": {"amenity": "charging_station", "fee": "yes", "network": "WiiiZ", "opening_hours": "24/7", "operator": "Izivia", "name": "Mougins Parking piscine des Campelières", "addr:country": "FR", "socket:type2": "2", "socket:type2:output": "22 kW", "charging_station:output": "22 kW", "capacity": "2", "_source": "worldwide"}}, {"type": "node", "id": 7254784915, "lat": 43.45612, "lon": 6.685957, "tags": {"amenity": "charging_station", "fee": "yes", "opening_hours": "24/7", "operator": "Mouv Élec Var", "name": "Puget sur Argens Rue Jubert", "addr:country": "FR", "socket:type2": "2", "socket:type2:output": "22 kW", "charging_station:output": "22 kW", "_source": "worldwide"}}, {"type": "node", "id": 7254784916, "lat": 43.453701, "lon": 6.683704, "tags": {"amenity": "charging_station", "fee": "yes", "opening_hours": "24/7", "operator": "Mouv Élec Var", "name": "Puget sur Argens Rue Gabriel Peri", "addr:country": "FR", "socket:type2": "2", "socket:type2:output": "22 kW", "charging_station:output": "22 kW", "_source": "worldwide"}}, {"type": "node", "id": 11109169664, "lat": 43.455993, "lon": 6.688753, "tags": {"amenity": "charging_station", "fee": "no", "network": "WIIIZ", "opening_hours": "24/7", "operator": "Izivia", "name": "Izivia - WIIIZ", "addr:country": "FR", "socket:type2": "1", "socket:type2:output": "22 kW", "charging_station:output": "22 kW", "authentication:none": "yes", "_source": "worldwide"}}, {"type": "node", "id": 7254805826, "lat": 43.525115, "lon": 6.813964, "tags": {"amenity": "charging_station", "fee": "yes", "network": "eborn", "opening_hours": "24/7", "operator": "SPBR1", "name": "SPBR1 - eborn", "addr:country": "FR", "socket:type2": "2", "socket:type2:output": "22 kW", "charging_station:output": "22 kW", "capacity": "2", "authentication:none": "yes", "_source": "worldwide"}}, {"type": "node", "id": 7254805827, "lat": 43.485079, "lon": 6.934118, "tags": {"amenity": "charging_station", "fee": "yes", "network": "WiiiZ", "opening_hours": "24/7", "operator": "Izivia", "name": "Théoule-sur-Mer Port de la Figueirette", "addr:country": "FR", "socket:type2": "2", "socket:type2:output": "22 kW", "charging_station:output": "22 kW", "capacity": "2", "_source": "worldwide"}}, {"type": "node", "id": 7254805828, "lat": 43.549863, "lon": 6.966238, "tags": {"amenity": "charging_station", "access": "yes", "fee": "yes", "network": "WiiiZ", "opening_hours": "24/7", "operator": "Izivia", "name": "Cannes Contre Allée Francis Tonner", "addr:country": "FR", "socket:type2": "2", "socket:type2:output": "22 kW", "charging_station:output": "22 kW", "capacity": "2", "_source": "worldwide"}}, {"type": "node", "id": 13266928891, "lat": 43.550118, "lon": 6.970428, "tags": {"amenity": "charging_station", "access": "yes", "fee": "yes", "brand": "Electra", "operator": "Electra", "name": "Electra - Cannes - Auchan La Bocca", "addr:country": "FR", "socket:type2": "1", "socket:type2:output": "22.0 kW", "socket:type2_combo": "4", "socket:type2_combo:output": "150.0 kW", "charging_station:output": "150.0 kW", "capacity": "4", "_source": "worldwide"}}, {"type": "node", "id": 7254805829, "lat": 43.53426, "lon": 6.945222, "tags": {"amenity": "charging_station", "fee": "yes", "network": "WiiiZ", "opening_hours": "24/7", "operator": "Izivia", "name": "Mandelieu-La Napoule Parking Robinson (Théatre de Verdure)", "addr:country": "FR", "socket:type2": "2", "socket:type2:output": "22 kW", "charging_station:output": "22 kW", "capacity": "2", "_source": "worldwide"}}, {"type": "node", "id": 7254830678, "lat": 43.645438, "lon": 6.891198, "tags": {"amenity": "charging_station", "fee": "yes", "network": "WiiiZ", "opening_hours": "24/7", "operator": "Sodetrel", "name": "Peymeinade", "addr:country": "FR", "socket:type2": "1", "socket:type2:output": "22 kW", "charging_station:output": "22 kW", "capacity": "2", "_source": "worldwide"}}, {"type": "node", "id": 7254830679, "lat": 43.62422, "lon": 6.69688, "tags": {"amenity": "charging_station", "fee": "yes", "opening_hours": "24/7", "operator": "Mouv Élec Var", "name": "Fayence - Avenue René Cassin", "addr:country": "FR", "socket:type2": "2", "socket:type2:output": "22 kW", "charging_station:output": "22 kW", "capacity": "2", "_source": "worldwide"}}, {"type": "node", "id": 7254830680, "lat": 43.536283, "lon": 6.699922, "tags": {"amenity": "charging_station", "fee": "yes", "opening_hours": "24/7", "operator": "Mouv Élec Var", "name": "Boulevard du Rayol", "addr:country": "FR", "socket:type2": "2", "socket:type2:output": "22 kW", "charging_station:output": "22 kW", "capacity": "2", "_source": "worldwide"}}, {"type": "node", "id": 7254830681, "lat": 43.536847, "lon": 6.698448, "tags": {"amenity": "charging_station", "fee": "yes", "opening_hours": "24/7", "operator": "Mouv Élec Var", "name": "Montée de derrière le Château", "addr:country": "FR", "socket:type2": "2", "socket:type2:output": "22 kW", "charging_station:output": "22 kW", "_source": "worldwide"}}, {"type": "node", "id": 7254830682, "lat": 43.501231, "lon": 6.644601, "tags": {"amenity": "charging_station", "fee": "yes", "network": "WiiiZ", "opening_hours": "24/7", "operator": "Izivia", "name": "Roquebrune sur Argens - Allée Du 15 Aout 1944", "addr:country": "FR", "socket:type2": "2", "socket:type2:output": "22 kW", "charging_station:output": "22 kW", "_source": "worldwide"}}, {"type": "node", "id": 7254830683, "lat": 43.470629, "lon": 6.566686, "tags": {"amenity": "charging_station", "fee": "yes", "network": "eborn", "opening_hours": "24/7", "operator": "SPBR1", "name": "SPBR1 - eborn", "addr:country": "FR", "socket:type2": "2", "socket:type2:output": "22 kW", "charging_station:output": "22 kW", "capacity": "2", "authentication:none": "yes", "_source": "worldwide"}}, {"type": "node", "id": 7254843713, "lat": 43.337839, "lon": 6.546778, "tags": {"amenity": "charging_station", "fee": "yes", "network": "Plus de Bornes", "opening_hours": "24/7", "operator": "Plus de Bornes", "name": "Plan de la Tour", "addr:country": "FR", "socket:type2": "2", "socket:type2:output": "22 kW", "charging_station:output": "22 kW", "capacity": "2", "_source": "worldwide"}}, {"type": "node", "id": 7254843714, "lat": 43.342362, "lon": 6.691189, "tags": {"amenity": "charging_station", "fee": "yes", "network": "WiiiZ", "opening_hours": "24/7", "operator": "Izivia", "name": "Roquebrune sur Argens_Boulevard des Murènes", "addr:country": "FR", "socket:type2": "2", "socket:type2:output": "22 kW", "charging_station:output": "22 kW", "capacity": "2", "_source": "worldwide"}}, {"type": "node", "id": 11109169680, "lat": 43.341849, "lon": 6.694257, "tags": {"amenity": "charging_station", "fee": "no", "network": "WIIIZ", "opening_hours": "24/7", "operator": "Izivia", "name": "Izivia - WIIIZ", "addr:country": "FR", "socket:type2": "1", "socket:type2:output": "22 kW", "charging_station:output": "22 kW", "authentication:none": "yes", "_source": "worldwide"}}, {"type": "node", "id": 7254843715, "lat": 43.453839, "lon": 6.426882, "tags": {"amenity": "charging_station", "fee": "yes", "opening_hours": "24/7", "operator": "Mouv Élec Var", "name": "TARADEAU_23 rue l'Ormeau", "addr:country": "FR", "socket:type2": "2", "socket:type2:output": "22 kW", "charging_station:output": "22 kW", "_source": "worldwide"}}, {"type": "node", "id": 7254843716, "lat": 43.427743, "lon": 6.222368, "tags": {"amenity": "charging_station", "fee": "yes", "opening_hours": "24/7", "operator": "Mouv Élec Var", "name": "CABASSE_21-22 Rue Jules Ferry", "addr:country": "FR", "socket:type2": "2", "socket:type2:output": "22 kW", "charging_station:output": "22 kW", "_source": "worldwide"}}, {"type": "node", "id": 7254843719, "lat": 43.515146, "lon": 6.241365, "tags": {"amenity": "charging_station", "fee": "yes", "opening_hours": "24/7", "operator": "Mouv Élec Var", "name": "ENTRECASTEAUX_Parking Le Collet", "addr:country": "FR", "socket:type2": "2", "socket:type2:output": "22 kW", "charging_station:output": "22 kW", "_source": "worldwide"}}, {"type": "node", "id": 7254843726, "lat": 43.450872, "lon": 6.304055, "tags": {"amenity": "charging_station", "fee": "yes", "opening_hours": "24/7", "operator": "Mouv Élec Var", "name": "LE THORONET_208 Boulevard du 17 Aout 1944", "addr:country": "FR", "socket:type2": "2", "socket:type2:output": "22 kW", "charging_station:output": "22 kW", "_source": "worldwide"}}, {"type": "node", "id": 7254843727, "lat": 43.590682, "lon": 6.535475, "tags": {"amenity": "charging_station", "fee": "yes", "opening_hours": "24/7", "operator": "Mouv Élec Var", "name": "CALLAS_Chemin Des Frayeres", "addr:country": "FR", "socket:type2": "2", "socket:type2:output": "22 kW", "charging_station:output": "22 kW", "_source": "worldwide"}}, {"type": "node", "id": 7254843728, "lat": 43.571181, "lon": 6.497017, "tags": {"amenity": "charging_station", "fee": "yes", "opening_hours": "24/7", "operator": "Mouv Élec Var", "name": "FIGANIERES_4 Avenue des Marthes", "addr:country": "FR", "socket:type2": "2", "socket:type2:output": "22 kW", "charging_station:output": "22 kW", "_source": "worldwide"}}, {"type": "node", "id": 7254843729, "lat": 43.597875, "lon": 6.450228, "tags": {"amenity": "charging_station", "fee": "yes", "network": "eborn", "opening_hours": "24/7", "operator": "SPBR1", "name": "SPBR1 - eborn", "addr:country": "FR", "socket:type2": "2", "socket:type2:output": "22 kW", "charging_station:output": "22 kW", "capacity": "2", "authentication:none": "yes", "_source": "worldwide"}}, {"type": "node", "id": 7254843730, "lat": 43.60597, "lon": 6.382451, "tags": {"amenity": "charging_station", "fee": "yes", "opening_hours": "24/7", "operator": "Mouv Élec Var", "name": "AMPUS_8 Boulevard Georges Clemenceau", "addr:country": "FR", "socket:type2": "2", "socket:type2:output": "22 kW", "charging_station:output": "22 kW", "_source": "worldwide"}}, {"type": "node", "id": 7254843731, "lat": 43.490585, "lon": 6.361107, "tags": {"amenity": "charging_station", "access": "yes", "fee": "yes", "network": "eborn", "opening_hours": "24/7", "operator": "SPBR1", "name": "LORGUES_10 Rue Du 8 Mai 1945", "addr:country": "FR", "socket:type2": "2", "socket:type2:output": "22 kW", "charging_station:output": "22 kW", "capacity": "2", "authentication:none": "yes", "_source": "worldwide"}}, {"type": "node", "id": 7254843732, "lat": 43.626491, "lon": 6.225404, "tags": {"amenity": "charging_station", "fee": "yes", "network": "eborn", "opening_hours": "24/7", "operator": "SPBR1", "name": "SPBR1 - eborn", "addr:street": "Dessous de la Place Martin Bidouré", "addr:city": "Aups", "socket:type2": "2", "socket:type2:output": "22 kW", "charging_station:output": "22 kW", "capacity": "2", "authentication:none": "yes", "_source": "worldwide"}}, {"type": "node", "id": 10911473744, "lat": 43.626695, "lon": 6.220001, "tags": {"amenity": "charging_station", "fee": "yes", "network": "eborn", "opening_hours": "24/7", "operator": "SPBR1", "name": "SPBR1 - eborn", "addr:street": "Parking de la Colle, Route de Fox-Amphoux", "addr:city": "Aups", "socket:type2": "2", "socket:type2:output": "22 kW", "socket:type2_combo": "1", "socket:type2_combo:output": "50 kW", "socket:chademo": "1", "socket:chademo:output": "50 kW", "charging_station:output": "50 kW", "capacity": "2", "authentication:none": "yes", "_source": "worldwide"}}, {"type": "node", "id": 7254843733, "lat": 43.562878, "lon": 6.233225, "tags": {"amenity": "charging_station", "fee": "yes", "opening_hours": "24/7", "operator": "Mouv Élec Var", "name": "SALERNES_Place Clemenceau", "addr:country": "FR", "socket:type2": "2", "socket:type2:output": "22 kW", "charging_station:output": "22 kW", "_source": "worldwide"}}, {"type": "node", "id": 7254858132, "lat": 43.728944, "lon": 6.793374, "tags": {"amenity": "charging_station", "fee": "yes", "network": "WiiiZ", "opening_hours": "24/7", "operator": "Izivia", "name": "Escragnolles Parking Salle des Fêtes", "addr:country": "FR", "socket:type2": "2", "socket:type2:output": "22 kW", "charging_station:output": "22 kW", "capacity": "2", "_source": "worldwide"}}, {"type": "node", "id": 7254858133, "lat": 43.700354, "lon": 6.847364, "tags": {"amenity": "charging_station", "fee": "yes", "network": "WiiiZ", "opening_hours": "24/7", "operator": "Izivia", "name": "Saint-Vallier-de-Thiey Parking Espace du Thiey", "addr:country": "FR", "socket:type2": "2", "socket:type2:output": "22 kW", "charging_station:output": "22 kW", "capacity": "2", "_source": "worldwide"}}, {"type": "node", "id": 12199213243, "lat": 43.699274, "lon": 6.84846, "tags": {"amenity": "charging_station", "brand": "bike-energy", "operator": "bike-energy", "name": "bike-energy", "addr:country": "FR", "_source": "worldwide"}}, {"type": "node", "id": 7254858134, "lat": 43.799544, "lon": 6.807959, "tags": {"amenity": "charging_station", "fee": "yes", "network": "WiiiZ", "opening_hours": "24/7", "operator": "Izivia", "name": "Andon Lac de Thorenc", "addr:country": "FR", "socket:type2": "2", "socket:type2:output": "22 kW", "charging_station:output": "22 kW", "capacity": "2", "_source": "worldwide"}}, {"type": "node", "id": 7254858135, "lat": 43.843213, "lon": 6.858089, "tags": {"amenity": "charging_station", "fee": "yes", "network": "WiiiZ", "opening_hours": "24/7", "operator": "Izivia", "name": "Le Mas Parking couvert", "addr:country": "FR", "socket:type2": "2", "socket:type2:output": "22 kW", "charging_station:output": "22 kW", "capacity": "2", "_source": "worldwide"}}, {"type": "node", "id": 7254858136, "lat": 43.888809, "lon": 6.863408, "tags": {"amenity": "charging_station", "fee": "yes", "network": "WiiiZ", "opening_hours": "24/7", "operator": "Izivia", "name": "Collongues Place du Château", "addr:country": "FR", "socket:type2": "2", "socket:type2:output": "22 kW", "charging_station:output": "22 kW", "capacity": "2", "_source": "worldwide"}}, {"type": "node", "id": 7254891625, "lat": 43.300398, "lon": 6.185429, "tags": {"amenity": "charging_station", "fee": "yes", "opening_hours": "24/7", "operator": "Mouv Élec Var", "name": "CARNOULES_Avenue Colonel Fabien", "addr:country": "FR", "socket:type2": "2", "socket:type2:output": "22 kW", "charging_station:output": "22 kW", "_source": "worldwide"}}, {"type": "node", "id": 7254891626, "lat": 43.301352, "lon": 6.229593, "tags": {"amenity": "charging_station", "fee": "yes", "opening_hours": "24/7", "operator": "Mouv Élec Var", "name": "PIGNANS_Avenue De La Mairie", "addr:country": "FR", "socket:type2": "2", "socket:type2:output": "22 kW", "charging_station:output": "22 kW", "capacity": "2", "_source": "worldwide"}}, {"type": "node", "id": 12507287754, "lat": 43.301981, "lon": 6.236053, "tags": {"amenity": "charging_station", "fee": "yes", "operator": "Carrefour", "name": "Ladestation Carrefour", "addr:country": "FR", "_source": "worldwide"}}, {"type": "node", "id": 7254891628, "lat": 43.392684, "lon": 6.316509, "tags": {"amenity": "charging_station", "fee": "yes", "opening_hours": "24/7", "operator": "Mouv Élec Var", "name": "LE LUC_Parking Rond point de l'Europe", "addr:country": "FR", "socket:type2": "2", "socket:type2:output": "22 kW", "charging_station:output": "22 kW", "_source": "worldwide"}}, {"type": "node", "id": 7254891629, "lat": 43.390508, "lon": 6.342802, "tags": {"amenity": "charging_station", "fee": "yes", "opening_hours": "24/7", "operator": "Mouv Élec Var", "name": "LE CANNET DES MAURES_48 Avenue du 8 mai 1945", "addr:country": "FR", "socket:type2": "2", "socket:type2:output": "22 kW", "charging_station:output": "22 kW", "capacity": "2", "_source": "worldwide"}}, {"type": "node", "id": 7254931784, "lat": 43.19133, "lon": 6.039828, "tags": {"amenity": "charging_station", "fee": "yes", "opening_hours": "24/7", "operator": "Mouv Élec Var", "name": "SOLLIES PONT_Parking Rezzonico", "addr:country": "FR", "socket:type2": "2", "socket:type2:output": "22 kW", "charging_station:output": "22 kW", "_source": "worldwide"}}, {"type": "node", "id": 11804507252, "lat": 43.191294, "lon": 6.036537, "tags": {"amenity": "charging_station", "fee": "yes", "network": "eborn", "opening_hours": "24/7", "operator": "SPBR1", "name": "SPBR1 - eborn", "addr:country": "FR", "socket:type2": "2", "socket:type2:output": "22 kW", "charging_station:output": "22 kW", "capacity": "2", "authentication:none": "yes", "_source": "worldwide"}}, {"type": "node", "id": 7254932699, "lat": 43.135232, "lon": 6.235807, "tags": {"amenity": "charging_station", "fee": "yes", "network": "eborn", "opening_hours": "24/7", "operator": "SPBR1", "name": "SPBR1 - eborn", "addr:country": "FR", "socket:type2": "2", "socket:type2:output": "22 kW", "charging_station:output": "22 kW", "capacity": "2", "authentication:none": "yes", "_source": "worldwide"}}, {"type": "node", "id": 13313172603, "lat": 43.137578, "lon": 6.231058, "tags": {"amenity": "charging_station", "operator": "Lidl", "name": "Ladestation Lidl", "addr:country": "FR", "capacity": "2", "_source": "worldwide"}}, {"type": "node", "id": 7254932709, "lat": 43.124145, "lon": 6.361902, "tags": {"amenity": "charging_station", "fee": "yes", "opening_hours": "24/7", "operator": "Mouv Élec Var", "name": "BORMES LES MIMOSAS_Sentier des Pêcheurs", "addr:country": "FR", "socket:type2": "2", "socket:type2:output": "22 kW", "charging_station:output": "22 kW", "capacity": "2", "_source": "worldwide"}}, {"type": "node", "id": 13001176416, "lat": 43.125013, "lon": 6.366621, "tags": {"amenity": "charging_station", "fee": "yes", "addr:country": "FR", "capacity": "4", "_source": "worldwide"}}, {"type": "node", "id": 7254932710, "lat": 43.137871, "lon": 6.36969, "tags": {"amenity": "charging_station", "access": "yes", "fee": "yes", "opening_hours": "24/7", "operator": "Mouv Élec Var", "name": "LE LAVANDOU_Boulevard De Lattre Tassigny", "addr:country": "FR", "socket:type2": "2", "socket:type2:output": "22 kW", "charging_station:output": "22 kW", "capacity": "2", "_source": "worldwide"}}, {"type": "node", "id": 7254932711, "lat": 43.143437, "lon": 6.338615, "tags": {"amenity": "charging_station", "fee": "yes", "network": "eborn", "opening_hours": "24/7", "operator": "SPBR1", "name": "SPBR1 - eborn", "addr:country": "FR", "socket:type2": "2", "socket:type2:output": "22 kW", "charging_station:output": "22 kW", "capacity": "2", "authentication:none": "yes", "_source": "worldwide"}}, {"type": "node", "id": 7254932712, "lat": 43.150567, "lon": 6.344771, "tags": {"amenity": "charging_station", "fee": "yes", "opening_hours": "24/7", "operator": "Mouv Élec Var", "name": "BORMES LES MIMOSAS_Place Saint-Francois", "addr:country": "FR", "socket:type2": "2", "socket:type2:output": "22 kW", "charging_station:output": "22 kW", "_source": "worldwide"}}, {"type": "node", "id": 7254932713, "lat": 43.170946, "lon": 6.534893, "tags": {"amenity": "charging_station", "fee": "yes", "network": "Plus de Bornes", "opening_hours": "24/7", "operator": "Plus de Bornes", "name": "Médiathèque- Cavalaire-sur-Mer", "addr:country": "FR", "socket:type2": "1", "socket:type2:output": "22 kW", "charging_station:output": "22 kW", "capacity": "2", "_source": "worldwide"}}, {"type": "node", "id": 11109169829, "lat": 43.171142, "lon": 6.527067, "tags": {"amenity": "charging_station", "fee": "no", "network": "Freshmile", "opening_hours": "24/7", "operator": "Freshmile SAS", "name": "Freshmile SAS - Freshmile", "addr:country": "FR", "socket:type2": "1", "socket:type2:output": "22 kW", "charging_station:output": "22 kW", "authentication:none": "yes", "_source": "worldwide"}}, {"type": "node", "id": 13310795373, "lat": 43.173218, "lon": 6.531965, "tags": {"amenity": "charging_station", "addr:country": "FR", "capacity": "4", "_source": "worldwide"}}, {"type": "node", "id": 7254932718, "lat": 43.208324, "lon": 6.463967, "tags": {"amenity": "charging_station", "fee": "yes", "network": "eborn", "opening_hours": "24/7", "operator": "SPBR1", "name": "SPBR1 - eborn", "addr:country": "FR", "socket:type2": "2", "socket:type2:output": "22 kW", "charging_station:output": "22 kW", "capacity": "2", "authentication:none": "yes", "_source": "worldwide"}}, {"type": "node", "id": 11109195015, "lat": 43.207435, "lon": 6.465199, "tags": {"amenity": "charging_station", "fee": "no", "network": "ELECTRIC 55 CHARGING", "opening_hours": "24/7", "operator": "ELECTRIC 55 CHARGING", "name": "Ladestation ELECTRIC 55 CHARGING", "addr:country": "FR", "socket:type2": "1", "socket:type2:output": "22 kW", "charging_station:output": "22 kW", "authentication:none": "yes", "_source": "worldwide"}}, {"type": "node", "id": 7254932719, "lat": 43.207314, "lon": 6.568732, "tags": {"amenity": "charging_station", "fee": "yes", "network": "VILLE DE LA CROIX VALMER", "opening_hours": "24/7", "operator": "ELECTRIC 55 CHARGING", "name": "La Croix-Valmer Parking", "addr:country": "FR", "socket:type2": "4", "socket:type2:output": "22 kW", "charging_station:output": "22 kW", "capacity": "2", "_source": "worldwide"}}, {"type": "node", "id": 7254932720, "lat": 43.217272, "lon": 6.610849, "tags": {"amenity": "charging_station", "fee": "yes", "network": "eborn", "opening_hours": "24/7", "operator": "SPBR1", "name": "SPBR1 - eborn", "addr:country": "FR", "socket:type2": "2", "socket:type2:output": "22 kW", "charging_station:output": "22 kW", "capacity": "2", "authentication:none": "yes", "_source": "worldwide"}}, {"type": "node", "id": 7254932721, "lat": 43.227475, "lon": 6.661056, "tags": {"amenity": "charging_station", "fee": "yes", "network": "Plus de Bornes", "opening_hours": "24/7", "operator": "Plus de Bornes", "name": "Club 55", "addr:country": "FR", "socket:type2": "2", "socket:type2:output": "22 kW", "charging_station:output": "22 kW", "capacity": "2", "_source": "worldwide"}}, {"type": "node", "id": 7254932722, "lat": 43.264757, "lon": 6.665316, "tags": {"amenity": "charging_station", "fee": "yes", "network": "Plus de Bornes", "opening_hours": "24/7", "operator": "Plus de Bornes", "name": "Saint-Tropez, plage des canoubiers", "addr:country": "FR", "socket:type2": "2", "socket:type2:output": "22 kW", "charging_station:output": "22 kW", "capacity": "2", "_source": "worldwide"}}, {"type": "node", "id": 7254932723, "lat": 43.26948, "lon": 6.640555, "tags": {"amenity": "charging_station", "fee": "yes", "network": "Plus de Bornes", "opening_hours": "24/7", "operator": "Plus de Bornes", "name": "Saint Tropez, place du XVeme corp", "addr:country": "FR", "socket:type2": "2", "socket:type2:output": "22 kW", "charging_station:output": "22 kW", "capacity": "2", "_source": "worldwide"}}, {"type": "node", "id": 11109195020, "lat": 43.268741, "lon": 6.643206, "tags": {"amenity": "charging_station", "fee": "no", "network": "ELECTRIC 55 CHARGING", "opening_hours": "24/7", "operator": "ELECTRIC 55 CHARGING", "name": "Ladestation ELECTRIC 55 CHARGING", "addr:country": "FR", "socket:type2": "1", "socket:type2:output": "22 kW", "charging_station:output": "22 kW", "authentication:none": "yes", "_source": "worldwide"}}, {"type": "node", "id": 7254932725, "lat": 43.274757, "lon": 6.57742, "tags": {"amenity": "charging_station", "fee": "yes", "network": "Plus de Bornes", "opening_hours": "24/7", "operator": "Plus de Bornes", "name": "PORT GRIMAUD", "addr:country": "FR", "socket:type2": "2", "socket:type2:output": "22 kW", "charging_station:output": "22 kW", "capacity": "2", "_source": "worldwide"}}, {"type": "node", "id": 7254932726, "lat": 43.274423, "lon": 6.522892, "tags": {"amenity": "charging_station", "fee": "yes", "network": "Plus de Bornes", "opening_hours": "24/7", "operator": "Plus de Bornes", "name": "Grimaud Mairie", "addr:country": "FR", "socket:type2": "2", "socket:type2:output": "22 kW", "charging_station:output": "22 kW", "capacity": "2", "_source": "worldwide"}}, {"type": "node", "id": 7254932727, "lat": 43.272749, "lon": 6.521296, "tags": {"amenity": "charging_station", "fee": "yes", "network": "Plus de Bornes", "opening_hours": "24/7", "operator": "Plus de Bornes", "name": "GRIMAUD RN7", "addr:country": "FR", "socket:type2": "2", "socket:type2:output": "22 kW", "charging_station:output": "22 kW", "capacity": "2", "_source": "worldwide"}}, {"type": "node", "id": 13234488959, "lat": 43.273969, "lon": 6.523278, "tags": {"amenity": "charging_station", "addr:country": "FR", "_source": "worldwide"}}, {"type": "node", "id": 7254932730, "lat": 43.330293, "lon": 6.044463, "tags": {"amenity": "charging_station", "fee": "yes", "network": "eborn", "opening_hours": "24/7", "operator": "SPBR1", "name": "SPBR1 - eborn", "addr:country": "FR", "socket:type2": "4", "socket:type2:output": "22 kW", "charging_station:output": "22 kW", "authentication:none": "yes", "_source": "worldwide"}}, {"type": "node", "id": 7254932731, "lat": 43.314384, "lon": 6.357913, "tags": {"amenity": "charging_station", "fee": "yes", "opening_hours": "24/7", "operator": "Mouv Élec Var", "name": "LES MAYONS_Avenue Pierre Gaudin", "addr:country": "FR", "socket:type2": "2", "socket:type2:output": "22 kW", "charging_station:output": "22 kW", "_source": "worldwide"}}, {"type": "node", "id": 7254932732, "lat": 43.323549, "lon": 6.293727, "tags": {"amenity": "charging_station", "fee": "yes", "network": "eborn", "opening_hours": "24/7", "operator": "SPBR1", "name": "GONFARON_Pont de Maurice", "addr:country": "FR", "socket:type2": "2", "socket:type2:output": "22 kW", "charging_station:output": "22 kW", "capacity": "2", "authentication:none": "yes", "_source": "worldwide"}}, {"type": "node", "id": 7254932733, "lat": 43.319471, "lon": 6.288639, "tags": {"amenity": "charging_station", "fee": "yes", "opening_hours": "24/7", "operator": "Mouv Élec Var", "name": "GONFARON_02-04 Avenue du Onze Novembre 1918", "addr:country": "FR", "socket:type2": "2", "socket:type2:output": "22 kW", "charging_station:output": "22 kW", "_source": "worldwide"}}, {"type": "node", "id": 7254932734, "lat": 43.288093, "lon": 6.137679, "tags": {"amenity": "charging_station", "fee": "yes", "opening_hours": "24/7", "operator": "Mouv Élec Var", "name": "PUGET VILLE_1-6 Rue des Cantons", "addr:country": "FR", "socket:type2": "2", "socket:type2:output": "22 kW", "charging_station:output": "22 kW", "capacity": "2", "_source": "worldwide"}}, {"type": "node", "id": 7254949685, "lat": 43.208181, "lon": 6.027632, "tags": {"amenity": "charging_station", "fee": "yes", "network": "eborn", "opening_hours": "24/7", "operator": "eborn", "name": "SOLLIES TOUCAS_Avenue Du Gapeau", "addr:country": "FR", "socket:type2": "2", "socket:type2:output": "22 kW", "charging_station:output": "22 kW", "capacity": "2", "authentication:none": "yes", "_source": "worldwide"}}, {"type": "node", "id": 7254949686, "lat": 43.196828, "lon": 6.006095, "tags": {"amenity": "charging_station", "fee": "yes", "network": "eborn", "opening_hours": "24/7", "operator": "SPBR1", "name": "SPBR1 - eborn", "addr:country": "FR", "socket:type2": "2", "socket:type2:output": "22 kW", "charging_station:output": "22 kW", "capacity": "2", "authentication:none": "yes", "_source": "worldwide"}}, {"type": "node", "id": 7254949698, "lat": 43.092958, "lon": 6.074425, "tags": {"amenity": "charging_station", "opening_hours": "24/7", "operator": "Mouv Élec Var", "name": "CARQUEIRANNE_Rue De La Liberation", "addr:country": "FR", "socket:type2": "2", "socket:type2:output": "22 kW", "charging_station:output": "22 kW", "capacity": "2", "_source": "worldwide"}}, {"type": "node", "id": 7254949702, "lat": 43.106136, "lon": 6.024325, "tags": {"amenity": "charging_station", "fee": "yes", "network": "eborn", "opening_hours": "24/7", "operator": "SPBR1", "name": "SPBR1 - eborn", "addr:country": "FR", "socket:type2": "2", "socket:type2:output": "22 kW", "charging_station:output": "22 kW", "capacity": "2", "authentication:none": "yes", "_source": "worldwide"}}, {"type": "node", "id": 7254949703, "lat": 43.107617, "lon": 6.02175, "tags": {"amenity": "charging_station", "fee": "yes", "network": "eborn", "opening_hours": "24/7", "operator": "SPBR1", "name": "SPBR1 - eborn", "addr:country": "FR", "socket:type2": "2", "socket:type2:output": "22 kW", "charging_station:output": "22 kW", "capacity": "2", "authentication:none": "yes", "_source": "worldwide"}}, {"type": "node", "id": 7254949704, "lat": 43.142785, "lon": 6.016314, "tags": {"amenity": "charging_station", "fee": "yes", "network": "Alizé Liberté", "opening_hours": "24/7", "operator": "Bouygues E&S", "name": "La valette du var - rn 98", "addr:country": "FR", "socket:type2": "5", "socket:type2:output": "22 kW", "socket:type2_combo": "1", "socket:type2_combo:output": "50 kW", "charging_station:output": "50 kW", "capacity": "8", "_source": "worldwide"}}, {"type": "node", "id": 7254949705, "lat": 43.148338, "lon": 6.074581, "tags": {"amenity": "charging_station", "fee": "yes", "opening_hours": "24/7", "operator": "Mouv Élec Var", "name": "LA CRAU_01-03 Boulevard de la République", "addr:country": "FR", "socket:type2": "2", "socket:type2:output": "22 kW", "charging_station:output": "22 kW", "_source": "worldwide"}}, {"type": "node", "id": 11802797158, "lat": 43.147208, "lon": 6.075259, "tags": {"amenity": "charging_station", "fee": "yes", "network": "eborn", "opening_hours": "24/7", "operator": "SPBR1", "name": "SPBR1 - eborn", "addr:country": "FR", "socket:type2": "2", "socket:type2:output": "22 kW", "charging_station:output": "22 kW", "capacity": "2", "authentication:none": "yes", "_source": "worldwide"}}, {"type": "node", "id": 7254949706, "lat": 43.150988, "lon": 6.072607, "tags": {"amenity": "charging_station", "fee": "yes", "network": "eborn", "opening_hours": "24/7", "operator": "SPBR1", "name": "LA CRAU_02 Place du Maréchal De Lattre Tassigny", "addr:country": "FR", "socket:type2": "2", "socket:type2:output": "22 kW", "charging_station:output": "22 kW", "capacity": "2", "authentication:none": "yes", "_source": "worldwide"}}, {"type": "node", "id": 7254949716, "lat": 43.120434, "lon": 6.010353, "tags": {"amenity": "charging_station", "fee": "yes", "opening_hours": "24/7", "operator": "Mouv Élec Var", "name": "LA GARDE_Parking Gymnase J.Troin", "addr:country": "FR", "socket:type2": "2", "socket:type2:output": "22 kW", "charging_station:output": "22 kW", "capacity": "2", "_source": "worldwide"}}, {"type": "node", "id": 12786199267, "lat": 43.118948, "lon": 6.01017, "tags": {"amenity": "charging_station", "addr:country": "FR", "_source": "worldwide"}}, {"type": "node", "id": 7254949722, "lat": 43.139711, "lon": 6.236778, "tags": {"amenity": "charging_station", "fee": "yes", "opening_hours": "24/7", "operator": "Mouv Élec Var", "name": "Ladestation Mouv Élec Var", "addr:street": "Rue des Poilus", "socket:type2": "2", "socket:type2:output": "22 kW", "charging_station:output": "22 kW", "_source": "worldwide"}}, {"type": "node", "id": 11109170738, "lat": 43.138879, "lon": 6.238445, "tags": {"amenity": "charging_station", "fee": "yes", "network": "eborn", "opening_hours": "24/7", "operator": "SPBR1", "name": "SPBR1 - eborn", "addr:country": "FR", "socket:type2": "2", "socket:type2:output": "22 kW", "charging_station:output": "22 kW", "capacity": "2", "authentication:none": "yes", "_source": "worldwide"}}, {"type": "node", "id": 7254993823, "lat": 43.39442, "lon": 6.039208, "tags": {"amenity": "charging_station", "fee": "yes", "opening_hours": "24/7", "operator": "Mouv Élec Var", "name": "La Celle_Rue De La Republique", "addr:country": "FR", "socket:type2": "2", "socket:type2:output": "22 kW", "charging_station:output": "22 kW", "_source": "worldwide"}}, {"type": "node", "id": 7254993824, "lat": 43.226478, "lon": 6.144734, "tags": {"amenity": "charging_station", "fee": "yes", "network": "Réseau eborn", "opening_hours": "24/7", "operator": "Mouv Élec Var", "name": "PIERREFEU DU VAR_2 Rue Dr Edmond Mercier", "addr:country": "FR", "socket:type2": "2", "socket:type2:output": "22 kW", "charging_station:output": "22 kW", "capacity": "2", "_source": "worldwide"}}, {"type": "node", "id": 7254993825, "lat": 43.228053, "lon": 6.143314, "tags": {"amenity": "charging_station", "fee": "yes", "network": "Réseau eborn", "opening_hours": "24/7", "operator": "Mouv Élec Var", "name": "PIERREFEU DU VAR_2 Avenue Léon Blum", "addr:country": "FR", "socket:type2": "2", "socket:type2:output": "22 kW", "charging_station:output": "22 kW", "capacity": "2", "_source": "worldwide"}}, {"type": "node", "id": 7254993834, "lat": 43.237704, "lon": 6.075082, "tags": {"amenity": "charging_station", "fee": "yes", "network": "Réseau eborn", "opening_hours": "24/7", "operator": "SPBR1", "name": "CUERS_Chemin De La Guinguette", "addr:country": "FR", "socket:type2": "2", "socket:type2:output": "22 kW", "charging_station:output": "22 kW", "capacity": "2", "_source": "worldwide"}}, {"type": "node", "id": 7254993835, "lat": 43.236603, "lon": 6.073764, "tags": {"amenity": "charging_station", "fee": "yes", "network": "eborn", "opening_hours": "24/7", "operator": "SPBR1", "name": "SPBR1 - eborn", "addr:country": "FR", "socket:type2": "2", "socket:type2:output": "22 kW", "charging_station:output": "22 kW", "capacity": "2", "authentication:none": "yes", "_source": "worldwide"}}, {"type": "node", "id": 7254993836, "lat": 43.246602, "lon": 6.000223, "tags": {"amenity": "charging_station", "fee": "yes", "opening_hours": "24/7", "operator": "Mouv Élec Var", "name": "BELGENTIER_Avenue Louis Arnaud", "addr:country": "FR", "socket:type2": "2", "socket:type2:output": "22 kW", "charging_station:output": "22 kW", "_source": "worldwide"}}, {"type": "node", "id": 7255025233, "lat": 43.408128, "lon": 6.073964, "tags": {"amenity": "charging_station", "fee": "yes", "opening_hours": "24/7", "operator": "Mouv Élec Var", "name": "BRIGNOLES_3 Rue Bruneck Brunico", "addr:country": "FR", "socket:type2": "2", "socket:type2:output": "22 kW", "charging_station:output": "22 kW", "_source": "worldwide"}}, {"type": "node", "id": 7255025236, "lat": 43.407558, "lon": 6.066475, "tags": {"amenity": "charging_station", "fee": "yes", "opening_hours": "24/7", "operator": "Mouv Élec Var", "name": "BRIGNOLES_09 Avenue Maréchal Foch", "addr:country": "FR", "socket:type2": "2", "socket:type2:output": "22 kW", "charging_station:output": "22 kW", "capacity": "2", "_source": "worldwide"}}, {"type": "node", "id": 7255025234, "lat": 43.404273, "lon": 6.064282, "tags": {"amenity": "charging_station", "fee": "yes", "opening_hours": "24/7", "operator": "Mouv Élec Var", "name": "BRIGNOLES_7 Cours de la Liberte", "addr:country": "FR", "socket:type2": "2", "socket:type2:output": "22 kW", "charging_station:output": "22 kW", "_source": "worldwide"}}, {"type": "node", "id": 7255025235, "lat": 43.403983, "lon": 6.062531, "tags": {"amenity": "charging_station", "fee": "yes", "opening_hours": "24/7", "operator": "Mouv Élec Var", "name": "BRIGNOLES_01 Rue du portail Neuf", "addr:country": "FR", "socket:type2": "2", "socket:type2:output": "22 kW", "charging_station:output": "22 kW", "_source": "worldwide"}}, {"type": "node", "id": 7255025238, "lat": 43.406661, "lon": 6.058906, "tags": {"amenity": "charging_station", "fee": "yes", "opening_hours": "24/7", "operator": "Mouv Élec Var", "name": "BRIGNOLES_29 Rue de la République", "addr:country": "FR", "socket:type2": "2", "socket:type2:output": "22 kW", "charging_station:output": "22 kW", "capacity": "2", "_source": "worldwide"}}, {"type": "node", "id": 7255025237, "lat": 43.407238, "lon": 6.061662, "tags": {"amenity": "charging_station", "fee": "yes", "opening_hours": "24/7", "operator": "Mouv Élec Var", "name": "BRIGNOLES_15 Rue Petit Paradis", "addr:country": "FR", "socket:type2": "2", "socket:type2:output": "22 kW", "charging_station:output": "22 kW", "_source": "worldwide"}}, {"type": "node", "id": 7255100829, "lat": 43.710913, "lon": 6.506788, "tags": {"amenity": "charging_station", "fee": "yes", "network": "eborn", "opening_hours": "24/7", "operator": "SPBR1", "name": "SPBR1 - eborn", "addr:country": "FR", "socket:type2": "2", "socket:type2:output": "22 kW", "charging_station:output": "22 kW", "capacity": "2", "authentication:none": "yes", "_source": "worldwide"}}, {"type": "node", "id": 7255100830, "lat": 43.774895, "lon": 6.243019, "tags": {"amenity": "charging_station", "access": "yes", "fee": "yes", "opening_hours": "24/7", "operator": "Mouv Élec Var", "name": "AIGUINES_Place De La Mairie", "addr:street": "Place de la Mairie", "addr:postcode": "83630", "addr:city": "Aiguines", "socket:type2": "2", "socket:type2:output": "22 kW", "charging_station:output": "22 kW", "capacity": "2", "_source": "worldwide"}}, {"type": "node", "id": 7255100831, "lat": 43.732461, "lon": 6.176803, "tags": {"amenity": "charging_station", "fee": "yes", "network": "eborn", "opening_hours": "24/7", "operator": "SPBR1", "name": "BAUDUEN_Rue des Jardins", "addr:street": "Rue des Jardins", "addr:postcode": "83630", "addr:city": "Bauduen", "socket:type2": "2", "socket:type2:output": "22 kW", "charging_station:output": "22 kW", "capacity": "2", "authentication:none": "yes", "_source": "worldwide"}}, {"type": "node", "id": 7255100836, "lat": 43.475562, "lon": 6.182053, "tags": {"amenity": "charging_station", "fee": "yes", "opening_hours": "24/7", "operator": "Mouv Élec Var", "name": "CARCES_Rue Florentin Giraud", "addr:country": "FR", "socket:type2": "2", "socket:type2:output": "22 kW", "charging_station:output": "22 kW", "_source": "worldwide"}}, {"type": "node", "id": 7255100837, "lat": 43.473247, "lon": 6.121209, "tags": {"amenity": "charging_station", "fee": "yes", "opening_hours": "24/7", "operator": "Mouv Élec Var", "name": "MONTFORT SUR ARGENS_Rue De La Rougiere", "addr:country": "FR", "socket:type2": "2", "socket:type2:output": "22 kW", "charging_station:output": "22 kW", "_source": "worldwide"}}, {"type": "node", "id": 7255100838, "lat": 43.485145, "lon": 6.080737, "tags": {"amenity": "charging_station", "fee": "yes", "opening_hours": "24/7", "operator": "Mouv Élec Var", "name": "CORRENS_Condamine", "addr:country": "FR", "socket:type2": "2", "socket:type2:output": "22 kW", "charging_station:output": "22 kW", "_source": "worldwide"}}, {"type": "node", "id": 7255100839, "lat": 43.553296, "lon": 6.029939, "tags": {"amenity": "charging_station", "fee": "yes", "opening_hours": "24/7", "operator": "Mouv Élec Var", "name": "PONTEVES_Chemin de Brignoles", "addr:country": "FR", "socket:type2": "2", "socket:type2:output": "22 kW", "charging_station:output": "22 kW", "_source": "worldwide"}}, {"type": "node", "id": 7306751765, "lat": 43.782936, "lon": 6.518687, "tags": {"amenity": "charging_station", "fee": "yes", "network": "eborn", "opening_hours": "24/7", "operator": "SPBR1", "name": "SPBR1 - eborn", "addr:street": "Rue du Château", "addr:postcode": "83840", "addr:city": "Le Bourguet", "socket:type2": "2", "socket:type2:output": "22 kW", "charging_station:output": "22 kW", "capacity": "2", "authentication:none": "yes", "_source": "worldwide"}}, {"type": "node", "id": 7314613924, "lat": 43.846932, "lon": 6.728566, "tags": {"amenity": "charging_station", "fee": "yes", "network": "WiiiZ", "opening_hours": "24/7", "operator": "Izivia", "name": "Izivia - WiiiZ", "addr:country": "FR", "socket:type2": "2", "socket:type2:output": "22 kW", "charging_station:output": "22 kW", "capacity": "2", "_source": "worldwide"}}, {"type": "node", "id": 7314613925, "lat": 43.77909, "lon": 6.731067, "tags": {"amenity": "charging_station", "fee": "yes", "network": "WiiiZ", "opening_hours": "24/7", "operator": "Izivia", "name": "Izivia - WiiiZ", "addr:country": "FR", "socket:type2": "2", "socket:type2:output": "22 kW", "charging_station:output": "22 kW", "capacity": "2", "_source": "worldwide"}}, {"type": "node", "id": 7314613926, "lat": 43.773845, "lon": 6.703947, "tags": {"amenity": "charging_station", "fee": "yes", "network": "WiiiZ", "opening_hours": "24/7", "operator": "Izivia", "name": "Izivia - WiiiZ", "addr:country": "FR", "socket:type2": "2", "socket:type2:output": "22 kW", "charging_station:output": "22 kW", "capacity": "2", "_source": "worldwide"}}, {"type": "node", "id": 7314613927, "lat": 43.738191, "lon": 6.625908, "tags": {"amenity": "charging_station", "fee": "yes", "opening_hours": "24/7", "operator": "Mouv Élec Var", "name": "Ladestation Mouv Élec Var", "addr:country": "FR", "socket:type2": "2", "socket:type2:output": "22 kW", "charging_station:output": "22 kW", "_source": "worldwide"}}, {"type": "node", "id": 7314613941, "lat": 43.72332, "lon": 6.628058, "tags": {"amenity": "charging_station", "fee": "yes", "network": "eborn", "opening_hours": "24/7", "operator": "SPBR1", "name": "SPBR1 - eborn", "addr:country": "FR", "socket:type2": "2", "socket:type2:output": "22 kW", "charging_station:output": "22 kW", "capacity": "2", "authentication:none": "yes", "_source": "worldwide"}}, {"type": "node", "id": 7551712342, "lat": 43.954079, "lon": 6.370277, "tags": {"amenity": "charging_station", "access": "yes", "fee": "yes", "network": "Réseau eborn", "opening_hours": "24/7", "operator": "Easy Charge", "name": "Easy Charge - Réseau eborn", "addr:country": "FR", "socket:type2": "2", "socket:type2:output": "22.0 kW", "charging_station:output": "22.0 kW", "capacity": "2", "authentication:none": "yes", "_source": "worldwide"}}, {"type": "node", "id": 7959257983, "lat": 43.11648, "lon": 6.201199, "tags": {"amenity": "charging_station", "fee": "yes", "network": "eborn", "opening_hours": "24/7", "operator": "SPBR1", "name": "SPBR1 - eborn", "addr:country": "FR", "socket:type2": "2", "socket:type2:output": "22 kW", "charging_station:output": "22 kW", "capacity": "2", "authentication:none": "yes", "_source": "worldwide"}}, {"type": "node", "id": 8201404063, "lat": 43.120583, "lon": 6.069617, "tags": {"amenity": "charging_station", "fee": "yes", "opening_hours": "24/7", "operator": "Mouv Élec Var", "name": "Ladestation Mouv Élec Var", "addr:country": "FR", "socket:type2": "2", "socket:type2:output": "22 kW", "charging_station:output": "22 kW", "capacity": "2", "_source": "worldwide"}}, {"type": "node", "id": 8779540700, "lat": 43.230188, "lon": 6.585702, "tags": {"amenity": "charging_station", "access": "yes", "fee": "yes", "operator": "55 Charging", "name": "Station de recharge pour voitures électriques de l'office de tourisme", "addr:country": "FR", "capacity": "2", "_source": "worldwide"}}, {"type": "node", "id": 8972655617, "lat": 43.064781, "lon": 6.149867, "tags": {"amenity": "charging_station", "access": "yes", "fee": "yes", "network": "eborn", "opening_hours": "24/7", "operator": "SPBR1", "name": "SPBR1 - eborn", "addr:country": "FR", "socket:type2": "2", "socket:type2:output": "22 kW", "charging_station:output": "22 kW", "capacity": "2", "authentication:none": "yes", "_source": "worldwide"}}, {"type": "node", "id": 9084645939, "lat": 43.948789, "lon": 6.810702, "tags": {"amenity": "charging_station", "access": "yes", "fee": "yes", "network": "Réseau eborn", "opening_hours": "24/7", "operator": "Easy Charge", "name": "Easy Charge - Réseau eborn", "addr:country": "FR", "socket:type2": "1", "socket:type2:output": "43.0 kW", "socket:type2_combo": "1", "socket:type2_combo:output": "50.0 kW", "socket:chademo": "1", "socket:chademo:output": "50.0 kW", "charging_station:output": "50.0 kW", "capacity": "2", "authentication:none": "yes", "_source": "worldwide"}}, {"type": "node", "id": 9103442592, "lat": 43.492815, "lon": 6.534979, "tags": {"amenity": "charging_station", "access": "yes", "fee": "yes", "network": "eborn", "opening_hours": "24/7", "operator": "SPBR1", "name": "SPBR1 - eborn", "addr:country": "FR", "socket:type2": "2", "socket:type2:output": "22 kW", "charging_station:output": "22 kW", "capacity": "2", "authentication:none": "yes", "_source": "worldwide"}}, {"type": "node", "id": 9216146628, "lat": 43.203933, "lon": 6.651899, "tags": {"amenity": "charging_station", "access": "customers", "name": "EVlink", "addr:country": "FR", "capacity": "2", "_source": "worldwide"}}, {"type": "node", "id": 9556538499, "lat": 43.448323, "lon": 6.698987, "tags": {"amenity": "charging_station", "access": "yes", "fee": "yes", "addr:country": "FR", "capacity": "150", "_source": "worldwide"}}, {"type": "node", "id": 9722252856, "lat": 43.780737, "lon": 6.343101, "tags": {"amenity": "charging_station", "fee": "yes", "network": "eborn", "opening_hours": "24/7", "operator": "SPBR1", "name": "SPBR1 - eborn", "addr:country": "FR", "socket:type2": "2", "socket:type2:output": "22 kW", "charging_station:output": "22 kW", "capacity": "2", "authentication:none": "yes", "_source": "worldwide"}}, {"type": "node", "id": 9761359337, "lat": 43.094877, "lon": 6.077235, "tags": {"amenity": "charging_station", "fee": "yes", "network": "eborn", "opening_hours": "24/7", "operator": "SPBR1", "name": "SPBR1 - eborn", "addr:country": "FR", "socket:type2": "2", "socket:type2:output": "22 kW", "charging_station:output": "22 kW", "capacity": "2", "authentication:none": "yes", "_source": "worldwide"}}, {"type": "node", "id": 9796203901, "lat": 43.435073, "lon": 6.809545, "tags": {"amenity": "charging_station", "brand": "ChargePoint", "operator": "ChargePoint", "name": "ChargePoint", "addr:country": "FR", "_source": "worldwide"}}, {"type": "node", "id": 9858682056, "lat": 43.610588, "lon": 6.482479, "tags": {"amenity": "charging_station", "access": "yes", "fee": "yes", "network": "Réseau eborn", "opening_hours": "24/7", "operator": "SPBR1", "name": "SPBR1 - Réseau eborn", "addr:country": "FR", "socket:type2": "2", "socket:type2:output": "22 kW", "charging_station:output": "22 kW", "capacity": "2", "_source": "worldwide"}}, {"type": "node", "id": 10011814718, "lat": 43.846458, "lon": 6.515155, "tags": {"amenity": "charging_station", "fee": "yes", "network": "eborn", "opening_hours": "24/7", "operator": "SPBR1", "name": "SPBR1 - eborn", "addr:country": "FR", "socket:type2": "1", "socket:type2:output": "22 kW", "socket:type2_combo": "1", "socket:type2_combo:output": "50 kW", "socket:chademo": "1", "socket:chademo:output": "50 kW", "charging_station:output": "50 kW", "capacity": "2", "authentication:none": "yes", "_source": "worldwide"}}, {"type": "node", "id": 10152368018, "lat": 43.093122, "lon": 6.025588, "tags": {"amenity": "charging_station", "fee": "yes", "network": "eborn", "opening_hours": "24/7", "operator": "SPBR1", "name": "SPBR1 - eborn", "addr:country": "FR", "socket:type2": "2", "socket:type2:output": "22 kW", "charging_station:output": "22 kW", "capacity": "2", "authentication:none": "yes", "_source": "worldwide"}}, {"type": "node", "id": 10200150039, "lat": 43.541938, "lon": 6.96158, "tags": {"amenity": "charging_station", "opening_hours": "24/7", "operator": "wiiiz", "name": "Ladestation wiiiz", "addr:country": "FR", "capacity": "2", "_source": "worldwide"}}, {"type": "node", "id": 10204051522, "lat": 43.160437, "lon": 6.464773, "tags": {"amenity": "charging_station", "fee": "yes", "opening_hours": "24/7", "addr:country": "FR", "_source": "worldwide"}}, {"type": "node", "id": 10260959775, "lat": 43.038608, "lon": 6.131205, "tags": {"amenity": "charging_station", "access": "yes", "fee": "yes", "network": "eborn", "opening_hours": "24/7", "operator": "SPBR1", "name": "SPBR1 - eborn", "addr:country": "FR", "socket:type2": "2", "socket:type2:output": "22 kW", "charging_station:output": "22 kW", "capacity": "2", "authentication:none": "yes", "_source": "worldwide"}}, {"type": "node", "id": 10261011262, "lat": 43.0478, "lon": 6.148798, "tags": {"amenity": "charging_station", "access": "yes", "fee": "yes", "network": "eborn", "opening_hours": "24/7", "operator": "eborn", "name": "Ladestation eborn", "addr:country": "FR", "socket:type2": "2", "socket:type2:output": "22 kW", "charging_station:output": "22 kW", "capacity": "2", "authentication:none": "yes", "_source": "worldwide"}}, {"type": "node", "id": 10291145760, "lat": 43.552487, "lon": 6.955858, "tags": {"amenity": "charging_station", "addr:country": "FR", "_source": "worldwide"}}, {"type": "node", "id": 11007673295, "lat": 43.551406, "lon": 6.959367, "tags": {"amenity": "charging_station", "access": "yes", "fee": "yes", "brand": "WiiiZ", "name": "Ladestation WiiiZ", "addr:country": "FR", "capacity": "8", "_source": "worldwide"}}, {"type": "node", "id": 11109169634, "lat": 43.552717, "lon": 6.959595, "tags": {"amenity": "charging_station", "fee": "no", "network": "WIIIZ", "opening_hours": "24/7", "operator": "Sodetrel", "name": "Sodetrel - WIIIZ", "addr:country": "FR", "socket:type2": "1", "socket:type2:output": "22 kW", "charging_station:output": "22 kW", "authentication:none": "yes", "_source": "worldwide"}}, {"type": "node", "id": 10559495489, "lat": 43.169402, "lon": 6.524505, "tags": {"amenity": "charging_station", "brand": "Lafon", "name": "Ladestation Lafon", "addr:country": "FR", "socket:type2": "2", "socket:type2:output": "22.0 kW", "charging_station:output": "22.0 kW", "_source": "worldwide"}}, {"type": "node", "id": 10669431007, "lat": 43.537203, "lon": 6.462565, "tags": {"amenity": "charging_station", "addr:country": "FR", "capacity": "4", "_source": "worldwide"}}, {"type": "node", "id": 10962225234, "lat": 43.310633, "lon": 6.634761, "tags": {"amenity": "charging_station", "addr:country": "FR", "_source": "worldwide"}}, {"type": "node", "id": 11003104740, "lat": 43.766782, "lon": 6.543782, "tags": {"amenity": "charging_station", "access": "yes", "fee": "yes", "addr:street": "Rue du Four", "addr:postcode": "83840", "addr:city": "Brenon", "_source": "worldwide"}}, {"type": "node", "id": 11041836207, "lat": 43.77336, "lon": 6.208941, "tags": {"amenity": "charging_station", "access": "yes", "fee": "yes", "network": "eborn", "opening_hours": "24/7", "operator": "SPBR1", "name": "Les Salles-sur-Verdon_Place Gleb Sivirine", "addr:street": "Place Gleb Sivirine", "addr:postcode": "83630", "addr:city": "Les Salles-sur-Verdon", "socket:type2": "2", "socket:type2:output": "22 kW", "charging_station:output": "22 kW", "capacity": "2", "authentication:none": "yes", "_source": "worldwide"}}, {"type": "node", "id": 11044270004, "lat": 43.148832, "lon": 6.033425, "tags": {"amenity": "charging_station", "access": "yes", "fee": "yes", "brand": "Ionity", "network": "Ionity", "opening_hours": "24/7", "operator": "IONITY", "name": "Ionity Chaberte", "addr:country": "FR", "socket:type2_combo": "16", "socket:type2_combo:output": "350.0 kW", "charging_station:output": "350.0 kW", "capacity": "16", "_source": "worldwide"}}, {"type": "node", "id": 11109169584, "lat": 43.668879, "lon": 6.988249, "tags": {"amenity": "charging_station", "fee": "no", "network": "GERANIUMS OPIO BORNE 1", "opening_hours": "24/7", "operator": "GERANIUMS OPIO BORNE 1", "name": "Ladestation GERANIUMS OPIO BORNE 1", "addr:country": "FR", "socket:type2": "1", "socket:type2:output": "22 kW", "charging_station:output": "22 kW", "authentication:none": "yes", "_source": "worldwide"}}, {"type": "node", "id": 11109169590, "lat": 43.611481, "lon": 6.972579, "tags": {"amenity": "charging_station", "fee": "no", "network": "ZEENCO", "opening_hours": "Mo-Th 7:30-12:00,Mo-Th 13:15-18:00,Fr 7:30-12:00,Fr13:15-17:00", "operator": "ZEENCO", "name": "Ladestation ZEENCO", "addr:country": "FR", "socket:type2": "1", "socket:type2:output": "22 kW", "charging_station:output": "22 kW", "_source": "worldwide"}}, {"type": "node", "id": 11109169596, "lat": 43.639705, "lon": 6.978652, "tags": {"amenity": "charging_station", "fee": "no", "network": "SUPER U SUPER U 1", "opening_hours": "24/7", "operator": "SUPER U SUPER U 1", "name": "Ladestation SUPER U SUPER U 1", "addr:country": "FR", "socket:type2": "1", "socket:type2:output": "22 kW", "charging_station:output": "22 kW", "authentication:none": "yes", "_source": "worldwide"}}, {"type": "node", "id": 11109169597, "lat": 43.63593, "lon": 6.955762, "tags": {"amenity": "charging_station", "fee": "no", "network": "SONEPAR GRASSE", "opening_hours": "Mo 06:30-19:00,Tu 06:30-19:00,We 06:30-19:00,Th 06:30-19:00,Fr 06:30-19:00", "operator": "SONEPAR GRASSE", "name": "Ladestation SONEPAR GRASSE", "addr:country": "FR", "socket:type2": "1", "socket:type2:output": "22 kW", "charging_station:output": "22 kW", "authentication:none": "yes", "_source": "worldwide"}}, {"type": "node", "id": 11109169599, "lat": 43.620566, "lon": 6.932883, "tags": {"amenity": "charging_station", "fee": "no", "network": "WIIIZ", "opening_hours": "24/7", "operator": "Sodetrel", "name": "Sodetrel - WIIIZ", "addr:country": "FR", "socket:type2": "1", "socket:type2:output": "22 kW", "charging_station:output": "22 kW", "authentication:none": "yes", "_source": "worldwide"}}, {"type": "node", "id": 11109169601, "lat": 43.607211, "lon": 6.955042, "tags": {"amenity": "charging_station", "fee": "no", "network": "WIIIZ", "opening_hours": "24/7", "operator": "Sodetrel", "name": "Sodetrel - WIIIZ", "addr:country": "FR", "socket:type2": "1", "socket:type2:output": "22 kW", "charging_station:output": "22 kW", "authentication:none": "yes", "_source": "worldwide"}}, {"type": "node", "id": 11109169602, "lat": 43.621304, "lon": 6.969609, "tags": {"amenity": "charging_station", "fee": "no", "network": "WIIIZ", "opening_hours": "24/7", "operator": "Sodetrel", "name": "Sodetrel - WIIIZ", "addr:country": "FR", "socket:type2": "1", "socket:type2:output": "22 kW", "charging_station:output": "22 kW", "authentication:none": "yes", "_source": "worldwide"}}, {"type": "node", "id": 11109169623, "lat": 43.568851, "lon": 6.984026, "tags": {"amenity": "charging_station", "fee": "no", "network": "WIIIZ", "opening_hours": "24/7", "operator": "Sodetrel", "name": "Sodetrel - WIIIZ", "addr:country": "FR", "socket:type2": "1", "socket:type2:output": "22 kW", "charging_station:output": "22 kW", "authentication:none": "yes", "_source": "worldwide"}}, {"type": "node", "id": 11109169630, "lat": 43.583708, "lon": 6.997921, "tags": {"amenity": "charging_station", "fee": "no", "network": "WIIIZ", "opening_hours": "24/7", "operator": "Izivia", "name": "Izivia - WIIIZ", "addr:country": "FR", "socket:type2": "1", "socket:type2:output": "22 kW", "charging_station:output": "22 kW", "authentication:none": "yes", "_source": "worldwide"}}, {"type": "node", "id": 11109169644, "lat": 43.499395, "lon": 6.646478, "tags": {"amenity": "charging_station", "fee": "no", "network": "WiiiZ", "opening_hours": "24/7", "operator": "Izivia", "name": "Izivia - WiiiZ", "addr:country": "FR", "socket:type2": "1", "socket:type2:output": "22 kW", "charging_station:output": "22 kW", "authentication:none": "yes", "_source": "worldwide"}}, {"type": "node", "id": 11109169650, "lat": 43.439098, "lon": 6.072311, "tags": {"amenity": "charging_station", "fee": "no", "network": "eborn", "opening_hours": "24/7", "operator": "SPBR1", "name": "SPBR1 - eborn", "addr:country": "FR", "socket:type2": "1", "socket:type2:output": "22 kW", "charging_station:output": "22 kW", "authentication:none": "yes", "_source": "worldwide"}}, {"type": "node", "id": 11109169651, "lat": 43.550218, "lon": 6.946026, "tags": {"amenity": "charging_station", "fee": "no", "network": "WiiiZ", "opening_hours": "24/7", "operator": "Izivia", "name": "Izivia - WiiiZ", "addr:country": "FR", "socket:type2": "1", "socket:type2:output": "22 kW", "charging_station:output": "22 kW", "capacity": "4", "authentication:none": "yes", "_source": "worldwide"}}, {"type": "node", "id": 11109169652, "lat": 43.550339, "lon": 6.94775, "tags": {"amenity": "charging_station", "fee": "no", "network": "WIIIZ", "opening_hours": "24/7", "operator": "Sodetrel", "name": "Sodetrel - WIIIZ", "addr:country": "FR", "socket:type2": "1", "socket:type2:output": "22 kW", "charging_station:output": "22 kW", "authentication:none": "yes", "_source": "worldwide"}}, {"type": "node", "id": 11109169654, "lat": 43.55015, "lon": 6.948662, "tags": {"amenity": "charging_station", "fee": "no", "network": "Freshmile", "opening_hours": "24/7", "operator": "Freshmile SAS", "name": "Freshmile SAS - Freshmile", "addr:country": "FR", "socket:type2": "1", "socket:type2:output": "22 kW", "charging_station:output": "22 kW", "authentication:none": "yes", "_source": "worldwide"}}, {"type": "node", "id": 11109169656, "lat": 43.521546, "lon": 6.939186, "tags": {"amenity": "charging_station", "fee": "no", "network": "WIIIZ", "opening_hours": "24/7", "operator": "Sodetrel", "name": "Sodetrel - WIIIZ", "addr:country": "FR", "socket:type2": "1", "socket:type2:output": "22 kW", "charging_station:output": "22 kW", "capacity": "2", "authentication:none": "yes", "_source": "worldwide"}}, {"type": "node", "id": 11109169658, "lat": 43.416197, "lon": 6.848026, "tags": {"amenity": "charging_station", "fee": "no", "network": "Freshmile", "opening_hours": "24/7", "operator": "Freshmile SAS", "name": "Freshmile SAS - Freshmile", "addr:country": "FR", "socket:type2": "1", "socket:type2:output": "22 kW", "charging_station:output": "22 kW", "authentication:none": "yes", "_source": "worldwide"}}, {"type": "node", "id": 11109169662, "lat": 43.456775, "lon": 6.686489, "tags": {"amenity": "charging_station", "fee": "no", "network": "WIIIZ", "opening_hours": "24/7", "operator": "Izivia", "name": "Izivia - WIIIZ", "addr:country": "FR", "socket:type2": "1", "socket:type2:output": "22 kW", "charging_station:output": "22 kW", "capacity": "2", "authentication:none": "yes", "_source": "worldwide"}}, {"type": "node", "id": 11109169663, "lat": 43.45656, "lon": 6.683534, "tags": {"amenity": "charging_station", "fee": "no", "network": "WIIIZ", "opening_hours": "24/7", "operator": "Izivia", "name": "Izivia - WIIIZ", "addr:country": "FR", "socket:type2": "1", "socket:type2:output": "22 kW", "charging_station:output": "22 kW", "authentication:none": "yes", "_source": "worldwide"}}, {"type": "node", "id": 11109169666, "lat": 43.420531, "lon": 6.067277, "tags": {"amenity": "charging_station", "fee": "no", "network": "ACCOR Hotels", "opening_hours": "24/7", "operator": "TotalEnergies Marketing France", "name": "TotalEnergies Marketing France - ACCOR Hotels", "addr:country": "FR", "socket:type2": "1", "socket:type2:output": "22 kW", "charging_station:output": "22 kW", "authentication:none": "yes", "_source": "worldwide"}}, {"type": "node", "id": 11109169667, "lat": 43.559672, "lon": 6.250248, "tags": {"amenity": "charging_station", "fee": "no", "network": "Freshmile", "opening_hours": "24/7", "operator": "Freshmile SAS", "name": "Freshmile SAS - Freshmile", "addr:country": "FR", "socket:type2": "1", "socket:type2:output": "22 kW", "charging_station:output": "22 kW", "authentication:none": "yes", "_source": "worldwide"}}, {"type": "node", "id": 11109169669, "lat": 43.53276, "lon": 6.448848, "tags": {"amenity": "charging_station", "fee": "no", "network": "Freshmile", "opening_hours": "24/7", "operator": "Freshmile SAS", "name": "Freshmile SAS - Freshmile", "addr:country": "FR", "socket:type2": "1", "socket:type2:output": "22 kW", "charging_station:output": "22 kW", "authentication:none": "yes", "_source": "worldwide"}}, {"type": "node", "id": 11109169670, "lat": 43.528684, "lon": 6.438522, "tags": {"amenity": "charging_station", "fee": "no", "network": "Freshmile", "opening_hours": "24/7", "operator": "Freshmile SAS", "name": "Freshmile SAS - Freshmile", "addr:country": "FR", "socket:type2": "1", "socket:type2:output": "22 kW", "charging_station:output": "22 kW", "authentication:none": "yes", "_source": "worldwide"}}, {"type": "node", "id": 11109169671, "lat": 43.519443, "lon": 6.619504, "tags": {"amenity": "charging_station", "fee": "no", "network": "Freshmile", "opening_hours": "24/7", "operator": "Freshmile SAS", "name": "Freshmile SAS - Freshmile", "addr:country": "FR", "socket:type2": "1", "socket:type2:output": "22 kW", "socket:chademo": "1", "socket:chademo:output": "50 kW", "charging_station:output": "50 kW", "authentication:none": "yes", "_source": "worldwide"}}, {"type": "node", "id": 11109169673, "lat": 43.432227, "lon": 6.857077, "tags": {"amenity": "charging_station", "fee": "yes", "network": "WiiiZ", "opening_hours": "24/7", "operator": "Izivia", "name": "Izivia - WiiiZ", "addr:country": "FR", "socket:type2": "1", "socket:type2:output": "22 kW", "charging_station:output": "22 kW", "capacity": "2", "authentication:none": "yes", "_source": "worldwide"}}, {"type": "node", "id": 11109169676, "lat": 43.445696, "lon": 6.63861, "tags": {"amenity": "charging_station", "fee": "no", "network": "WiiiZ", "opening_hours": "24/7", "operator": "Izivia", "name": "Izivia - WiiiZ", "addr:country": "FR", "socket:type2": "2", "socket:type2:output": "22 kW", "charging_station:output": "22 kW", "authentication:none": "yes", "_source": "worldwide"}}, {"type": "node", "id": 11109169679, "lat": 43.45109, "lon": 6.633807, "tags": {"amenity": "charging_station", "fee": "no", "network": "Freshmile", "opening_hours": "24/7", "operator": "Freshmile SAS", "name": "Freshmile SAS - Freshmile", "addr:country": "FR", "socket:type2": "1", "socket:type2:output": "22 kW", "charging_station:output": "22 kW", "authentication:none": "yes", "_source": "worldwide"}}, {"type": "node", "id": 11109169693, "lat": 43.373619, "lon": 6.204112, "tags": {"amenity": "charging_station", "fee": "no", "network": "SUPERU FLASSANS SUPER U 2", "opening_hours": "24/7", "operator": "SUPERU FLASSANS SUPER U 2", "name": "Ladestation SUPERU FLASSANS SUPER U 2", "addr:country": "FR", "socket:type2": "1", "socket:type2:output": "22 kW", "charging_station:output": "22 kW", "authentication:none": "yes", "_source": "worldwide"}}, {"type": "node", "id": 11109169694, "lat": 43.404281, "lon": 6.169737, "tags": {"amenity": "charging_station", "fee": "no", "network": "Freshmile", "opening_hours": "24/7", "operator": "Freshmile SAS", "name": "Freshmile SAS - Freshmile", "addr:country": "FR", "socket:type2": "1", "socket:type2:output": "22 kW", "charging_station:output": "22 kW", "authentication:none": "yes", "_source": "worldwide"}}, {"type": "node", "id": 11109169695, "lat": 43.9654, "lon": 6.66765, "tags": {"amenity": "charging_station", "access": "yes", "fee": "no", "network": "Réseau eborn", "opening_hours": "24/7", "operator": "Easy Charge", "name": "Easy Charge - Réseau eborn", "addr:country": "FR", "socket:type2": "2", "socket:type2:output": "22.0 kW", "charging_station:output": "22.0 kW", "capacity": "2", "authentication:none": "yes", "_source": "worldwide"}}, {"type": "node", "id": 11109169699, "lat": 43.119765, "lon": 6.125679, "tags": {"amenity": "charging_station", "fee": "yes", "network": "Réseau eborn", "opening_hours": "24/7", "operator": "SPBR1 | FR*EBN", "name": "SPBR1 | FR*EBN - Réseau eborn", "addr:country": "FR", "socket:type2": "2", "socket:type2:output": "22 kW", "charging_station:output": "22 kW", "capacity": "2", "authentication:none": "yes", "_source": "worldwide"}}, {"type": "node", "id": 11109169700, "lat": 43.1062, "lon": 6.1298, "tags": {"amenity": "charging_station", "fee": "yes", "network": "eborn", "opening_hours": "24/7", "operator": "SPBR1", "name": "SPBR1 - eborn", "addr:country": "FR", "socket:type2": "2", "socket:type2:output": "22 kW", "charging_station:output": "22 kW", "capacity": "2", "authentication:none": "yes", "_source": "worldwide"}}, {"type": "node", "id": 11109169703, "lat": 43.10869, "lon": 6.125376, "tags": {"amenity": "charging_station", "fee": "no", "network": "eborn", "opening_hours": "24/7", "operator": "SPBR1", "name": "SPBR1 - eborn", "addr:country": "FR", "socket:type2": "1", "socket:type2:output": "22 kW", "charging_station:output": "22 kW", "capacity": "2", "authentication:none": "yes", "_source": "worldwide"}}, {"type": "node", "id": 12786253809, "lat": 43.108509, "lon": 6.12472, "tags": {"amenity": "charging_station", "addr:country": "FR", "_source": "worldwide"}}, {"type": "node", "id": 11109169702, "lat": 43.103647, "lon": 6.141823, "tags": {"amenity": "charging_station", "fee": "yes", "network": "eborn", "opening_hours": "24/7", "operator": "SPBR1", "name": "SPBR1 - eborn", "addr:country": "FR", "socket:type2": "2", "socket:type2:output": "22 kW", "charging_station:output": "22 kW", "capacity": "2", "authentication:none": "yes", "_source": "worldwide"}}, {"type": "node", "id": 11109169704, "lat": 43.315614, "lon": 6.078394, "tags": {"amenity": "charging_station", "fee": "no", "network": "BORNE ROCBARON BORNE 2", "opening_hours": "24/7", "operator": "BORNE ROCBARON BORNE 2", "name": "Ladestation BORNE ROCBARON BORNE 2", "addr:country": "FR", "socket:type2": "1", "socket:type2:output": "22 kW", "charging_station:output": "22 kW", "authentication:none": "yes", "_source": "worldwide"}}, {"type": "node", "id": 11109169705, "lat": 43.335978, "lon": 6.082124, "tags": {"amenity": "charging_station", "fee": "yes", "network": "eborn", "opening_hours": "24/7", "operator": "SPBR1", "name": "SPBR1 - eborn", "addr:country": "FR", "socket:type2": "2", "socket:type2:output": "22 kW", "charging_station:output": "22 kW", "capacity": "2", "authentication:none": "yes", "_source": "worldwide"}}, {"type": "node", "id": 11109169710, "lat": 43.6979, "lon": 6.84058, "tags": {"amenity": "charging_station", "fee": "no", "network": "Freshmile", "opening_hours": "24/7", "operator": "Freshmile SAS", "name": "Freshmile SAS - Freshmile", "addr:country": "FR", "socket:type2": "1", "socket:type2:output": "22 kW", "charging_station:output": "22 kW", "authentication:none": "yes", "_source": "worldwide"}}, {"type": "node", "id": 11109169711, "lat": 43.782424, "lon": 6.954072, "tags": {"amenity": "charging_station", "fee": "no", "network": "WIIIZ", "opening_hours": "24/7", "operator": "Izivia", "name": "Izivia - WIIIZ", "addr:country": "FR", "socket:type2": "1", "socket:type2:output": "22 kW", "charging_station:output": "22 kW", "authentication:none": "yes", "_source": "worldwide"}}, {"type": "node", "id": 11109169722, "lat": 43.927462, "lon": 6.947498, "tags": {"amenity": "charging_station", "fee": "no", "network": "WIIIZ", "opening_hours": "24/7", "operator": "Izivia", "name": "Izivia - WIIIZ", "addr:country": "FR", "socket:type2": "1", "socket:type2:output": "22 kW", "charging_station:output": "22 kW", "authentication:none": "yes", "_source": "worldwide"}}, {"type": "node", "id": 11109169723, "lat": 43.873123, "lon": 6.964126, "tags": {"amenity": "charging_station", "fee": "no", "network": "WIIIZ", "opening_hours": "24/7", "operator": "Izivia", "name": "Izivia - WIIIZ", "addr:country": "FR", "socket:type2": "1", "socket:type2:output": "22 kW", "charging_station:output": "22 kW", "authentication:none": "yes", "_source": "worldwide"}}, {"type": "node", "id": 11109169725, "lat": 43.909768, "lon": 6.982924, "tags": {"amenity": "charging_station", "fee": "no", "network": "WIIIZ", "opening_hours": "24/7", "operator": "Izivia", "name": "Izivia - WIIIZ", "addr:country": "FR", "socket:type2": "1", "socket:type2:output": "22 kW", "charging_station:output": "22 kW", "authentication:none": "yes", "_source": "worldwide"}}, {"type": "node", "id": 11109169726, "lat": 43.858005, "lon": 6.914737, "tags": {"amenity": "charging_station", "fee": "no", "network": "WIIIZ", "opening_hours": "24/7", "operator": "Izivia", "name": "Izivia - WIIIZ", "addr:country": "FR", "socket:type2": "1", "socket:type2:output": "22 kW", "charging_station:output": "22 kW", "authentication:none": "yes", "_source": "worldwide"}}, {"type": "node", "id": 11109169727, "lat": 43.890183, "lon": 6.822841, "tags": {"amenity": "charging_station", "fee": "no", "network": "WIIIZ", "opening_hours": "24/7", "operator": "Izivia", "name": "Izivia - WIIIZ", "addr:country": "FR", "socket:type2": "1", "socket:type2:output": "22 kW", "charging_station:output": "22 kW", "authentication:none": "yes", "_source": "worldwide"}}, {"type": "node", "id": 11109169740, "lat": 43.865682, "lon": 6.802294, "tags": {"amenity": "charging_station", "fee": "no", "network": "WIIIZ", "opening_hours": "24/7", "operator": "Izivia", "name": "Izivia - WIIIZ", "addr:country": "FR", "socket:type2": "1", "socket:type2:output": "22 kW", "charging_station:output": "22 kW", "authentication:none": "yes", "_source": "worldwide"}}, {"type": "node", "id": 11109169741, "lat": 43.794499, "lon": 6.398789, "tags": {"amenity": "charging_station", "fee": "no", "network": "LUMI'IN", "opening_hours": "24/7", "operator": "LUMI'IN", "name": "Ladestation LUMI'IN", "addr:country": "FR", "socket:type2": "1", "socket:type2:output": "22 kW", "charging_station:output": "22 kW", "authentication:none": "yes", "_source": "worldwide"}}, {"type": "node", "id": 11109169825, "lat": 43.109285, "lon": 6.35618, "tags": {"amenity": "charging_station", "fee": "no", "network": "ASL GAOU BENAT BORNE 1", "opening_hours": "24/7", "operator": "ASL GAOU BENAT BORNE 1", "name": "Ladestation ASL GAOU BENAT BORNE 1", "addr:country": "FR", "socket:type2": "1", "socket:type2:output": "22 kW", "charging_station:output": "22 kW", "authentication:none": "yes", "_source": "worldwide"}}, {"type": "node", "id": 11109169831, "lat": 43.342153, "lon": 6.689706, "tags": {"amenity": "charging_station", "fee": "no", "network": "WIIIZ", "opening_hours": "24/7", "operator": "Izivia", "name": "Izivia - WIIIZ", "addr:country": "FR", "socket:type2": "1", "socket:type2:output": "22 kW", "charging_station:output": "22 kW", "capacity": "2", "authentication:none": "yes", "_source": "worldwide"}}, {"type": "node", "id": 12691957217, "lat": 43.342034, "lon": 6.686759, "tags": {"amenity": "charging_station", "network": "WIIIZ", "opening_hours": "24/7", "operator": "Izivia", "name": "Izivia - WIIIZ", "addr:country": "FR", "socket:type2": "1", "socket:type2:output": "22 kW", "charging_station:output": "22 kW", "capacity": "2", "authentication:none": "yes", "_source": "worldwide"}}, {"type": "node", "id": 11109169836, "lat": 43.1215, "lon": 6.27657, "tags": {"amenity": "charging_station", "fee": "yes", "network": "Freshmile France", "opening_hours": "24/7", "operator": "Freshmile | FR*FR1", "name": "Freshmile | FR*FR1 - Freshmile France", "addr:country": "FR", "socket:type2": "4", "socket:type2:output": "22 kW", "charging_station:output": "22 kW", "capacity": "4", "authentication:none": "yes", "_source": "worldwide"}},