{"id": "38--108", "latMin": 38, "lonMin": -108, "latMax": 39, "lonMax": -107, "generated": "2026-04-16T18:39:07.637Z", "count": 8, "pois": [{"type": "node", "id": 7062017730, "lat": 38.479753, "lon": -107.87483, "tags": {"amenity": "charging_station", "name": "EV Charging Station", "_source": "worldwide"}}, {"type": "node", "id": 8235477238, "lat": 38.48132, "lon": -107.87659, "tags": {"amenity": "charging_station", "fee": "yes", "access": "yes", "opening_hours": "24/7", "brand": "Tesla Supercharger", "network": "Supercharger", "operator": "Tesla", "name": "Montrose Supercharger", "addr:street": "North 1st Street", "addr:housenumber": "533", "addr:postcode": "81401", "addr:city": "Montrose", "addr:country": "US", "socket:type1_combo": "8", "capacity": "16", "_source": "worldwide"}}, {"type": "node", "id": 10678535839, "lat": 38.026609, "lon": -107.319763, "tags": {"amenity": "charging_station", "fee": "yes", "access": "yes", "brand": "ChargePoint", "operator": "ChargePoint", "name": "ChargePoint", "_source": "worldwide"}}, {"type": "node", "id": 11018671662, "lat": 38.163395, "lon": -107.757466, "tags": {"amenity": "charging_station", "fee": "no", "access": "yes", "brand": "ChargePoint", "operator": "ChargePoint", "name": "ChargePoint", "_source": "worldwide"}}, {"type": "node", "id": 11018671664, "lat": 38.15844, "lon": -107.755738, "tags": {"amenity": "charging_station", "fee": "no", "access": "yes", "brand": "ChargePoint", "operator": "ChargePoint", "name": "ChargePoint", "_source": "worldwide"}}, {"type": "node", "id": 11018671665, "lat": 38.152076, "lon": -107.755119, "tags": {"amenity": "charging_station", "fee": "no", "access": "yes", "operator": "Town of Ridgway", "name": "Town of Ridgway", "_source": "worldwide"}}, {"type": "node", "id": 13014780502, "lat": 38.488654, "lon": -107.862285, "tags": {"amenity": "charging_station", "access": "yes", "opening_hours": "24/7", "network": "FCN", "name": "EV Charging Station", "addr:street": "East Main Street", "addr:housenumber": "1655", "addr:postcode": "81401", "addr:city": "Montrose", "addr:country": "US", "socket:type1_combo": "4", "capacity": "4", "_source": "worldwide"}}, {"type": "node", "id": 13335146797, "lat": 38.454148, "lon": -107.865678, "tags": {"amenity": "charging_station", "fee": "yes", "access": "yes", "brand": "Electrify America", "operator": "Electrify America", "name": "Electrify America Kroger City Market 440", "socket:type1_combo": "6", "capacity": "6", "_source": "worldwide"}}]}