{"id": "29-119", "latMin": 29, "lonMin": 119, "latMax": 30, "lonMax": 120, "generated": "2026-04-16T18:39:07.266Z", "count": 7, "pois": [{"type": "node", "id": 10046821371, "lat": 29.248871, "lon": 119.879148, "tags": {"amenity": "charging_station", "brand": "国家电网", "operator": "国家电网有限公司", "name": "国家电网", "_source": "worldwide"}}, {"type": "node", "id": 10046821372, "lat": 29.247752, "lon": 119.883012, "tags": {"amenity": "charging_station", "brand": "国家电网", "operator": "国家电网有限公司", "name": "国家电网", "_source": "worldwide"}}, {"type": "node", "id": 10184892773, "lat": 29.493903, "lon": 119.294682, "tags": {"amenity": "charging_station", "brand": "NIO Power", "name": "蔚来换电站", "_source": "worldwide"}}, {"type": "node", "id": 10184892806, "lat": 29.493055, "lon": 119.295576, "tags": {"amenity": "charging_station", "brand": "国家电网", "operator": "国家电网有限公司", "name": "国家电网", "_source": "worldwide"}}, {"type": "node", "id": 13120956657, "lat": 29.779607, "lon": 119.957189, "tags": {"amenity": "charging_station", "name": "小桔充电汽车充电站", "_source": "worldwide"}}, {"type": "node", "id": 13734036546, "lat": 29.03703, "lon": 119.608071, "tags": {"amenity": "charging_station", "name": "金华金开产业发展集团有限公司", "_source": "worldwide"}}, {"type": "node", "id": 13734169862, "lat": 29.064435, "lon": 119.654458, "tags": {"amenity": "charging_station", "brand": "特来电", "name": "特来电", "_source": "worldwide"}}]}